{"name":"Minsk","state":"Gorod Minsk","country":"Belarus","latitude":53.9024,"longitude":27.562,"population":2018281,"stateCapital":true,"nationalCapital":true}, 
{"name":"Gomel'","state":"Gomel","country":"Belarus","latitude":52.4238936,"longitude":31.0131698,"population":510459,"stateCapital":true}, 
{"name":"Vitebsk","state":"Vitebsk","country":"Belarus","latitude":55.19139222,"longitude":30.20154137,"population":364674,"stateCapital":true}, 
{"name":"Mogilëv","state":"Mogilev","country":"Belarus","latitude":53.9090245,"longitude":30.3429838,"population":356821,"stateCapital":true}, 
{"name":"Grodno","state":"Grodno","country":"Belarus","latitude":53.6834599,"longitude":23.8342648,"population":355932,"stateCapital":true}, 
{"name":"Brest","state":"Brest","country":"Belarus","latitude":52.093751,"longitude":23.6851851,"population":338979,"stateCapital":true}, 
{"name":"Bobrujsk","state":"Mogilev","country":"Belarus","latitude":53.1449683,"longitude":29.2281209,"population":212283}, 
{"name":"Baranoviči","state":"Brest","country":"Belarus","latitude":53.1322925,"longitude":26.0184156,"population":175100}, 
{"name":"Borisov","state":"Minsk","country":"Belarus","latitude":54.2240665,"longitude":28.5117849,"population":141061,"stateCapital":true}, 
{"name":"Pinsk","state":"Brest","country":"Belarus","latitude":52.1113862,"longitude":26.1025274,"population":126189}, 
{"name":"Orša","state":"Vitebsk","country":"Belarus","latitude":54.51173044,"longitude":30.40938066,"population":107930}, 
{"name":"Mozyr'","state":"Gomel","country":"Belarus","latitude":52.0475482,"longitude":29.2667179,"population":105527}, 
{"name":"Lida","state":"Grodno","country":"Belarus","latitude":53.8949515,"longitude":25.295719,"population":102748}, 
{"name":"Soligorsk","state":"Minsk","country":"Belarus","latitude":52.7893039,"longitude":27.5318168,"population":101564}, 
{"name":"Novopolock","state":"Vitebsk","country":"Belarus","latitude":55.5255074,"longitude":28.59461358,"population":98926}, 
{"name":"Molodečno","state":"Minsk","country":"Belarus","latitude":54.3073327,"longitude":26.8389111,"population":91754}, 
{"name":"Polock","state":"Vitebsk","country":"Belarus","latitude":55.49971906,"longitude":28.78652311,"population":81219}, 
{"name":"Žlobin","state":"Gomel","country":"Belarus","latitude":52.8909181,"longitude":30.0368186,"population":77636}, 
{"name":"Rečica","state":"Gomel","country":"Belarus","latitude":52.3717518,"longitude":30.3860239,"population":66378}, 
{"name":"Svetlogorsk","state":"Gomel","country":"Belarus","latitude":52.6330526,"longitude":29.7484516,"population":65739}, 
{"name":"Žodino","state":"Minsk","country":"Belarus","latitude":54.0963334,"longitude":28.3224192,"population":64841}, 
{"name":"Sluck","state":"Minsk","country":"Belarus","latitude":53.0277354,"longitude":27.5519747,"population":61708}, 
{"name":"Kobrin","state":"Brest","country":"Belarus","latitude":52.2085858,"longitude":24.3542923,"population":52520}, 
{"name":"Slonim","state":"Grodno","country":"Belarus","latitude":53.0927071,"longitude":25.3193209,"population":50068}, 
{"name":"Volkovysk","state":"Grodno","country":"Belarus","latitude":53.1647286,"longitude":24.458169,"population":42980}, 
{"name":"Kalinkoviči","state":"Gomel","country":"Belarus","latitude":52.1286204,"longitude":29.3314442,"population":37674}, 
{"name":"Smorgon'","state":"Grodno","country":"Belarus","latitude":54.4817816,"longitude":26.4012822,"population":36237}, 
{"name":"Rogačëv","state":"Gomel","country":"Belarus","latitude":53.0820031,"longitude":30.0531983,"population":33044}, 
{"name":"Gorki","state":"Mogilev","country":"Belarus","latitude":54.289463,"longitude":30.9810782,"population":30371}, 
{"name":"Osipoviči","state":"Mogilev","country":"Belarus","latitude":53.3084631,"longitude":28.6382068,"population":30049}, 
{"name":"Dzeržinsk","state":"Minsk","country":"Belarus","latitude":53.6852149,"longitude":27.1314539,"population":29170}, 
{"name":"Berëza","state":"Brest","country":"Belarus","latitude":52.5345683,"longitude":24.9844968,"population":28586}, 
{"name":"Novogrudok","state":"Grodno","country":"Belarus","latitude":53.5942493,"longitude":25.8216337,"population":28513}, 
{"name":"Vilejka","state":"Minsk","country":"Belarus","latitude":54.4986462,"longitude":26.9171729,"population":27296}, 
{"name":"Kričev","state":"Mogilev","country":"Belarus","latitude":53.6952273,"longitude":31.7066028,"population":24494}, 
{"name":"Luninec","state":"Brest","country":"Belarus","latitude":52.245228,"longitude":26.797758,"population":23654}, 
{"name":"Ivaceviči","state":"Brest","country":"Belarus","latitude":52.7090639,"longitude":25.3386297,"population":22494}, 
{"name":"Lesnoj","state":"Minsk","country":"Belarus","latitude":54.006142,"longitude":27.680403,"population":21053}, 
{"name":"Mar'ina Gorka","state":"Minsk","country":"Belarus","latitude":53.5117288,"longitude":28.1477541,"population":20742}, 
{"name":"Kolodišči","state":"Minsk","country":"Belarus","latitude":53.9414849,"longitude":27.7714694,"population":20405}, 
{"name":"Postavy","state":"Vitebsk","country":"Belarus","latitude":55.1152391,"longitude":26.84184368,"population":19255}, 
{"name":"Borovljany","state":"Minsk","country":"Belarus","latitude":53.9981195,"longitude":27.6677013,"population":19210}, 
{"name":"Smoleviči","state":"Minsk","country":"Belarus","latitude":54.0299337,"longitude":28.089752,"population":19165}, 
{"name":"Pružany","state":"Brest","country":"Belarus","latitude":52.5581924,"longitude":24.456711,"population":18949}, 
{"name":"Dobruš","state":"Gomel","country":"Belarus","latitude":52.4098777,"longitude":31.3058863,"population":18311}, 
{"name":"Zaslavl'","state":"Minsk","country":"Belarus","latitude":54.004494,"longitude":27.291132,"population":17685}, 
{"name":"Glubokoe","state":"Vitebsk","country":"Belarus","latitude":55.14128014,"longitude":27.68264067,"population":17680}, 
{"name":"Lepel'","state":"Vitebsk","country":"Belarus","latitude":54.88370205,"longitude":28.69530779,"population":17517}, 
{"name":"Stolbcy","state":"Minsk","country":"Belarus","latitude":53.4805863,"longitude":26.7373366,"population":17233}, 
{"name":"Bychov","state":"Mogilev","country":"Belarus","latitude":53.518013,"longitude":30.244291,"population":17128}, 
{"name":"Fanipol'","state":"Minsk","country":"Belarus","latitude":53.7418173,"longitude":27.3204674,"population":17099}, 
{"name":"Ošmjany","state":"Grodno","country":"Belarus","latitude":54.4252347,"longitude":25.9374195,"population":16694}, 
{"name":"Ivanovo","state":"Brest","country":"Belarus","latitude":52.1459395,"longitude":25.5326538,"population":16637}, 
{"name":"Žitkoviči","state":"Gomel","country":"Belarus","latitude":52.21905,"longitude":27.8571199,"population":15980}, 
{"name":"Ščučin","state":"Grodno","country":"Belarus","latitude":53.6045037,"longitude":24.7420522,"population":15910}, 
{"name":"Kostjukoviči","state":"Mogilev","country":"Belarus","latitude":53.345921,"longitude":32.047199,"population":15617}, 
{"name":"Nesviž","state":"Minsk","country":"Belarus","latitude":53.218899,"longitude":26.681732,"population":15566}, 
{"name":"Klimoviči","state":"Mogilev","country":"Belarus","latitude":53.6102643,"longitude":31.9612094,"population":15527}, 
{"name":"Šklov","state":"Mogilev","country":"Belarus","latitude":54.2021736,"longitude":30.2964015,"population":15415}, 
{"name":"Mosty","state":"Grodno","country":"Belarus","latitude":53.4134113,"longitude":24.5428406,"population":15222}, 
{"name":"Logojsk","state":"Minsk","country":"Belarus","latitude":54.2005054,"longitude":27.8475204,"population":15121}, 
{"name":"Drogičin","state":"Brest","country":"Belarus","latitude":52.1887638,"longitude":25.1559039,"population":14846}, 
{"name":"Žabinka","state":"Brest","country":"Belarus","latitude":52.1941201,"longitude":24.0199973,"population":13928}, 
{"name":"Ganceviči","state":"Brest","country":"Belarus","latitude":52.7622857,"longitude":26.4270697,"population":13759}, 
{"name":"Chojniki","state":"Gomel","country":"Belarus","latitude":51.8875635,"longitude":29.9650078,"population":13353}, 
{"name":"Stolin","state":"Brest","country":"Belarus","latitude":51.889572,"longitude":26.849598,"population":12958}, 
{"name":"Mikaševiči","state":"Brest","country":"Belarus","latitude":52.221722,"longitude":27.477364,"population":12916}, 
{"name":"Ostrovec","state":"Grodno","country":"Belarus","latitude":54.6149379,"longitude":25.9565998,"population":12837}, 
{"name":"Malorita","state":"Brest","country":"Belarus","latitude":51.7919347,"longitude":24.0835253,"population":12746}, 
{"name":"Novolukoml'","state":"Vitebsk","country":"Belarus","latitude":54.66902606,"longitude":29.15221664,"population":12635}, 
{"name":"Lel'čicy","state":"Gomel","country":"Belarus","latitude":51.7861783,"longitude":28.3289657,"population":12129}, 
{"name":"Gorodok","state":"Vitebsk","country":"Belarus","latitude":55.46422765,"longitude":29.98937379,"population":11766}, 
{"name":"Ljuban'","state":"Minsk","country":"Belarus","latitude":52.7959497,"longitude":27.9981015,"population":11693}, 
{"name":"Kopišče","state":"Minsk","country":"Belarus","latitude":53.9588197,"longitude":27.6703168,"population":11433}, 
{"name":"Berezino","state":"Minsk","country":"Belarus","latitude":53.836365,"longitude":28.991024,"population":11392}, 
{"name":"Kleck","state":"Minsk","country":"Belarus","latitude":53.0661204,"longitude":26.632966,"population":11363}, 
{"name":"Beloozërsk","state":"Brest","country":"Belarus","latitude":52.4685148,"longitude":25.1780389,"population":11266}, 
{"name":"Starye Dorogi","state":"Minsk","country":"Belarus","latitude":53.04285,"longitude":28.31632,"population":11252}, 
{"name":"Baran'","state":"Vitebsk","country":"Belarus","latitude":54.47799456,"longitude":30.31543335,"population":10721}, 
{"name":"Ljachoviči","state":"Brest","country":"Belarus","latitude":53.039732,"longitude":26.2654467,"population":10701}, 
{"name":"Uzda","state":"Minsk","country":"Belarus","latitude":53.464455,"longitude":27.213484,"population":10691}, 
{"name":"Červen'","state":"Minsk","country":"Belarus","latitude":53.7107271,"longitude":28.4248141,"population":10680}, 
{"name":"Kopyl'","state":"Minsk","country":"Belarus","latitude":53.1514024,"longitude":27.0906929,"population":10425}, 
{"name":"Skidel'","state":"Grodno","country":"Belarus","latitude":53.5902309,"longitude":24.2510704,"population":10422}, 
{"name":"Čausy","state":"Mogilev","country":"Belarus","latitude":53.8071477,"longitude":30.9732332,"population":10360}, 
{"name":"Berëzovka","state":"Grodno","country":"Belarus","latitude":53.72126,"longitude":25.49824,"population":10326}, 
{"name":"Mstislavl'","state":"Mogilev","country":"Belarus","latitude":54.0199107,"longitude":31.7257763,"population":10225}, 
{"name":"Družnyj","state":"Minsk","country":"Belarus","latitude":53.6227138,"longitude":27.8960051,"population":10202}, 
{"name":"Belyniči","state":"Mogilev","country":"Belarus","latitude":53.9982176,"longitude":29.7099785,"population":10093}, 
{"name":"Voložin","state":"Minsk","country":"Belarus","latitude":54.084751,"longitude":26.524609,"population":10069}, 
{"name":"Petrikov","state":"Gomel","country":"Belarus","latitude":52.1259041,"longitude":28.4956961,"population":10025}, 
{"name":"Toločin","state":"Vitebsk","country":"Belarus","latitude":54.4057687,"longitude":29.71422464,"population":9977}, 
{"name":"Mačulišči","state":"Minsk","country":"Belarus","latitude":53.7810787,"longitude":27.5938687,"population":9716}, 
{"name":"Ždanoviči","state":"Minsk","country":"Belarus","latitude":53.9483626,"longitude":27.4274175,"population":9652}, 
{"name":"Braslav","state":"Vitebsk","country":"Belarus","latitude":55.6404892,"longitude":27.04698759,"population":9400}, 
{"name":"El'sk","state":"Gomel","country":"Belarus","latitude":51.8062942,"longitude":29.1519559,"population":9160}, 
{"name":"Gatovo","state":"Minsk","country":"Belarus","latitude":53.784599,"longitude":27.641859,"population":9013}, 
{"name":"Buda-Košelëvo","state":"Gomel","country":"Belarus","latitude":52.7163311,"longitude":30.5650702,"population":8860}, 
{"name":"Čečersk","state":"Gomel","country":"Belarus","latitude":52.9132604,"longitude":30.9147283,"population":8689}, 
{"name":"Krupki","state":"Minsk","country":"Belarus","latitude":54.317196,"longitude":29.139851,"population":8444}, 
{"name":"Vetka","state":"Gomel","country":"Belarus","latitude":52.5611412,"longitude":31.1790777,"population":8359}, 
{"name":"Kamenec","state":"Brest","country":"Belarus","latitude":52.4005918,"longitude":23.8110309,"population":8336}, 
{"name":"Narovlja","state":"Gomel","country":"Belarus","latitude":51.7976497,"longitude":29.5068892,"population":8247}, 
{"name":"Kirovsk","state":"Mogilev","country":"Belarus","latitude":53.27022,"longitude":29.4716,"population":8233}, 
{"name":"Čašniki","state":"Vitebsk","country":"Belarus","latitude":54.85114256,"longitude":29.17243103,"population":8217}, 
{"name":"Djatlovo","state":"Grodno","country":"Belarus","latitude":53.4656997,"longitude":25.4053485,"population":8170}, 
{"name":"Čerikov","state":"Mogilev","country":"Belarus","latitude":53.5697773,"longitude":31.3804512,"population":7984}, 
{"name":"Korma","state":"Gomel","country":"Belarus","latitude":53.1328798,"longitude":30.7977554,"population":7876}, 
{"name":"Slavgorod","state":"Mogilev","country":"Belarus","latitude":53.442223,"longitude":30.994602,"population":7864}, 
{"name":"Miory","state":"Vitebsk","country":"Belarus","latitude":55.62292841,"longitude":27.62893384,"population":7803}, 
{"name":"Senica","state":"Minsk","country":"Belarus","latitude":53.8238775,"longitude":27.5270154,"population":7776}, 
{"name":"Krugloe","state":"Mogilev","country":"Belarus","latitude":54.2484021,"longitude":29.7971582,"population":7579}, 
{"name":"Senno","state":"Vitebsk","country":"Belarus","latitude":54.81123261,"longitude":29.70330028,"population":7476}, 
{"name":"Ol'šany","state":"Brest","country":"Belarus","latitude":52.07854,"longitude":27.34634,"population":7444}, 
{"name":"Šumilino","state":"Vitebsk","country":"Belarus","latitude":55.29931933,"longitude":29.61301995,"population":7439}, 
{"name":"Iv'e","state":"Grodno","country":"Belarus","latitude":53.9130407,"longitude":25.7493481,"population":7437}, 
{"name":"Oktjabr'skij","state":"Gomel","country":"Belarus","latitude":52.6428806,"longitude":28.8798261,"population":7342}, 
{"name":"Glusk","state":"Mogilev","country":"Belarus","latitude":52.8990282,"longitude":28.6855599,"population":7246}, 
{"name":"Kličev","state":"Mogilev","country":"Belarus","latitude":53.489614,"longitude":29.3420691,"population":7188}, 
{"name":"Mjadel'","state":"Minsk","country":"Belarus","latitude":54.8779665,"longitude":26.9342927,"population":7155}, 
{"name":"Dubrovno","state":"Vitebsk","country":"Belarus","latitude":54.57477652,"longitude":30.68861816,"population":7115}, 
{"name":"Verchnedvinsk","state":"Vitebsk","country":"Belarus","latitude":55.77566868,"longitude":27.94109703,"population":7040}, 
{"name":"Bešenkoviči","state":"Vitebsk","country":"Belarus","latitude":55.04346977,"longitude":29.46145561,"population":6977}, 
{"name":"Dokšicy","state":"Vitebsk","country":"Belarus","latitude":54.89365703,"longitude":27.76485067,"population":6868}, 
{"name":"Liozno","state":"Vitebsk","country":"Belarus","latitude":55.021468,"longitude":30.79739068,"population":6745}, 
{"name":"Zel'va","state":"Grodno","country":"Belarus","latitude":53.1494882,"longitude":24.8171039,"population":6614}, 
{"name":"Michanoviči","state":"Minsk","country":"Belarus","latitude":53.75542,"longitude":27.72906,"population":6572}, 
{"name":"Šarkovščina","state":"Vitebsk","country":"Belarus","latitude":55.36609955,"longitude":27.46823824,"population":6451}, 
{"name":"Svisloč'","state":"Grodno","country":"Belarus","latitude":53.036549,"longitude":24.094183,"population":6443}, 
{"name":"Radoškoviči","state":"Minsk","country":"Belarus","latitude":54.1596917,"longitude":27.235522,"population":6371}, 
{"name":"Loev","state":"Gomel","country":"Belarus","latitude":51.9358234,"longitude":30.7997902,"population":6350}, 
{"name":"Starobin","state":"Minsk","country":"Belarus","latitude":52.7307736,"longitude":27.4588627,"population":6331}, 
{"name":"Chotimsk","state":"Mogilev","country":"Belarus","latitude":53.4085849,"longitude":32.5779751,"population":6302}, 
{"name":"Voronovo","state":"Grodno","country":"Belarus","latitude":54.1520519,"longitude":25.3196741,"population":6300}, 
{"name":"Krasnosel'skij","state":"Grodno","country":"Belarus","latitude":53.262112,"longitude":24.41997,"population":6227}, 
{"name":"Ratomka","state":"Minsk","country":"Belarus","latitude":53.937714,"longitude":27.3474498,"population":6061}, 
{"name":"Koreliči","state":"Grodno","country":"Belarus","latitude":53.567295,"longitude":26.138706,"population":6036}, 
{"name":"Lošnica","state":"Minsk","country":"Belarus","latitude":54.2770329,"longitude":28.7688784,"population":6003}, 
{"name":"Pleščenicy","state":"Minsk","country":"Belarus","latitude":54.4240932,"longitude":27.833254,"population":5953}, 
{"name":"David-Gorodok","state":"Brest","country":"Belarus","latitude":52.054893,"longitude":27.212591,"population":5943}, 
{"name":"Čist'","state":"Minsk","country":"Belarus","latitude":54.268211,"longitude":27.108543,"population":5942}, 
{"name":"Rečica","state":"Brest","country":"Belarus","latitude":51.8538649,"longitude":26.787769,"population":5884}, 
{"name":"Priluki","state":"Minsk","country":"Belarus","latitude":53.7938228,"longitude":27.4548107,"population":5876}, 
{"name":"Krasnopol'e","state":"Mogilev","country":"Belarus","latitude":53.3357484,"longitude":31.4006909,"population":5858}, 
{"name":"Ušači","state":"Vitebsk","country":"Belarus","latitude":55.17597645,"longitude":28.61419539,"population":5773}, 
{"name":"Smiloviči","state":"Minsk","country":"Belarus","latitude":53.7518235,"longitude":28.0095908,"population":5763}, 
{"name":"Erëmino","state":"Gomel","country":"Belarus","latitude":52.5120132,"longitude":30.9429738,"population":5759}, 
{"name":"Bol'šaja Berestovica","state":"Grodno","country":"Belarus","latitude":53.1930575,"longitude":24.017197,"population":5661}, 
{"name":"Rossony","state":"Vitebsk","country":"Belarus","latitude":55.90463377,"longitude":28.81149159,"population":4903}, 
{"name":"Vysokoe","state":"Brest","country":"Belarus","latitude":52.3669008,"longitude":23.3783112,"population":4827}, 
{"name":"Ross'","state":"Grodno","country":"Belarus","latitude":53.284083,"longitude":24.4084468,"population":4600}, 
{"name":"Narovčizna","state":"Gomel","country":"Belarus","latitude":52.0211687,"longitude":29.2005183,"population":4493}, 
{"name":"Jubilejnyj","state":"Minsk","country":"Belarus","latitude":53.819126,"longitude":27.522427,"population":4428}, 
{"name":"Bragin","state":"Gomel","country":"Belarus","latitude":51.7820906,"longitude":30.2686322,"population":4307}, 
{"name":"Ozerščina","state":"Gomel","country":"Belarus","latitude":52.406452,"longitude":30.339151,"population":4270}, 
{"name":"Urickoe","state":"Gomel","country":"Belarus","latitude":52.4658096,"longitude":30.8070521,"population":4265}, 
{"name":"Bujniči","state":"Mogilev","country":"Belarus","latitude":53.854382,"longitude":30.26639,"population":4211}, 
{"name":"Krasnaja Sloboda","state":"Minsk","country":"Belarus","latitude":52.8524387,"longitude":27.1728721,"population":4156}, 
{"name":"Žemčužnyj","state":"Brest","country":"Belarus","latitude":53.135334,"longitude":25.8760374,"population":4136}, 
{"name":"Naroč'","state":"Minsk","country":"Belarus","latitude":54.937207,"longitude":26.6898136,"population":4072}, 
{"name":"Ivenec","state":"Minsk","country":"Belarus","latitude":53.8902737,"longitude":26.7405096,"population":3963}, 
{"name":"Pinkoviči","state":"Brest","country":"Belarus","latitude":52.1425994,"longitude":26.168397,"population":3902}, 
{"name":"Leskovka","state":"Minsk","country":"Belarus","latitude":53.9963908,"longitude":27.7209613,"population":3898}, 
{"name":"Kochanovo","state":"Vitebsk","country":"Belarus","latitude":54.45754335,"longitude":30.00115285,"population":3896}, 
{"name":"Čënki","state":"Gomel","country":"Belarus","latitude":52.3517123,"longitude":30.9784491,"population":3888}, 
{"name":"Bol'šoj Trostenec","state":"Minsk","country":"Belarus","latitude":53.855579,"longitude":27.711809,"population":3847}, 
{"name":"Gorodeja","state":"Minsk","country":"Belarus","latitude":53.3147146,"longitude":26.5387834,"population":3797}, 
{"name":"Telechany","state":"Brest","country":"Belarus","latitude":52.5172854,"longitude":25.8417327,"population":3796}, 
{"name":"Svisloč'","state":"Minsk","country":"Belarus","latitude":53.6397501,"longitude":27.9244183,"population":3772}, 
{"name":"Kozenki","state":"Gomel","country":"Belarus","latitude":52.0215805,"longitude":29.1832175,"population":3717}, 
{"name":"Motol'","state":"Brest","country":"Belarus","latitude":52.3166716,"longitude":25.6092415,"population":3674}, 
{"name":"Krasnoe","state":"Gomel","country":"Belarus","latitude":52.4724868,"longitude":30.919522,"population":3663}, 
{"name":"Bolbasovo","state":"Vitebsk","country":"Belarus","latitude":54.41682211,"longitude":30.2909636,"population":3557}, 
{"name":"Bogatyrëvo","state":"Minsk","country":"Belarus","latitude":53.847775,"longitude":27.398397,"population":3532}, 
{"name":"Vasileviči","state":"Gomel","country":"Belarus","latitude":52.245049,"longitude":29.826679,"population":3513}, 
{"name":"Novka","state":"Vitebsk","country":"Belarus","latitude":55.13489941,"longitude":30.15402984,"population":3499}, 
{"name":"Černi","state":"Brest","country":"Belarus","latitude":52.1503912,"longitude":23.7558516,"population":3478}, 
{"name":"Babiniči","state":"Vitebsk","country":"Belarus","latitude":54.42572209,"longitude":30.44692163,"population":3430}, 
{"name":"Ostrošickij Gorodok","state":"Minsk","country":"Belarus","latitude":54.0663552,"longitude":27.6987414,"population":3381}, 
{"name":"Berëzki","state":"Gomel","country":"Belarus","latitude":52.395771,"longitude":31.098261,"population":3318}, 
{"name":"Samochvaloviči","state":"Minsk","country":"Belarus","latitude":53.740215,"longitude":27.503202,"population":3224}, 
{"name":"Pokoljubiči","state":"Gomel","country":"Belarus","latitude":52.5044267,"longitude":31.0348631,"population":3193}, 
{"name":"Bol'ševik","state":"Minsk","country":"Belarus","latitude":54.0064847,"longitude":27.5691726,"population":3171}, 
{"name":"Terechovka","state":"Gomel","country":"Belarus","latitude":52.21338,"longitude":31.42356,"population":3161}, 
{"name":"Verteliški","state":"Grodno","country":"Belarus","latitude":53.7023248,"longitude":24.0083352,"population":3123}, 
{"name":"Galevo","state":"Brest","country":"Belarus","latitude":52.1554592,"longitude":26.1015597,"population":3110}, 
{"name":"Sloboda","state":"Minsk","country":"Belarus","latitude":54.0092768,"longitude":27.8818744,"population":3110}, 
{"name":"Dribin","state":"Mogilev","country":"Belarus","latitude":54.1182948,"longitude":31.0931587,"population":3088}, 
{"name":"Rubel'","state":"Brest","country":"Belarus","latitude":51.9746902,"longitude":27.0618846,"population":3029}, 
{"name":"Oktjabr'skij","state":"Minsk","country":"Belarus","latitude":54.040966,"longitude":28.201378,"population":3014}, 
{"name":"Bol'šie Motykaly","state":"Brest","country":"Belarus","latitude":52.1964846,"longitude":23.5846256,"population":2986}, 
{"name":"Ružany","state":"Brest","country":"Belarus","latitude":52.865925,"longitude":24.8906748,"population":2981}, 
{"name":"Chatežino","state":"Minsk","country":"Belarus","latitude":53.91068,"longitude":27.30686,"population":2980}, 
{"name":"Kopatkeviči","state":"Gomel","country":"Belarus","latitude":52.31629,"longitude":28.81311,"population":2942}, 
{"name":"Černavčicy","state":"Brest","country":"Belarus","latitude":52.2117285,"longitude":23.7471308,"population":2924}, 
{"name":"Rakov","state":"Minsk","country":"Belarus","latitude":53.966892,"longitude":27.052513,"population":2875}, 
{"name":"Ènergetikov","state":"Minsk","country":"Belarus","latitude":53.587872,"longitude":27.052269,"population":2811}, 
{"name":"Novoel'nja","state":"Grodno","country":"Belarus","latitude":53.46102,"longitude":25.57926,"population":2795}, 
{"name":"Turov","state":"Gomel","country":"Belarus","latitude":52.0698597,"longitude":27.7339373,"population":2791}, 
{"name":"Krasnoe","state":"Minsk","country":"Belarus","latitude":54.249104,"longitude":27.078309,"population":2769}, 
{"name":"Polykoviči","state":"Mogilev","country":"Belarus","latitude":53.9749213,"longitude":30.3677101,"population":2768}, 
{"name":"Oktjabr'skaja","state":"Vitebsk","country":"Belarus","latitude":55.12853115,"longitude":30.25920579,"population":2746}, 
{"name":"Muchavec","state":"Brest","country":"Belarus","latitude":52.0293993,"longitude":23.8011695,"population":2743}, 
{"name":"Rudensk","state":"Minsk","country":"Belarus","latitude":53.59594,"longitude":27.86073,"population":2723}, 
{"name":"Novaja Guta","state":"Gomel","country":"Belarus","latitude":52.10413,"longitude":30.978203,"population":2705}, 
{"name":"Zamostoč'e","state":"Minsk","country":"Belarus","latitude":53.82082,"longitude":27.86639,"population":2672}, 
{"name":"Tarasovo","state":"Minsk","country":"Belarus","latitude":53.924206,"longitude":27.388199,"population":2608}, 
{"name":"Boguševsk","state":"Vitebsk","country":"Belarus","latitude":54.84492444,"longitude":30.20755361,"population":2602}, 
{"name":"Ureč'e","state":"Minsk","country":"Belarus","latitude":52.9479611,"longitude":27.8834642,"population":2571}, 
{"name":"Belouša","state":"Brest","country":"Belarus","latitude":51.9374377,"longitude":26.9042623,"population":2570}, 
{"name":"Bol'ševik","state":"Gomel","country":"Belarus","latitude":52.563034,"longitude":30.881638,"population":2570}, 
{"name":"Snov","state":"Minsk","country":"Belarus","latitude":53.217648,"longitude":26.4052279,"population":2564}, 
{"name":"Begoml'","state":"Vitebsk","country":"Belarus","latitude":54.73328162,"longitude":28.05725045,"population":2548}, 
{"name":"Divin","state":"Brest","country":"Belarus","latitude":51.9564593,"longitude":24.5766325,"population":2534}, 
{"name":"Ozery","state":"Grodno","country":"Belarus","latitude":53.7207988,"longitude":24.1835632,"population":2530}, 
{"name":"Borovka","state":"Vitebsk","country":"Belarus","latitude":54.96281949,"longitude":28.81249397,"population":2491}, 
{"name":"Orechovsk","state":"Vitebsk","country":"Belarus","latitude":54.6830895,"longitude":30.49701762,"population":2434}, 
{"name":"Petriški","state":"Minsk","country":"Belarus","latitude":54.0703823,"longitude":27.2185912,"population":2423}, 
{"name":"Voropaevo","state":"Vitebsk","country":"Belarus","latitude":55.14029275,"longitude":27.20438722,"population":2413}, 
{"name":"Sëmkovo","state":"Minsk","country":"Belarus","latitude":54.0212115,"longitude":27.4391217,"population":2399}, 
{"name":"Tel'my-1","state":"Brest","country":"Belarus","latitude":52.1189852,"longitude":23.8316031,"population":2398}, 
{"name":"Kommunar","state":"Gomel","country":"Belarus","latitude":52.6367,"longitude":30.82077,"population":2394}, 
{"name":"Farinovo","state":"Vitebsk","country":"Belarus","latitude":55.42706033,"longitude":28.58850553,"population":2378}, 
{"name":"Privol'nyj","state":"Minsk","country":"Belarus","latitude":53.795464,"longitude":27.795746,"population":2363}, 
{"name":"Krulevščina","state":"Vitebsk","country":"Belarus","latitude":55.02253203,"longitude":27.77988889,"population":2361}, 
{"name":"Obol'","state":"Vitebsk","country":"Belarus","latitude":55.35217805,"longitude":29.29948592,"population":2336}, 
{"name":"Mičurinskaja","state":"Gomel","country":"Belarus","latitude":52.4749209,"longitude":30.9653922,"population":2327}, 
{"name":"Radun'","state":"Grodno","country":"Belarus","latitude":54.0492862,"longitude":24.9984772,"population":2302}, 
{"name":"Vejno","state":"Mogilev","country":"Belarus","latitude":53.8289534,"longitude":30.3870968,"population":2282}, 
{"name":"Uvaroviči","state":"Gomel","country":"Belarus","latitude":52.5961579,"longitude":30.7281263,"population":2262}, 
{"name":"Atolino","state":"Minsk","country":"Belarus","latitude":53.782619,"longitude":27.43338,"population":2201}, 
{"name":"Naroč'","state":"Minsk","country":"Belarus","latitude":54.9371661,"longitude":26.6897469,"population":2186}, 
{"name":"Pravdinskij","state":"Minsk","country":"Belarus","latitude":53.5193297,"longitude":27.8418824,"population":2182}, 
{"name":"Elizovo","state":"Mogilev","country":"Belarus","latitude":53.3996752,"longitude":29.0044798,"population":2144}, 
{"name":"Zareč'e","state":"Gomel","country":"Belarus","latitude":52.4374736,"longitude":30.0803145,"population":2117}, 
{"name":"Novye Zasimoviči","state":"Brest","country":"Belarus","latitude":52.6020803,"longitude":24.3996626,"population":2112}, 
{"name":"Komarin","state":"Gomel","country":"Belarus","latitude":51.4428471,"longitude":30.5669714,"population":2101}, 
{"name":"Ostromečevo","state":"Brest","country":"Belarus","latitude":52.26668,"longitude":23.58516,"population":2085}, 
{"name":"Tulovo","state":"Vitebsk","country":"Belarus","latitude":55.2041309,"longitude":30.29466337,"population":2079}, 
{"name":"Korobčicy","state":"Grodno","country":"Belarus","latitude":53.60611,"longitude":23.74991,"population":2074}, 
{"name":"Kriničnyj","state":"Gomel","country":"Belarus","latitude":51.99185,"longitude":29.32715,"population":2066}, 
{"name":"Belovežskij","state":"Brest","country":"Belarus","latitude":52.4032104,"longitude":23.4606586,"population":2053}, 
{"name":"Obuchovo","state":"Grodno","country":"Belarus","latitude":53.606342,"longitude":24.082022,"population":2043}, 
{"name":"Jubilejnyj","state":"Gomel","country":"Belarus","latitude":52.395985,"longitude":31.083281,"population":2042}, 
{"name":"Mir","state":"Grodno","country":"Belarus","latitude":53.4537435,"longitude":26.4659132,"population":2042}, 
{"name":"Logišin","state":"Brest","country":"Belarus","latitude":52.3395948,"longitude":25.9879344,"population":2038}, 
{"name":"Blon'","state":"Minsk","country":"Belarus","latitude":53.5271983,"longitude":28.1769371,"population":2038}, 
{"name":"Djatloviči","state":"Brest","country":"Belarus","latitude":52.3388926,"longitude":26.8375445,"population":2030}, 
{"name":"Voschod","state":"Mogilev","country":"Belarus","latitude":53.7763896,"longitude":30.3514122,"population":2029}, 
{"name":"Chotyniči","state":"Brest","country":"Belarus","latitude":52.6315576,"longitude":26.3122915,"population":2028}, 
{"name":"Man'koviči","state":"Brest","country":"Belarus","latitude":51.905307,"longitude":26.8775487,"population":2017}, 
{"name":"Parochonsk","state":"Brest","country":"Belarus","latitude":52.230538,"longitude":26.4455643,"population":2014}, 
{"name":"Klejniki","state":"Brest","country":"Belarus","latitude":52.1392901,"longitude":23.6097466,"population":2003}, 
{"name":"Kadino","state":"Mogilev","country":"Belarus","latitude":53.878387,"longitude":30.510099,"population":1996}, 
{"name":"Sosnovyj Bor","state":"Gomel","country":"Belarus","latitude":52.5186,"longitude":29.59528,"population":1994}, 
{"name":"Molotkoviči","state":"Brest","country":"Belarus","latitude":52.1187843,"longitude":25.9228227,"population":1985}, 
{"name":"Bol'šoe Maleševo","state":"Brest","country":"Belarus","latitude":52.06798,"longitude":27.50814,"population":1980}, 
{"name":"Leninskij","state":"Brest","country":"Belarus","latitude":52.1646134,"longitude":24.1092865,"population":1966}, 
{"name":"Kossovo","state":"Brest","country":"Belarus","latitude":52.7575059,"longitude":25.1528353,"population":1958}, 
{"name":"Bol'šie Lepesy","state":"Brest","country":"Belarus","latitude":52.2374557,"longitude":24.381318,"population":1953}, 
{"name":"Mežisetki","state":"Mogilev","country":"Belarus","latitude":53.7775331,"longitude":30.1768311,"population":1947}, 
{"name":"Zjabrovka","state":"Gomel","country":"Belarus","latitude":52.294811,"longitude":31.186319,"population":1941}, 
{"name":"Puchoviči","state":"Minsk","country":"Belarus","latitude":53.5283797,"longitude":28.2527017,"population":1938}, 
{"name":"Pariči","state":"Gomel","country":"Belarus","latitude":52.802124,"longitude":29.42,"population":1923}, 
{"name":"Žiroviči","state":"Grodno","country":"Belarus","latitude":53.0138565,"longitude":25.3445596,"population":1920}, 
{"name":"Vetrino","state":"Vitebsk","country":"Belarus","latitude":55.41013895,"longitude":28.47279349,"population":1908}, 
{"name":"Ščomyslica","state":"Minsk","country":"Belarus","latitude":53.8246802,"longitude":27.4502984,"population":1886}, 
{"name":"Gorodišče","state":"Brest","country":"Belarus","latitude":53.3268244,"longitude":26.0056767,"population":1885}, 
{"name":"Gluškoviči","state":"Gomel","country":"Belarus","latitude":51.565701,"longitude":27.77636,"population":1839}, 
{"name":"Novozaslonovo","state":"Vitebsk","country":"Belarus","latitude":54.88009642,"longitude":28.92564778,"population":1831}, 
{"name":"Stradeč'","state":"Brest","country":"Belarus","latitude":51.92782,"longitude":23.66447,"population":1829}, 
{"name":"Bobroviči","state":"Gomel","country":"Belarus","latitude":52.291928,"longitude":29.3723435,"population":1820}, 
{"name":"Podsvil'e","state":"Vitebsk","country":"Belarus","latitude":55.14924204,"longitude":27.96480079,"population":1817}, 
{"name":"Lužesno","state":"Vitebsk","country":"Belarus","latitude":55.25006438,"longitude":30.13388317,"population":1771}, 
{"name":"Myškoviči","state":"Mogilev","country":"Belarus","latitude":53.220127,"longitude":29.500311,"population":1771}, 
{"name":"Berežnoe","state":"Brest","country":"Belarus","latitude":51.99417,"longitude":26.99315,"population":1742}, 
{"name":"Peski","state":"Brest","country":"Belarus","latitude":52.4983152,"longitude":25.1956847,"population":1732}, 
{"name":"Ol'govo","state":"Vitebsk","country":"Belarus","latitude":55.22765235,"longitude":30.21669891,"population":1721}, 
{"name":"Putriški","state":"Grodno","country":"Belarus","latitude":53.700718,"longitude":23.941515,"population":1721}, 
{"name":"Ostrino","state":"Grodno","country":"Belarus","latitude":53.7309393,"longitude":24.5313527,"population":1706}, 
{"name":"Ugly","state":"Minsk","country":"Belarus","latitude":54.25727,"longitude":28.55295,"population":1692}, 
{"name":"Zaostroveč'e","state":"Minsk","country":"Belarus","latitude":52.902103,"longitude":26.774256,"population":1678}, 
{"name":"Šereševo","state":"Brest","country":"Belarus","latitude":52.5554063,"longitude":24.2154525,"population":1675}, 
{"name":"Poreč'e","state":"Grodno","country":"Belarus","latitude":53.88726,"longitude":24.133511,"population":1675}, 
{"name":"Rusino","state":"Brest","country":"Belarus","latitude":53.0830582,"longitude":26.0923572,"population":1662}, 
{"name":"Olechnoviči","state":"Minsk","country":"Belarus","latitude":54.150787,"longitude":27.09725,"population":1662}, 
{"name":"Novyj Sveržen'","state":"Minsk","country":"Belarus","latitude":53.456436,"longitude":26.728487,"population":1661}, 
{"name":"Staro-Borisov","state":"Minsk","country":"Belarus","latitude":54.281208,"longitude":28.474899,"population":1645}, 
{"name":"Usjaž","state":"Minsk","country":"Belarus","latitude":54.0757928,"longitude":28.0074615,"population":1644}, 
{"name":"Tereškoviči","state":"Gomel","country":"Belarus","latitude":52.256729,"longitude":30.94729,"population":1643}, 
{"name":"Byten'","state":"Brest","country":"Belarus","latitude":52.8820729,"longitude":25.4969306,"population":1639}, 
{"name":"Novyj Dvor","state":"Minsk","country":"Belarus","latitude":53.8156933,"longitude":27.6522558,"population":1630}, 
{"name":"Lapiči","state":"Mogilev","country":"Belarus","latitude":53.436227,"longitude":28.5439549,"population":1616}, 
{"name":"Bol'šie Čučeviči","state":"Brest","country":"Belarus","latitude":52.5794734,"longitude":26.8593161,"population":1609}, 
{"name":"Stan'kovo","state":"Minsk","country":"Belarus","latitude":53.628815,"longitude":27.231537,"population":1608}, 
{"name":"Pervomajskaja","state":"Brest","country":"Belarus","latitude":52.5322555,"longitude":24.8994798,"population":1607}, 
{"name":"Novosel'e","state":"Minsk","country":"Belarus","latitude":53.9154583,"longitude":27.1966629,"population":1590}, 
{"name":"Krasnyj Bereg","state":"Gomel","country":"Belarus","latitude":52.9525877,"longitude":29.7878944,"population":1576}, 
{"name":"Bol'šoe Stiklevo","state":"Minsk","country":"Belarus","latitude":53.868198,"longitude":27.70323,"population":1566}, 
{"name":"Antopol'","state":"Brest","country":"Belarus","latitude":52.2037552,"longitude":24.7875932,"population":1565}, 
{"name":"Bogatyrskaja","state":"Vitebsk","country":"Belarus","latitude":55.5000189,"longitude":28.84902581,"population":1560}, 
{"name":"Novokolosovo","state":"Minsk","country":"Belarus","latitude":53.516613,"longitude":26.924891,"population":1560}, 
{"name":"Disna","state":"Vitebsk","country":"Belarus","latitude":55.56396971,"longitude":28.20817481,"population":1539}, 
{"name":"Timonovo","state":"Mogilev","country":"Belarus","latitude":53.584305,"longitude":31.913652,"population":1527}, 
{"name":"Boboviči","state":"Gomel","country":"Belarus","latitude":52.337662,"longitude":30.911489,"population":1526}, 
{"name":"Minojty","state":"Grodno","country":"Belarus","latitude":53.79885,"longitude":25.3682,"population":1524}, 
{"name":"Vasiliški","state":"Grodno","country":"Belarus","latitude":53.78108,"longitude":24.8473,"population":1521}, 
{"name":"Semigostiči","state":"Brest","country":"Belarus","latitude":52.09408,"longitude":27.42565,"population":1520}, 
{"name":"Vornjany","state":"Grodno","country":"Belarus","latitude":54.7264162,"longitude":26.0044401,"population":1519}, 
{"name":"Tichiniči","state":"Gomel","country":"Belarus","latitude":53.1547328,"longitude":29.8594766,"population":1516}, 
{"name":"Velemiči","state":"Brest","country":"Belarus","latitude":52.02018,"longitude":27.23296,"population":1507}, 
{"name":"Vidzy","state":"Vitebsk","country":"Belarus","latitude":55.39356178,"longitude":26.63143242,"population":1506}, 
{"name":"Dovsk","state":"Gomel","country":"Belarus","latitude":53.159061,"longitude":30.46097,"population":1505}, 
{"name":"Linovo","state":"Brest","country":"Belarus","latitude":52.4760915,"longitude":24.5175119,"population":1501}, 
{"name":"Nosoviči","state":"Gomel","country":"Belarus","latitude":52.279469,"longitude":31.263309,"population":1494}, 
{"name":"Maleč","state":"Brest","country":"Belarus","latitude":52.4817407,"longitude":24.7029048,"population":1491}, 
{"name":"Ulukov'e","state":"Gomel","country":"Belarus","latitude":52.4020519,"longitude":31.1156652,"population":1489}, 
{"name":"Kozlovščina","state":"Grodno","country":"Belarus","latitude":53.31794,"longitude":25.28787,"population":1489}, 
{"name":"Znamenka","state":"Brest","country":"Belarus","latitude":51.87907,"longitude":23.65786,"population":1487}, 
{"name":"Il'ja","state":"Minsk","country":"Belarus","latitude":54.4162101,"longitude":27.2905008,"population":1487}, 
{"name":"Lučniki","state":"Minsk","country":"Belarus","latitude":53.040495,"longitude":27.5172306,"population":1475}, 
{"name":"Chodosy","state":"Mogilev","country":"Belarus","latitude":53.93068,"longitude":31.4845,"population":1454}, 
{"name":"Valer'janovo","state":"Minsk","country":"Belarus","latitude":53.9692393,"longitude":27.6632743,"population":1450}, 
{"name":"Lugovaja Sloboda","state":"Minsk","country":"Belarus","latitude":53.782692,"longitude":27.837265,"population":1447}, 
{"name":"Koverdjaki","state":"Brest","country":"Belarus","latitude":52.1766163,"longitude":23.6640586,"population":1439}, 
{"name":"Mazolovo","state":"Vitebsk","country":"Belarus","latitude":55.28655729,"longitude":30.14401335,"population":1438}, 
{"name":"Cholopeniči","state":"Minsk","country":"Belarus","latitude":54.5173452,"longitude":28.9592835,"population":1436}, 
{"name":"Ditva","state":"Grodno","country":"Belarus","latitude":53.8550581,"longitude":25.1494127,"population":1429}, 
{"name":"Bigosovo","state":"Vitebsk","country":"Belarus","latitude":55.83441854,"longitude":27.73731275,"population":1427}, 
{"name":"Pograničnyj","state":"Grodno","country":"Belarus","latitude":53.1190545,"longitude":23.9699117,"population":1414}, 
{"name":"Kožan-Gorodok","state":"Brest","country":"Belarus","latitude":52.205608,"longitude":27.0102723,"population":1405}, 
{"name":"Ljaskoviči","state":"Brest","country":"Belarus","latitude":52.16832,"longitude":25.55506,"population":1405}, 
{"name":"Romanoviči","state":"Gomel","country":"Belarus","latitude":52.42581,"longitude":31.12135,"population":1396}, 
{"name":"Daškovka","state":"Mogilev","country":"Belarus","latitude":53.7355369,"longitude":30.2613755,"population":1389}, 
{"name":"Romanoviči","state":"Mogilev","country":"Belarus","latitude":53.8640608,"longitude":30.5579173,"population":1388}, 
{"name":"Juratiški","state":"Grodno","country":"Belarus","latitude":54.0301291,"longitude":25.9286017,"population":1387}, 
{"name":"Jagleviči","state":"Brest","country":"Belarus","latitude":52.6962531,"longitude":25.3751794,"population":1382}, 
{"name":"Cagel'nja","state":"Gomel","country":"Belarus","latitude":52.312351,"longitude":31.05337,"population":1361}, 
{"name":"Dolgoe","state":"Minsk","country":"Belarus","latitude":52.60914,"longitude":27.57302,"population":1356}, 
{"name":"Berezinskoe","state":"Minsk","country":"Belarus","latitude":54.221218,"longitude":26.614737,"population":1346}, 
{"name":"Ozerco","state":"Minsk","country":"Belarus","latitude":53.8408112,"longitude":27.3930464,"population":1343}, 
{"name":"Soly","state":"Grodno","country":"Belarus","latitude":54.517941,"longitude":26.18334,"population":1340}, 
{"name":"Červonoe","state":"Gomel","country":"Belarus","latitude":52.363831,"longitude":27.908621,"population":1338}, 
{"name":"Turec-Bojary","state":"Minsk","country":"Belarus","latitude":54.377861,"longitude":26.66004,"population":1336}, 
{"name":"Osnežicy","state":"Brest","country":"Belarus","latitude":52.1889378,"longitude":26.1260071,"population":1334}, 
{"name":"Veremejki","state":"Mogilev","country":"Belarus","latitude":53.7631531,"longitude":31.2808068,"population":1331}, 
{"name":"Rožanka","state":"Grodno","country":"Belarus","latitude":53.5358305,"longitude":24.7362097,"population":1330}, 
{"name":"Gresk","state":"Minsk","country":"Belarus","latitude":53.168808,"longitude":27.490139,"population":1327}, 
{"name":"Lyntupy","state":"Vitebsk","country":"Belarus","latitude":55.04865285,"longitude":26.30802155,"population":1314}, 
{"name":"Borovaja","state":"Minsk","country":"Belarus","latitude":53.9657347,"longitude":27.6460239,"population":1287}, 
{"name":"Dukora","state":"Minsk","country":"Belarus","latitude":53.669655,"longitude":27.953768,"population":1287}, 
{"name":"Derevnaja","state":"Minsk","country":"Belarus","latitude":53.699451,"longitude":26.566231,"population":1284}, 
{"name":"Lesnaja","state":"Brest","country":"Belarus","latitude":52.9812231,"longitude":25.7702225,"population":1281}, 
{"name":"Pervomajskij","state":"Grodno","country":"Belarus","latitude":53.8875638,"longitude":25.4146811,"population":1279}, 
{"name":"Zareč'e","state":"Minsk","country":"Belarus","latitude":54.030361,"longitude":28.2089544,"population":1279}, 
{"name":"Gluša","state":"Mogilev","country":"Belarus","latitude":53.0878921,"longitude":28.8581387,"population":1276}, 
{"name":"Babiniči","state":"Vitebsk","country":"Belarus","latitude":55.25932567,"longitude":30.35720978,"population":1267}, 
{"name":"Barsuki","state":"Minsk","country":"Belarus","latitude":54.0831565,"longitude":28.2703466,"population":1267}, 
{"name":"Gorodec","state":"Brest","country":"Belarus","latitude":52.20411,"longitude":24.66242,"population":1263}, 
{"name":"Lukskij","state":"Gomel","country":"Belarus","latitude":52.968964,"longitude":29.960356,"population":1258}, 
{"name":"Višov","state":"Mogilev","country":"Belarus","latitude":53.9839545,"longitude":29.9837465,"population":1251}, 
{"name":"Benjakoni","state":"Grodno","country":"Belarus","latitude":54.25014,"longitude":25.35902,"population":1247}, 
{"name":"Chal'č","state":"Gomel","country":"Belarus","latitude":52.561169,"longitude":31.13586,"population":1245}, 
{"name":"Domačevo","state":"Brest","country":"Belarus","latitude":51.7473452,"longitude":23.5929791,"population":1244}, 
{"name":"Lenino","state":"Mogilev","country":"Belarus","latitude":54.4075231,"longitude":31.1250995,"population":1244}, 
{"name":"Lunin","state":"Brest","country":"Belarus","latitude":52.30565,"longitude":26.62863,"population":1243}, 
{"name":"Nosilovo","state":"Minsk","country":"Belarus","latitude":54.315331,"longitude":26.780619,"population":1242}, 
{"name":"Zapol'e","state":"Brest","country":"Belarus","latitude":52.1489696,"longitude":26.0821332,"population":1241}, 
{"name":"Soroči","state":"Minsk","country":"Belarus","latitude":52.786129,"longitude":28.01848,"population":1241}, 
{"name":"Bronnoe","state":"Gomel","country":"Belarus","latitude":52.321098,"longitude":30.47402,"population":1239}, 
{"name":"Žgun'","state":"Gomel","country":"Belarus","latitude":52.3365241,"longitude":31.3188786,"population":1239}, 
{"name":"Tomašovka","state":"Brest","country":"Belarus","latitude":51.5538864,"longitude":23.605488,"population":1235}, 
{"name":"Indura","state":"Grodno","country":"Belarus","latitude":53.459721,"longitude":23.883736,"population":1235}, 
{"name":"Gudogaj","state":"Grodno","country":"Belarus","latitude":54.5948821,"longitude":25.8937024,"population":1231}, 
{"name":"Okolica","state":"Minsk","country":"Belarus","latitude":54.0557355,"longitude":27.753926,"population":1229}, 
{"name":"Kopceviči","state":"Gomel","country":"Belarus","latitude":52.245399,"longitude":28.286619,"population":1223}, 
{"name":"Bogdanovka","state":"Brest","country":"Belarus","latitude":52.36865,"longitude":26.45886,"population":1216}, 
{"name":"Myšanka","state":"Gomel","country":"Belarus","latitude":52.186962,"longitude":28.957781,"population":1216}, 
{"name":"Krupica","state":"Minsk","country":"Belarus","latitude":53.679924,"longitude":27.533716,"population":1215}, 
{"name":"Povit'e","state":"Brest","country":"Belarus","latitude":51.9837555,"longitude":24.7610563,"population":1211}, 
{"name":"Lipniški","state":"Grodno","country":"Belarus","latitude":54.0063484,"longitude":25.6070857,"population":1210}, 
{"name":"Achremovcy","state":"Vitebsk","country":"Belarus","latitude":55.58210812,"longitude":27.11016944,"population":1209}, 
{"name":"Trilesino","state":"Mogilev","country":"Belarus","latitude":54.0497707,"longitude":30.9724068,"population":1204}, 
{"name":"Pal'minka","state":"Vitebsk","country":"Belarus","latitude":55.44607738,"longitude":30.13622845,"population":1203}, 
{"name":"Pelišče","state":"Brest","country":"Belarus","latitude":52.3172357,"longitude":23.9203079,"population":1203}, 
{"name":"Geranëny","state":"Grodno","country":"Belarus","latitude":54.1148385,"longitude":25.5782213,"population":1203}, 
{"name":"Korolev Stan","state":"Minsk","country":"Belarus","latitude":53.9866764,"longitude":27.7957266,"population":1203}, 
{"name":"Klepači","state":"Brest","country":"Belarus","latitude":52.7036128,"longitude":24.3515985,"population":1198}, 
{"name":"Sinjavka","state":"Minsk","country":"Belarus","latitude":52.965611,"longitude":26.465824,"population":1191}, 
{"name":"Tugolica","state":"Mogilev","country":"Belarus","latitude":53.07066,"longitude":29.16269,"population":1189}, 
{"name":"Čačkovo","state":"Minsk","country":"Belarus","latitude":53.89317,"longitude":27.20146,"population":1187}, 
{"name":"Zelenyj Bor","state":"Minsk","country":"Belarus","latitude":54.0134705,"longitude":28.4770844,"population":1181}, 
{"name":"Korenëvka","state":"Gomel","country":"Belarus","latitude":52.3526,"longitude":31.111139,"population":1171}, 
{"name":"Ozariči","state":"Gomel","country":"Belarus","latitude":52.4640558,"longitude":29.2617511,"population":1169}, 
{"name":"Cholmeč","state":"Gomel","country":"Belarus","latitude":52.148766,"longitude":30.615055,"population":1166}, 
{"name":"Ezerišče","state":"Vitebsk","country":"Belarus","latitude":55.83226839,"longitude":29.98965495,"population":1165}, 
{"name":"Borovka","state":"Vitebsk","country":"Belarus","latitude":55.81232368,"longitude":27.94130378,"population":1164}, 
{"name":"Timkoviči","state":"Minsk","country":"Belarus","latitude":53.072872,"longitude":26.992043,"population":1164}, 
{"name":"Smol'jany","state":"Vitebsk","country":"Belarus","latitude":54.59764915,"longitude":30.05970803,"population":1163}, 
{"name":"Novaja Myš'","state":"Brest","country":"Belarus","latitude":53.1398832,"longitude":25.9012627,"population":1153}, 
{"name":"Zapol'e","state":"Minsk","country":"Belarus","latitude":53.768379,"longitude":27.990681,"population":1144}, 
{"name":"Uza","state":"Gomel","country":"Belarus","latitude":52.597923,"longitude":30.819191,"population":1139}, 
{"name":"Kriviči","state":"Minsk","country":"Belarus","latitude":54.7113724,"longitude":27.2888929,"population":1133}, 
{"name":"Bol'šaja Ucholoda","state":"Minsk","country":"Belarus","latitude":54.2006304,"longitude":28.6164973,"population":1129}, 
{"name":"Juchnovka","state":"Minsk","country":"Belarus","latitude":53.9777964,"longitude":27.8542821,"population":1128}, 
{"name":"Andreevščina","state":"Vitebsk","country":"Belarus","latitude":54.57028818,"longitude":30.45426534,"population":1121}, 
{"name":"Veseja","state":"Minsk","country":"Belarus","latitude":53.062592,"longitude":27.67576,"population":1118}, 
{"name":"Ljusino","state":"Brest","country":"Belarus","latitude":52.6289078,"longitude":26.5132338,"population":1117}, 
{"name":"Ëdki","state":"Grodno","country":"Belarus","latitude":53.85232,"longitude":25.35713,"population":1110}, 
{"name":"Lachva","state":"Brest","country":"Belarus","latitude":52.2128505,"longitude":27.1016299,"population":1108}, 
{"name":"Malaja Berestovica","state":"Grodno","country":"Belarus","latitude":53.2869798,"longitude":23.9400922,"population":1107}, 
{"name":"Kvasovka","state":"Grodno","country":"Belarus","latitude":53.514149,"longitude":23.996887,"population":1100}, 
{"name":"Žmurovka","state":"Gomel","country":"Belarus","latitude":52.33543,"longitude":30.45676,"population":1098}, 
{"name":"Lebedevo","state":"Minsk","country":"Belarus","latitude":54.3142698,"longitude":26.7064608,"population":1098}, 
{"name":"Želudok","state":"Grodno","country":"Belarus","latitude":53.599599,"longitude":24.9810327,"population":1095}, 
{"name":"Gock","state":"Minsk","country":"Belarus","latitude":52.5259144,"longitude":27.130539,"population":1093}, 
{"name":"Dobromysli","state":"Vitebsk","country":"Belarus","latitude":54.92999319,"longitude":30.67288663,"population":1089}, 
{"name":"Pudovnja","state":"Mogilev","country":"Belarus","latitude":54.0520699,"longitude":30.651645,"population":1087}, 
{"name":"Skoki","state":"Brest","country":"Belarus","latitude":52.1570569,"longitude":23.6391485,"population":1084}, 
{"name":"Pobeda","state":"Gomel","country":"Belarus","latitude":52.3966892,"longitude":31.0747001,"population":1084}, 
{"name":"Drozdovo","state":"Minsk","country":"Belarus","latitude":53.9867357,"longitude":27.6151572,"population":1079}, 
{"name":"Zaspa","state":"Gomel","country":"Belarus","latitude":52.260651,"longitude":30.499798,"population":1076}, 
{"name":"Ozero","state":"Minsk","country":"Belarus","latitude":53.630646,"longitude":27.452829,"population":1076}, 
{"name":"Višnëvka","state":"Minsk","country":"Belarus","latitude":54.062653,"longitude":27.556915,"population":1069}, 
{"name":"Tyškoviči","state":"Brest","country":"Belarus","latitude":52.3483877,"longitude":25.6121356,"population":1068}, 
{"name":"Ljubča","state":"Grodno","country":"Belarus","latitude":53.7542035,"longitude":26.058152,"population":1068}, 
{"name":"Solonoe","state":"Gomel","country":"Belarus","latitude":52.844318,"longitude":30.018681,"population":1067}, 
{"name":"Moroč'","state":"Minsk","country":"Belarus","latitude":52.876251,"longitude":26.86681,"population":1066}, 
{"name":"Kirovskaja","state":"Vitebsk","country":"Belarus","latitude":55.19104573,"longitude":30.11151857,"population":1060}, 
{"name":"Tjurli","state":"Minsk","country":"Belarus","latitude":54.283524,"longitude":26.819075,"population":1058}, 
{"name":"Korolevo","state":"Minsk","country":"Belarus","latitude":53.5982542,"longitude":27.4532232,"population":1056}, 
{"name":"Dvorec","state":"Brest","country":"Belarus","latitude":52.2761149,"longitude":26.9558926,"population":1053}, 
{"name":"Ljuban'","state":"Minsk","country":"Belarus","latitude":54.5944473,"longitude":26.8714854,"population":1049}, 
{"name":"Ljubiščicy","state":"Brest","country":"Belarus","latitude":52.7527426,"longitude":25.4149664,"population":1046}, 
{"name":"Gol'šany","state":"Grodno","country":"Belarus","latitude":54.256939,"longitude":26.012857,"population":1044}, 
{"name":"Osveja","state":"Vitebsk","country":"Belarus","latitude":56.01386161,"longitude":28.10340593,"population":1041}, 
{"name":"Gezgaly","state":"Grodno","country":"Belarus","latitude":53.603477,"longitude":25.380707,"population":1041}, 
{"name":"Dolginovo","state":"Minsk","country":"Belarus","latitude":54.6456778,"longitude":27.4762063,"population":1038}, 
{"name":"Semeževo","state":"Minsk","country":"Belarus","latitude":52.9627379,"longitude":26.9978882,"population":1038}, 
{"name":"Radostovo","state":"Brest","country":"Belarus","latitude":51.9666732,"longitude":24.9340886,"population":1036}, 
{"name":"Veljatiči","state":"Minsk","country":"Belarus","latitude":54.1641369,"longitude":28.903816,"population":1035}, 
{"name":"Veličkoviči","state":"Minsk","country":"Belarus","latitude":52.6319158,"longitude":27.253801,"population":1034}, 
{"name":"Krakovka","state":"Grodno","country":"Belarus","latitude":54.443403,"longitude":25.9841731,"population":1029}, 
{"name":"Cnjanka","state":"Minsk","country":"Belarus","latitude":53.9723569,"longitude":27.530205,"population":1025}, 
{"name":"Ol'gomel'","state":"Brest","country":"Belarus","latitude":52.04738,"longitude":27.47947,"population":1022}, 
{"name":"Svir'","state":"Minsk","country":"Belarus","latitude":54.8506427,"longitude":26.398884,"population":1022}, 
{"name":"Domanovo","state":"Brest","country":"Belarus","latitude":52.829296,"longitude":25.473792,"population":1020}, 
{"name":"Stajki","state":"Brest","country":"Belarus","latitude":52.705786,"longitude":25.2886,"population":1019}, 
{"name":"Zašir'e","state":"Gomel","country":"Belarus","latitude":51.759338,"longitude":28.71603,"population":1019}, 
{"name":"Razdjaloviči","state":"Brest","country":"Belarus","latitude":52.63146,"longitude":26.14789,"population":1016}, 
{"name":"Chomsk","state":"Brest","country":"Belarus","latitude":52.3329043,"longitude":25.2287059,"population":1011}, 
{"name":"Budenovka","state":"Grodno","country":"Belarus","latitude":54.42112,"longitude":25.903099,"population":1010}, 
{"name":"Ozdamiči","state":"Brest","country":"Belarus","latitude":52.018843,"longitude":27.4831828,"population":1007}, 
{"name":"Ol'many","state":"Brest","country":"Belarus","latitude":51.8088457,"longitude":27.0626468,"population":1007}, 
{"name":"Kirovo","state":"Gomel","country":"Belarus","latitude":52.9103486,"longitude":30.322416,"population":1003}, 
{"name":"Pireviči","state":"Gomel","country":"Belarus","latitude":52.7904966,"longitude":30.3171518,"population":1002}, 
{"name":"El'nica","state":"Minsk","country":"Belarus","latitude":53.8182636,"longitude":27.722308,"population":1002}, 
{"name":"Polesskij","state":"Brest","country":"Belarus","latitude":52.29449,"longitude":26.66639,"population":1000}, 
{"name":"Kopti","state":"Vitebsk","country":"Belarus","latitude":55.0634662,"longitude":30.35160463,"population":998}, 
{"name":"Remel'","state":"Brest","country":"Belarus","latitude":52.0423299,"longitude":27.3384096,"population":998}, 
{"name":"Bostyn'","state":"Brest","country":"Belarus","latitude":52.3885743,"longitude":26.7544536,"population":997}, 
{"name":"Sopockin","state":"Grodno","country":"Belarus","latitude":53.831234,"longitude":23.655956,"population":997}, 
{"name":"Pleščicy","state":"Brest","country":"Belarus","latitude":52.0692671,"longitude":26.2024723,"population":985}, 
{"name":"Koptevka","state":"Grodno","country":"Belarus","latitude":53.566936,"longitude":23.87335,"population":985}, 
{"name":"Chotljany","state":"Minsk","country":"Belarus","latitude":53.4009375,"longitude":27.5700932,"population":984}, 
{"name":"Aksakovščina","state":"Minsk","country":"Belarus","latitude":53.9366211,"longitude":27.0873407,"population":983}, 
{"name":"Jatvez'","state":"Grodno","country":"Belarus","latitude":53.171963,"longitude":24.4023,"population":980}, 
{"name":"Vul'ka-1","state":"Brest","country":"Belarus","latitude":52.27681,"longitude":26.70579,"population":978}, 
{"name":"Krupec","state":"Gomel","country":"Belarus","latitude":52.3293299,"longitude":31.3647418,"population":978}, 
{"name":"Negneviči","state":"Grodno","country":"Belarus","latitude":53.6586,"longitude":26.07802,"population":978}, 
{"name":"Dračkovo","state":"Minsk","country":"Belarus","latitude":53.819366,"longitude":28.075708,"population":977}, 
{"name":"Novye Lyščicy","state":"Brest","country":"Belarus","latitude":52.26033,"longitude":23.50044,"population":970}, 
{"name":"Veluta","state":"Brest","country":"Belarus","latitude":52.4596039,"longitude":26.7907476,"population":969}, 
{"name":"Strešin","state":"Gomel","country":"Belarus","latitude":52.7291918,"longitude":30.1054854,"population":964}, 
{"name":"Krupskij","state":"Minsk","country":"Belarus","latitude":54.30087,"longitude":29.07137,"population":964}, 
{"name":"Paraf'janovo","state":"Vitebsk","country":"Belarus","latitude":54.87568644,"longitude":27.60826201,"population":963}, 
{"name":"Rakitnica","state":"Brest","country":"Belarus","latitude":52.1312858,"longitude":23.9944089,"population":963}, 
{"name":"Tišovka","state":"Mogilev","country":"Belarus","latitude":53.886495,"longitude":30.2499263,"population":963}, 
{"name":"Vysokoe","state":"Vitebsk","country":"Belarus","latitude":54.64185347,"longitude":30.43315862,"population":961}, 
{"name":"Korma","state":"Gomel","country":"Belarus","latitude":52.344311,"longitude":31.509876,"population":960}, 
{"name":"Goža","state":"Grodno","country":"Belarus","latitude":53.814095,"longitude":23.85462,"population":958}, 
{"name":"Kurenec","state":"Minsk","country":"Belarus","latitude":54.5554547,"longitude":26.9642369,"population":954}, 
{"name":"Vidomlja","state":"Brest","country":"Belarus","latitude":52.3274723,"longitude":23.7841011,"population":953}, 
{"name":"Bystrica","state":"Minsk","country":"Belarus","latitude":53.03392,"longitude":27.07778,"population":950}, 
{"name":"Gora","state":"Minsk","country":"Belarus","latitude":54.18655,"longitude":28.55064,"population":948}, 
{"name":"Mosty Pravye","state":"Grodno","country":"Belarus","latitude":53.4295234,"longitude":24.6295131,"population":947}, 
{"name":"Zales'e","state":"Grodno","country":"Belarus","latitude":54.4208324,"longitude":26.5357375,"population":946}, 
{"name":"Čirkoviči","state":"Gomel","country":"Belarus","latitude":52.66236,"longitude":29.65201,"population":943}, 
{"name":"Mal'koviči","state":"Brest","country":"Belarus","latitude":52.5345391,"longitude":26.5968996,"population":942}, 
{"name":"Ivaki","state":"Gomel","country":"Belarus","latitude":52.2684611,"longitude":31.3515901,"population":940}, 
{"name":"Zabolot'","state":"Grodno","country":"Belarus","latitude":53.9259321,"longitude":24.7965702,"population":938}, 
{"name":"Obrovo","state":"Brest","country":"Belarus","latitude":52.50941,"longitude":25.55841,"population":933}, 
{"name":"Rečki","state":"Mogilev","country":"Belarus","latitude":54.0285667,"longitude":30.2331939,"population":932}, 
{"name":"Litvinoviči","state":"Gomel","country":"Belarus","latitude":53.1900514,"longitude":30.8701065,"population":931}, 
{"name":"Novoe Pole","state":"Minsk","country":"Belarus","latitude":53.971329,"longitude":27.126923,"population":930}, 
{"name":"Bobr","state":"Minsk","country":"Belarus","latitude":54.319912,"longitude":29.263447,"population":928}, 
{"name":"Bol'šie Stepaniški","state":"Grodno","country":"Belarus","latitude":53.4344155,"longitude":24.5771077,"population":924}, 
{"name":"Moškany","state":"Vitebsk","country":"Belarus","latitude":54.95360128,"longitude":30.03551715,"population":923}, 
{"name":"Terjucha","state":"Gomel","country":"Belarus","latitude":52.201603,"longitude":30.992493,"population":916}, 
{"name":"Nikiticha","state":"Vitebsk","country":"Belarus","latitude":55.31746621,"longitude":29.43865699,"population":915}, 
{"name":"Rudnja","state":"Gomel","country":"Belarus","latitude":51.884762,"longitude":29.195625,"population":911}, 
{"name":"Jazvinki","state":"Brest","country":"Belarus","latitude":52.2509641,"longitude":26.9083498,"population":908}, 
{"name":"Pomorščina","state":"Minsk","country":"Belarus","latitude":53.9544716,"longitude":27.0510651,"population":907}, 
{"name":"Budagovo","state":"Minsk","country":"Belarus","latitude":54.1439528,"longitude":28.3107507,"population":906}, 
{"name":"Oberovščina","state":"Brest","country":"Belarus","latitude":52.402119,"longitude":23.38595,"population":901}, 
{"name":"Veresnica","state":"Gomel","country":"Belarus","latitude":52.0851139,"longitude":27.6380922,"population":897}, 
{"name":"Kriviči","state":"Minsk","country":"Belarus","latitude":52.8239831,"longitude":27.3908407,"population":897}, 
{"name":"Kamenjuki","state":"Brest","country":"Belarus","latitude":52.5582786,"longitude":23.8047943,"population":896}, 
{"name":"Sporovo","state":"Brest","country":"Belarus","latitude":52.4230716,"longitude":25.3345042,"population":893}, 
{"name":"Sloboda","state":"Minsk","country":"Belarus","latitude":53.9753818,"longitude":28.1076184,"population":892}, 
{"name":"Tal'","state":"Minsk","country":"Belarus","latitude":52.85548,"longitude":27.95557,"population":892}, 
{"name":"Chotislav","state":"Brest","country":"Belarus","latitude":51.7098045,"longitude":24.0980629,"population":890}, 
{"name":"Fedory","state":"Brest","country":"Belarus","latitude":51.9480388,"longitude":26.4018609,"population":887}, 
{"name":"Širokoe","state":"Gomel","country":"Belarus","latitude":52.693779,"longitude":30.882311,"population":886}, 
{"name":"Mochro","state":"Brest","country":"Belarus","latitude":51.9784076,"longitude":25.5596414,"population":885}, 
{"name":"Ulla","state":"Vitebsk","country":"Belarus","latitude":55.22465654,"longitude":29.23964178,"population":884}, 
{"name":"Ogareviči","state":"Brest","country":"Belarus","latitude":52.768869,"longitude":26.5254696,"population":883}, 
{"name":"Oktjabr'","state":"Gomel","country":"Belarus","latitude":52.6747704,"longitude":30.817325,"population":879}, 
{"name":"Sosny","state":"Minsk","country":"Belarus","latitude":52.5876113,"longitude":27.9852685,"population":879}, 
{"name":"Kozloviči","state":"Minsk","country":"Belarus","latitude":52.997532,"longitude":27.639971,"population":873}, 
{"name":"Sonečnyj","state":"Minsk","country":"Belarus","latitude":53.9702805,"longitude":27.6192027,"population":870}, 
{"name":"Čuriloviči","state":"Minsk","country":"Belarus","latitude":53.749828,"longitude":27.573669,"population":870}, 
{"name":"Jaečkoviči","state":"Brest","country":"Belarus","latitude":52.0781328,"longitude":25.6783957,"population":869}, 
{"name":"Glinka","state":"Brest","country":"Belarus","latitude":51.9259058,"longitude":26.6749513,"population":869}, 
{"name":"Zareč'e","state":"Minsk","country":"Belarus","latitude":53.8276,"longitude":27.97342,"population":867}, 
{"name":"Druja","state":"Vitebsk","country":"Belarus","latitude":55.7854697,"longitude":27.45144252,"population":865}, 
{"name":"Ljubaševo","state":"Brest","country":"Belarus","latitude":52.7796341,"longitude":26.4235942,"population":864}, 
{"name":"Orechovka","state":"Mogilev","country":"Belarus","latitude":53.4998546,"longitude":29.1471617,"population":862}, 
{"name":"Mir","state":"Brest","country":"Belarus","latitude":53.17039,"longitude":25.93452,"population":861}, 
{"name":"Bezdež","state":"Brest","country":"Belarus","latitude":52.3166797,"longitude":25.3074339,"population":861}, 
{"name":"Ljudeneviči","state":"Gomel","country":"Belarus","latitude":52.20686,"longitude":27.695761,"population":857}, 
{"name":"Bobovka","state":"Gomel","country":"Belarus","latitude":52.90234,"longitude":30.21051,"population":857}, 
{"name":"Krivaja Bereza","state":"Minsk","country":"Belarus","latitude":54.0578422,"longitude":28.0838047,"population":857}, 
{"name":"Gacuk","state":"Minsk","country":"Belarus","latitude":53.327641,"longitude":27.522301,"population":857}, 
{"name":"Kuchčicy","state":"Minsk","country":"Belarus","latitude":53.0342624,"longitude":26.5746672,"population":855}, 
{"name":"Zazer'e","state":"Minsk","country":"Belarus","latitude":53.659317,"longitude":27.802841,"population":854}, 
{"name":"Chorsk","state":"Brest","country":"Belarus","latitude":52.07442,"longitude":27.19614,"population":853}, 
{"name":"Klimovka","state":"Gomel","country":"Belarus","latitude":52.291119,"longitude":31.087297,"population":853}, 
{"name":"Terebliči","state":"Brest","country":"Belarus","latitude":52.0127783,"longitude":27.4399428,"population":852}, 
{"name":"Zareč'e","state":"Gomel","country":"Belarus","latitude":53.2147963,"longitude":30.048584,"population":852}, 
{"name":"Zajamnoe","state":"Minsk","country":"Belarus","latitude":53.5086454,"longitude":26.6979711,"population":849}, 
{"name":"Prigorodnaja","state":"Gomel","country":"Belarus","latitude":52.3415632,"longitude":30.4382873,"population":848}, 
{"name":"Medkov","state":"Gomel","country":"Belarus","latitude":52.650856,"longitude":29.658102,"population":848}, 
{"name":"Počapovo","state":"Brest","country":"Belarus","latitude":52.1487724,"longitude":26.2060841,"population":847}, 
{"name":"Sadovyj","state":"Brest","country":"Belarus","latitude":52.1360473,"longitude":25.9475957,"population":847}, 
{"name":"Godylevo","state":"Mogilev","country":"Belarus","latitude":53.607738,"longitude":30.363161,"population":846}, 
{"name":"Olekšicy","state":"Grodno","country":"Belarus","latitude":53.3411754,"longitude":23.948824,"population":846}, 
{"name":"Mar'ino","state":"Minsk","country":"Belarus","latitude":53.534111,"longitude":28.125635,"population":846}, 
{"name":"Starye Dorogi","state":"Minsk","country":"Belarus","latitude":53.04285,"longitude":28.31632,"population":846}, 
{"name":"Šunevcy","state":"Vitebsk","country":"Belarus","latitude":55.1501214,"longitude":27.62863446,"population":844}, 
{"name":"Slobudka","state":"Brest","country":"Belarus","latitude":52.5185825,"longitude":24.5152605,"population":842}, 
{"name":"Turec","state":"Minsk","country":"Belarus","latitude":53.66152,"longitude":28.08354,"population":841}, 
{"name":"Borovoe","state":"Gomel","country":"Belarus","latitude":51.71179,"longitude":28.05822,"population":840}, 
{"name":"Poločany","state":"Minsk","country":"Belarus","latitude":54.2251938,"longitude":26.7225456,"population":839}, 
{"name":"Staraja Rudnja","state":"Gomel","country":"Belarus","latitude":52.840462,"longitude":30.269911,"population":836}, 
{"name":"Luckovljany","state":"Grodno","country":"Belarus","latitude":53.4423021,"longitude":23.9303065,"population":836}, 
{"name":"Golock","state":"Minsk","country":"Belarus","latitude":53.702122,"longitude":27.85026,"population":836}, 
{"name":"Lučin","state":"Gomel","country":"Belarus","latitude":53.010658,"longitude":30.01568,"population":835}, 
{"name":"Verejki","state":"Grodno","country":"Belarus","latitude":53.2485782,"longitude":24.186713,"population":834}, 
{"name":"Suchorukie","state":"Minsk","country":"Belarus","latitude":53.9408293,"longitude":27.7485283,"population":832}, 
{"name":"Medno","state":"Brest","country":"Belarus","latitude":51.8623151,"longitude":23.7483215,"population":831}, 
{"name":"Svisloč'","state":"Grodno","country":"Belarus","latitude":53.4978632,"longitude":24.0640168,"population":829}, 
{"name":"Vul'ka-2","state":"Brest","country":"Belarus","latitude":52.3512089,"longitude":26.9854683,"population":828}, 
{"name":"Rajcy","state":"Vitebsk","country":"Belarus","latitude":54.41903349,"longitude":29.66185565,"population":827}, 
{"name":"Zaozer'e","state":"Minsk","country":"Belarus","latitude":53.2317031,"longitude":26.6893178,"population":826}, 
{"name":"Maža","state":"Minsk","country":"Belarus","latitude":53.1151021,"longitude":27.0566897,"population":826}, 
{"name":"Sinkeviči","state":"Brest","country":"Belarus","latitude":52.21939,"longitude":27.25408,"population":825}, 
{"name":"Stolbun","state":"Gomel","country":"Belarus","latitude":52.7941878,"longitude":31.4059415,"population":824}, 
{"name":"Malejkovščizna","state":"Grodno","country":"Belarus","latitude":53.918587,"longitude":25.304281,"population":823}, 
{"name":"Staroe Selo","state":"Gomel","country":"Belarus","latitude":52.527248,"longitude":31.135252,"population":822}, 
{"name":"Krasnodvorcy","state":"Minsk","country":"Belarus","latitude":52.806137,"longitude":27.438139,"population":822}, 
{"name":"Nemanica","state":"Minsk","country":"Belarus","latitude":54.2721076,"longitude":28.6014797,"population":821}, 
{"name":"Ostromiči","state":"Brest","country":"Belarus","latitude":52.2759626,"longitude":24.4698818,"population":820}, 
{"name":"Porozovo","state":"Grodno","country":"Belarus","latitude":52.9366963,"longitude":24.3634141,"population":820}, 
{"name":"Golovincy","state":"Gomel","country":"Belarus","latitude":52.401558,"longitude":31.130152,"population":817}, 
{"name":"Pribor","state":"Gomel","country":"Belarus","latitude":52.410587,"longitude":30.7644,"population":817}, 
{"name":"Novosëlki","state":"Gomel","country":"Belarus","latitude":52.404518,"longitude":28.552521,"population":815}, 
{"name":"Gortol'","state":"Brest","country":"Belarus","latitude":52.50074,"longitude":25.90894,"population":814}, 
{"name":"Kostjukovka","state":"Gomel","country":"Belarus","latitude":52.5415969,"longitude":30.9382974,"population":814}, 
{"name":"Natal'evsk","state":"Minsk","country":"Belarus","latitude":53.72924,"longitude":28.43408,"population":812}, 
{"name":"Novye Samoteviči","state":"Mogilev","country":"Belarus","latitude":53.282906,"longitude":32.077175,"population":811}, 
{"name":"Chidry","state":"Brest","country":"Belarus","latitude":52.14935,"longitude":24.36639,"population":808}, 
{"name":"Novosady","state":"Minsk","country":"Belarus","latitude":54.2531976,"longitude":28.7191954,"population":808}, 
{"name":"Miloševiči","state":"Gomel","country":"Belarus","latitude":51.6572,"longitude":27.92802,"population":807}, 
{"name":"Michališki","state":"Grodno","country":"Belarus","latitude":54.8129371,"longitude":26.1600072,"population":805}, 
{"name":"Ut'","state":"Gomel","country":"Belarus","latitude":52.226391,"longitude":31.382824,"population":804}, 
{"name":"Meževo","state":"Vitebsk","country":"Belarus","latitude":54.6237538,"longitude":30.31228909,"population":801}, 
{"name":"Pogorodno","state":"Grodno","country":"Belarus","latitude":54.09737,"longitude":25.144699,"population":801}, 
{"name":"Krynki","state":"Vitebsk","country":"Belarus","latitude":55.0268469,"longitude":30.43233562,"population":800}, 
{"name":"Drebsk","state":"Brest","country":"Belarus","latitude":52.2301375,"longitude":27.0190621,"population":800}, 
{"name":"Osintorf","state":"Vitebsk","country":"Belarus","latitude":54.71866818,"longitude":30.65236492,"population":799}, 
{"name":"Vistyči","state":"Brest","country":"Belarus","latitude":52.2032684,"longitude":23.6791143,"population":798}, 
{"name":"Tjuchiniči","state":"Brest","country":"Belarus","latitude":52.1584668,"longitude":23.6662129,"population":796}, 
{"name":"Orechovskij","state":"Brest","country":"Belarus","latitude":51.9833433,"longitude":24.66981,"population":795}, 
{"name":"Mežles'e","state":"Brest","country":"Belarus","latitude":52.40015,"longitude":27.04396,"population":794}, 
{"name":"Korotiči","state":"Brest","country":"Belarus","latitude":52.01374,"longitude":27.54496,"population":794}, 
{"name":"Naroč'","state":"Minsk","country":"Belarus","latitude":54.5634665,"longitude":26.7280634,"population":793}, 
{"name":"Janoviči","state":"Minsk","country":"Belarus","latitude":53.008198,"longitude":26.646633,"population":792}, 
{"name":"Dvorec","state":"Grodno","country":"Belarus","latitude":53.405891,"longitude":25.570776,"population":791}, 
{"name":"Rudavka","state":"Minsk","country":"Belarus","latitude":53.2376364,"longitude":26.6489046,"population":791}, 
{"name":"Struga","state":"Brest","country":"Belarus","latitude":51.8504789,"longitude":26.8913941,"population":790}, 
{"name":"Veremeevka","state":"Vitebsk","country":"Belarus","latitude":55.48340655,"longitude":29.96840643,"population":788}, 
{"name":"Novaja Goža","state":"Grodno","country":"Belarus","latitude":53.806629,"longitude":23.868994,"population":788}, 
{"name":"Lunno","state":"Grodno","country":"Belarus","latitude":53.4538685,"longitude":24.2606804,"population":788}, 
{"name":"Orančicy","state":"Brest","country":"Belarus","latitude":52.46143,"longitude":24.52972,"population":787}, 
{"name":"Belëv","state":"Gomel","country":"Belarus","latitude":52.293381,"longitude":28.026119,"population":787}, 
{"name":"Suboči","state":"Grodno","country":"Belarus","latitude":53.1706415,"longitude":24.3508151,"population":787}, 
{"name":"Osinovščizna","state":"Grodno","country":"Belarus","latitude":54.510941,"longitude":26.333506,"population":785}, 
{"name":"Soltanovo","state":"Gomel","country":"Belarus","latitude":52.35183,"longitude":30.23335,"population":782}, 
{"name":"Vjaz'e","state":"Mogilev","country":"Belarus","latitude":53.364941,"longitude":28.6853483,"population":782}, 
{"name":"Rjasna","state":"Brest","country":"Belarus","latitude":52.390961,"longitude":23.41091,"population":779}, 
{"name":"Krugovec-Kalinino","state":"Gomel","country":"Belarus","latitude":52.1470102,"longitude":31.6937984,"population":779}, 
{"name":"Stai","state":"Vitebsk","country":"Belarus","latitude":54.88544996,"longitude":28.6229188,"population":778}, 
{"name":"Deniskoviči","state":"Brest","country":"Belarus","latitude":52.72081,"longitude":26.6785,"population":778}, 
{"name":"Ptič'","state":"Gomel","country":"Belarus","latitude":52.185902,"longitude":28.811539,"population":778}, 
{"name":"Vojskaja","state":"Brest","country":"Belarus","latitude":52.41045,"longitude":23.62413,"population":777}, 
{"name":"Osovec","state":"Minsk","country":"Belarus","latitude":52.8527133,"longitude":28.192459,"population":777}, 
{"name":"Bystrica","state":"Brest","country":"Belarus","latitude":52.22008,"longitude":24.41059,"population":776}, 
{"name":"Semenča","state":"Gomel","country":"Belarus","latitude":52.3463769,"longitude":27.8818077,"population":776}, 
{"name":"Bol'šie Rogi","state":"Gomel","country":"Belarus","latitude":52.864319,"longitude":30.048901,"population":776}, 
{"name":"Dubno","state":"Grodno","country":"Belarus","latitude":53.4438088,"longitude":24.3769294,"population":776}, 
{"name":"Negoreloe","state":"Minsk","country":"Belarus","latitude":53.6103013,"longitude":27.0744915,"population":774}, 
{"name":"Ljaskoviči","state":"Gomel","country":"Belarus","latitude":52.1170843,"longitude":28.1594035,"population":773}, 
{"name":"Zabolot'e","state":"Minsk","country":"Belarus","latitude":54.0040092,"longitude":28.0312619,"population":772}, 
{"name":"Jazyl'","state":"Minsk","country":"Belarus","latitude":52.978561,"longitude":27.969481,"population":772}, 
{"name":"Ganceviči","state":"Brest","country":"Belarus","latitude":52.7385248,"longitude":26.4551963,"population":769}, 
{"name":"Zaelica","state":"Mogilev","country":"Belarus","latitude":52.732109,"longitude":28.545668,"population":768}, 
{"name":"Traby","state":"Grodno","country":"Belarus","latitude":54.157619,"longitude":25.90593,"population":768}, 
{"name":"Zazerka","state":"Minsk","country":"Belarus","latitude":53.662796,"longitude":27.766665,"population":768}, 
{"name":"Gorodišče","state":"Minsk","country":"Belarus","latitude":53.982723,"longitude":27.836124,"population":764}, 
{"name":"Streličevo","state":"Gomel","country":"Belarus","latitude":51.838093,"longitude":29.990427,"population":763}, 
{"name":"Chotomel'","state":"Brest","country":"Belarus","latitude":51.9511653,"longitude":27.0501222,"population":760}, 
{"name":"Tury","state":"Brest","country":"Belarus","latitude":52.06258,"longitude":27.16885,"population":758}, 
{"name":"Onoški","state":"Minsk","country":"Belarus","latitude":53.184898,"longitude":26.477051,"population":758}, 
{"name":"Rovaniči","state":"Minsk","country":"Belarus","latitude":53.88236,"longitude":28.6102,"population":757}, 
{"name":"Slobodka","state":"Mogilev","country":"Belarus","latitude":53.1155572,"longitude":29.1115081,"population":755}, 
{"name":"Rakitno","state":"Brest","country":"Belarus","latitude":52.22351,"longitude":26.92826,"population":754}, 
{"name":"Magdalin","state":"Brest","country":"Belarus","latitude":52.1932408,"longitude":24.3941082,"population":754}, 
{"name":"Lan'","state":"Minsk","country":"Belarus","latitude":53.148338,"longitude":26.690941,"population":754}, 
{"name":"Uchvala","state":"Minsk","country":"Belarus","latitude":54.1043985,"longitude":29.2148425,"population":753}, 
{"name":"Selec","state":"Brest","country":"Belarus","latitude":52.5877191,"longitude":24.8689959,"population":752}, 
{"name":"Lipen'","state":"Mogilev","country":"Belarus","latitude":53.412217,"longitude":28.8221658,"population":752}, 
{"name":"Viševiči","state":"Brest","country":"Belarus","latitude":52.1316033,"longitude":26.144919,"population":751}, 
{"name":"Techtin","state":"Mogilev","country":"Belarus","latitude":53.8592225,"longitude":29.7303802,"population":751}, 
{"name":"Mali","state":"Grodno","country":"Belarus","latitude":54.6435631,"longitude":25.9901962,"population":751}, 
{"name":"Grabovka","state":"Gomel","country":"Belarus","latitude":52.188608,"longitude":31.1429174,"population":750}, 
{"name":"Pesočnaja Buda","state":"Gomel","country":"Belarus","latitude":52.243675,"longitude":31.146935,"population":750}, 
{"name":"Vorony","state":"Vitebsk","country":"Belarus","latitude":55.1501075,"longitude":30.39401212,"population":748}, 
{"name":"Rečki","state":"Brest","country":"Belarus","latitude":52.45731,"longitude":26.04841,"population":746}, 
{"name":"Novoe Paškovo","state":"Mogilev","country":"Belarus","latitude":53.9552,"longitude":30.249519,"population":746}, 
{"name":"Ganceviči","state":"Minsk","country":"Belarus","latitude":54.49725,"longitude":28.14757,"population":744}, 
{"name":"Čuchovo","state":"Brest","country":"Belarus","latitude":52.32839,"longitude":26.25432,"population":743}, 
{"name":"Peretrutovskij Vorotyn","state":"Gomel","country":"Belarus","latitude":52.3480418,"longitude":29.0124813,"population":741}, 
{"name":"Čerkassy","state":"Minsk","country":"Belarus","latitude":53.7614846,"longitude":27.3307728,"population":741}, 
{"name":"Zaževiči","state":"Minsk","country":"Belarus","latitude":52.78759,"longitude":27.63954,"population":741}, 
{"name":"Svetiloviči","state":"Gomel","country":"Belarus","latitude":52.7944479,"longitude":31.3214745,"population":740}, 
{"name":"Bol'šaja Moščanica","state":"Mogilev","country":"Belarus","latitude":53.9552324,"longitude":29.6189315,"population":739}, 
{"name":"Micheevka","state":"Mogilev","country":"Belarus","latitude":54.1404938,"longitude":31.0215182,"population":738}, 
{"name":"Ljudvinovo","state":"Minsk","country":"Belarus","latitude":54.5685169,"longitude":27.2784755,"population":735}, 
{"name":"Deščenka","state":"Minsk","country":"Belarus","latitude":53.580582,"longitude":27.459641,"population":735}, 
{"name":"Novaja Popina","state":"Brest","country":"Belarus","latitude":52.1165684,"longitude":25.1175399,"population":733}, 
{"name":"Babiči","state":"Gomel","country":"Belarus","latitude":52.2896,"longitude":30.00246,"population":733}, 
{"name":"Bočejkovo","state":"Vitebsk","country":"Belarus","latitude":55.01739075,"longitude":29.15133685,"population":731}, 
{"name":"Suraž","state":"Vitebsk","country":"Belarus","latitude":55.40776753,"longitude":30.71953006,"population":731}, 
{"name":"Lopatino","state":"Gomel","country":"Belarus","latitude":52.545732,"longitude":30.982559,"population":731}, 
{"name":"Bol'šie Èjsmonty","state":"Grodno","country":"Belarus","latitude":53.3666048,"longitude":24.0742085,"population":731}, 
{"name":"Dubrovka","state":"Minsk","country":"Belarus","latitude":53.45261,"longitude":28.11693,"population":730}, 
{"name":"Syrod","state":"Gomel","country":"Belarus","latitude":52.109432,"longitude":29.430862,"population":727}, 
{"name":"Zabelyšin","state":"Mogilev","country":"Belarus","latitude":53.5044079,"longitude":32.371218,"population":727}, 
{"name":"Ust'e","state":"Vitebsk","country":"Belarus","latitude":54.43425323,"longitude":30.38415282,"population":725}, 
{"name":"Gorjany","state":"Vitebsk","country":"Belarus","latitude":55.42214605,"longitude":29.0314834,"population":725}, 
{"name":"Mokroe","state":"Mogilev","country":"Belarus","latitude":53.5524082,"longitude":30.2117262,"population":725}, 
{"name":"Revjatiči","state":"Brest","country":"Belarus","latitude":52.4401457,"longitude":24.8480023,"population":723}, 
{"name":"Lipniki","state":"Brest","country":"Belarus","latitude":52.1756817,"longitude":25.2315268,"population":723}, 
{"name":"Novyj Dvor","state":"Brest","country":"Belarus","latitude":52.30299,"longitude":26.24376,"population":721}, 
{"name":"Lošany","state":"Minsk","country":"Belarus","latitude":54.040337,"longitude":27.29925,"population":720}, 
{"name":"Tuchoviči","state":"Brest","country":"Belarus","latitude":52.8101445,"longitude":25.9640466,"population":719}, 
{"name":"Kamenica-Žiroveckaja","state":"Brest","country":"Belarus","latitude":52.0602786,"longitude":23.8203357,"population":718}, 
{"name":"Kozlovka","state":"Gomel","country":"Belarus","latitude":52.79248,"longitude":29.414103,"population":718}, 
{"name":"Il'ič","state":"Gomel","country":"Belarus","latitude":53.2610797,"longitude":30.4192671,"population":718}, 
{"name":"Rečen'","state":"Minsk","country":"Belarus","latitude":52.74613,"longitude":27.8459548,"population":718}, 
{"name":"Peršai","state":"Minsk","country":"Belarus","latitude":54.0347018,"longitude":26.6800643,"population":716}, 
{"name":"Potapovka","state":"Gomel","country":"Belarus","latitude":52.740498,"longitude":30.493513,"population":715}, 
{"name":"Staroe Selo","state":"Minsk","country":"Belarus","latitude":53.8881433,"longitude":27.2636016,"population":715}, 
{"name":"Borkoviči","state":"Vitebsk","country":"Belarus","latitude":55.67447137,"longitude":28.33256132,"population":714}, 
{"name":"Plotnica","state":"Brest","country":"Belarus","latitude":52.04352,"longitude":26.64682,"population":712}, 
{"name":"Udarnyj","state":"Minsk","country":"Belarus","latitude":53.3147415,"longitude":26.5549607,"population":712}, 
{"name":"Dolža","state":"Vitebsk","country":"Belarus","latitude":55.35446695,"longitude":30.07920221,"population":711}, 
{"name":"Domašicy","state":"Brest","country":"Belarus","latitude":52.10712,"longitude":25.96567,"population":711}, 
{"name":"Rjasno","state":"Mogilev","country":"Belarus","latitude":54.010078,"longitude":31.19302,"population":711}, 
{"name":"Vytropovščina","state":"Minsk","country":"Belarus","latitude":54.289852,"longitude":26.811861,"population":710}, 
{"name":"Zelënyj Bor","state":"Brest","country":"Belarus","latitude":52.6554072,"longitude":25.2375092,"population":708}, 
{"name":"Vysokaja Lipa","state":"Minsk","country":"Belarus","latitude":53.235802,"longitude":26.469839,"population":708}, 
{"name":"Dačnaja","state":"Vitebsk","country":"Belarus","latitude":54.49981864,"longitude":30.34412363,"population":707}, 
{"name":"Nikolaevka 2","state":"Mogilev","country":"Belarus","latitude":53.9507089,"longitude":30.3907674,"population":706}, 
{"name":"Novogorodejskij","state":"Minsk","country":"Belarus","latitude":53.315575,"longitude":26.521408,"population":705}, 
{"name":"Kul'","state":"Minsk","country":"Belarus","latitude":53.8001718,"longitude":26.7418125,"population":704}, 
{"name":"Gabrielevka","state":"Minsk","country":"Belarus","latitude":53.4169233,"longitude":27.6281563,"population":704}, 
{"name":"Stoloviči","state":"Brest","country":"Belarus","latitude":53.21408,"longitude":26.03674,"population":702}, 
{"name":"Kol'čuny","state":"Grodno","country":"Belarus","latitude":54.38988,"longitude":25.8698,"population":702}, 
{"name":"Ščepiči","state":"Minsk","country":"Belarus","latitude":53.0768696,"longitude":26.5747988,"population":702}, 
{"name":"Bol'šie Bortniki","state":"Mogilev","country":"Belarus","latitude":53.1140787,"longitude":29.566253,"population":701}, 
{"name":"Janoviči","state":"Vitebsk","country":"Belarus","latitude":55.29527168,"longitude":30.69732047,"population":700}, 
{"name":"Žiliči","state":"Mogilev","country":"Belarus","latitude":53.14937,"longitude":29.70489,"population":700}, 
{"name":"Kvasyniči","state":"Minsk","country":"Belarus","latitude":52.955982,"longitude":27.489716,"population":700}, 
{"name":"Molodovo","state":"Brest","country":"Belarus","latitude":52.2901153,"longitude":25.6912493,"population":699}, 
{"name":"Glivin","state":"Minsk","country":"Belarus","latitude":54.159881,"longitude":28.6060371,"population":699}, 
{"name":"Sloboda","state":"Vitebsk","country":"Belarus","latitude":54.76274839,"longitude":28.66158759,"population":698}, 
{"name":"Kovali","state":"Mogilev","country":"Belarus","latitude":53.047752,"longitude":29.5285924,"population":698}, 
{"name":"Malye Radvaniči","state":"Brest","country":"Belarus","latitude":52.03726,"longitude":23.99182,"population":697}, 
{"name":"Ezery","state":"Mogilev","country":"Belarus","latitude":53.5649182,"longitude":31.2416224,"population":697}, 
{"name":"Valevači","state":"Minsk","country":"Belarus","latitude":53.7571139,"longitude":28.152398,"population":697}, 
{"name":"Novopolesskij","state":"Minsk","country":"Belarus","latitude":52.6500692,"longitude":27.4099886,"population":697}, 
{"name":"Braševiči","state":"Brest","country":"Belarus","latitude":52.2198575,"longitude":25.012424,"population":696}, 
{"name":"Lazduny 1","state":"Grodno","country":"Belarus","latitude":53.965012,"longitude":25.974001,"population":696}, 
{"name":"Kamai","state":"Vitebsk","country":"Belarus","latitude":55.06093848,"longitude":26.60643939,"population":695}, 
{"name":"Ljuban'","state":"Brest","country":"Belarus","latitude":52.2087531,"longitude":27.1297683,"population":694}, 
{"name":"Markoviči","state":"Gomel","country":"Belarus","latitude":52.114613,"longitude":31.202936,"population":694}, 
{"name":"Ostrovy","state":"Minsk","country":"Belarus","latitude":53.732906,"longitude":28.388966,"population":694}, 
{"name":"Juzufovo","state":"Minsk","country":"Belarus","latitude":54.108349,"longitude":27.463249,"population":692}, 
{"name":"Lipov","state":"Gomel","country":"Belarus","latitude":52.3600433,"longitude":29.5691001,"population":691}, 
{"name":"Logoza","state":"Minsk","country":"Belarus","latitude":54.2282247,"longitude":27.7640692,"population":689}, 
{"name":"Kljasticy","state":"Vitebsk","country":"Belarus","latitude":55.88742186,"longitude":28.60275937,"population":687}, 
{"name":"Rovenskaja Sloboda","state":"Gomel","country":"Belarus","latitude":52.2273842,"longitude":30.3155821,"population":686}, 
{"name":"Korovčino","state":"Mogilev","country":"Belarus","latitude":54.0511985,"longitude":30.832916,"population":685}, 
{"name":"Mikolaevščina","state":"Minsk","country":"Belarus","latitude":53.4070469,"longitude":26.8371556,"population":685}, 
{"name":"Odrižin","state":"Brest","country":"Belarus","latitude":51.9683501,"longitude":25.4600867,"population":684}, 
{"name":"Rekta","state":"Gomel","country":"Belarus","latitude":52.977306,"longitude":29.932899,"population":684}, 
{"name":"Kopys'","state":"Vitebsk","country":"Belarus","latitude":54.32102233,"longitude":30.29302719,"population":683}, 
{"name":"Aleksandrija","state":"Mogilev","country":"Belarus","latitude":54.3288932,"longitude":30.2802134,"population":683}, 
{"name":"Kamen'","state":"Brest","country":"Belarus","latitude":52.321648,"longitude":26.3792813,"population":681}, 
{"name":"Kol'no","state":"Gomel","country":"Belarus","latitude":52.13073,"longitude":27.903561,"population":680}, 
{"name":"Jakimova Sloboda","state":"Gomel","country":"Belarus","latitude":52.6182173,"longitude":29.819591,"population":680}, 
{"name":"Tyčiny","state":"Minsk","country":"Belarus","latitude":52.764469,"longitude":27.494595,"population":680}, 
{"name":"Malye Avtjuki","state":"Gomel","country":"Belarus","latitude":52.139252,"longitude":29.51302,"population":679}, 
{"name":"Dričin","state":"Minsk","country":"Belarus","latitude":53.570808,"longitude":27.977966,"population":679}, 
{"name":"Tel'my-2","state":"Brest","country":"Belarus","latitude":52.1232592,"longitude":23.8579566,"population":678}, 
{"name":"Bronnaja Gora","state":"Brest","country":"Belarus","latitude":52.6101208,"longitude":25.0863647,"population":677}, 
{"name":"Snitovo","state":"Brest","country":"Belarus","latitude":52.13047,"longitude":25.44288,"population":677}, 
{"name":"Paporotnoe","state":"Gomel","country":"Belarus","latitude":52.764591,"longitude":29.988131,"population":673}, 
{"name":"Cel'","state":"Mogilev","country":"Belarus","latitude":53.3960875,"longitude":28.4542987,"population":673}, 
{"name":"Zembin","state":"Minsk","country":"Belarus","latitude":54.358334,"longitude":28.2170603,"population":673}, 
{"name":"Kupjatiči","state":"Brest","country":"Belarus","latitude":52.17682,"longitude":26.19484,"population":671}, 
{"name":"Zaščëb'e","state":"Gomel","country":"Belarus","latitude":52.177589,"longitude":29.87689,"population":671}, 
{"name":"Koroliščeviči","state":"Minsk","country":"Belarus","latitude":53.799377,"longitude":27.690208,"population":671}, 
{"name":"Drozdy","state":"Gomel","country":"Belarus","latitude":52.0548877,"longitude":29.1813431,"population":670}, 
{"name":"Novye Luki","state":"Gomel","country":"Belarus","latitude":52.9551253,"longitude":29.99678,"population":670}, 
{"name":"Chal'č","state":"Gomel","country":"Belarus","latitude":52.85393,"longitude":30.19567,"population":668}, 
{"name":"Velikaja Gat'","state":"Brest","country":"Belarus","latitude":52.5504047,"longitude":25.6575697,"population":666}, 
{"name":"Žernoseki","state":"Vitebsk","country":"Belarus","latitude":55.42360844,"longitude":28.47658454,"population":665}, 
{"name":"Imenin","state":"Brest","country":"Belarus","latitude":52.2638044,"longitude":24.3549267,"population":665}, 
{"name":"Dudiči","state":"Gomel","country":"Belarus","latitude":52.182308,"longitude":29.349461,"population":665}, 
{"name":"Kopači","state":"Mogilev","country":"Belarus","latitude":54.0099577,"longitude":31.4664454,"population":665}, 
{"name":"Ostrošicy","state":"Minsk","country":"Belarus","latitude":54.1208,"longitude":27.75919,"population":665}, 
{"name":"Gorodnaja","state":"Brest","country":"Belarus","latitude":51.8711358,"longitude":26.4985432,"population":664}, 
{"name":"Strigin'","state":"Brest","country":"Belarus","latitude":52.5063057,"longitude":25.0267949,"population":662}, 
{"name":"Gorodec","state":"Gomel","country":"Belarus","latitude":52.973042,"longitude":30.345964,"population":660}, 
{"name":"Michalevo 1","state":"Mogilev","country":"Belarus","latitude":53.1140796,"longitude":29.5375569,"population":660}, 
{"name":"Podlaben'e","state":"Grodno","country":"Belarus","latitude":53.690014,"longitude":23.689238,"population":660}, 
{"name":"Knjaginin","state":"Minsk","country":"Belarus","latitude":54.680752,"longitude":27.17271,"population":660}, 
{"name":"Rudnja Marimonova","state":"Gomel","country":"Belarus","latitude":52.162231,"longitude":30.711679,"population":659}, 
{"name":"Svetlosel'skij","state":"Vitebsk","country":"Belarus","latitude":55.29141725,"longitude":29.63794251,"population":658}, 
{"name":"Mel'niki","state":"Brest","country":"Belarus","latitude":51.73668,"longitude":24.12529,"population":658}, 
{"name":"Ljachovcy","state":"Brest","country":"Belarus","latitude":51.79607,"longitude":24.1973,"population":657}, 
{"name":"Nivy","state":"Gomel","country":"Belarus","latitude":52.809696,"longitude":29.951206,"population":655}, 
{"name":"Sosnovyj","state":"Gomel","country":"Belarus","latitude":52.001385,"longitude":29.169504,"population":653}, 
{"name":"Gudeviči","state":"Grodno","country":"Belarus","latitude":53.3721902,"longitude":24.1755725,"population":653}, 
{"name":"Novosëlki","state":"Vitebsk","country":"Belarus","latitude":55.14750433,"longitude":27.00843812,"population":651}, 
{"name":"Domanoviči","state":"Gomel","country":"Belarus","latitude":52.342262,"longitude":29.401657,"population":651}, 
{"name":"Duraviči","state":"Gomel","country":"Belarus","latitude":52.699112,"longitude":30.710373,"population":651}, 
{"name":"Krošin","state":"Brest","country":"Belarus","latitude":53.1985619,"longitude":26.1558193,"population":650}, 
{"name":"Pticefabrika","state":"Brest","country":"Belarus","latitude":52.2314737,"longitude":24.3003738,"population":650}, 
{"name":"Ljadec","state":"Brest","country":"Belarus","latitude":52.07056,"longitude":27.08345,"population":648}, 
{"name":"Ostrov","state":"Gomel","country":"Belarus","latitude":53.0150316,"longitude":29.7598169,"population":648}, 
{"name":"Župrany","state":"Grodno","country":"Belarus","latitude":54.471931,"longitude":26.086781,"population":648}, 
{"name":"Vul'ka-Telechanskaja","state":"Brest","country":"Belarus","latitude":52.5381984,"longitude":25.8757634,"population":647}, 
{"name":"Rudsk","state":"Brest","country":"Belarus","latitude":52.0792986,"longitude":25.557884,"population":647}, 
{"name":"Lenino","state":"Gomel","country":"Belarus","latitude":52.185322,"longitude":31.678989,"population":646}, 
{"name":"Pogost","state":"Minsk","country":"Belarus","latitude":53.84691,"longitude":29.14742,"population":646}, 
{"name":"Brodnica","state":"Brest","country":"Belarus","latitude":52.2999016,"longitude":26.9617843,"population":645}, 
{"name":"Podstarin'","state":"Brest","country":"Belarus","latitude":52.7658011,"longitude":25.3531296,"population":644}, 
{"name":"Oltuš","state":"Brest","country":"Belarus","latitude":51.6877198,"longitude":23.9672391,"population":644}, 
{"name":"Dmitrievka-2","state":"Mogilev","country":"Belarus","latitude":53.511257,"longitude":29.268898,"population":644}, 
{"name":"Priboloviči","state":"Gomel","country":"Belarus","latitude":51.67754,"longitude":27.81541,"population":643}, 
{"name":"Dobryn'","state":"Gomel","country":"Belarus","latitude":51.76887,"longitude":29.202,"population":643}, 
{"name":"Baceviči","state":"Mogilev","country":"Belarus","latitude":53.4029415,"longitude":29.2331977,"population":643}, 
{"name":"Sidorovka","state":"Mogilev","country":"Belarus","latitude":53.338875,"longitude":31.36231,"population":643}, 
{"name":"Sumarokovo","state":"Mogilev","country":"Belarus","latitude":53.965611,"longitude":30.195076,"population":642}, 
{"name":"Goščevo","state":"Brest","country":"Belarus","latitude":52.6897879,"longitude":25.2103445,"population":641}, 
{"name":"Stodoliči","state":"Gomel","country":"Belarus","latitude":51.731529,"longitude":28.48884,"population":641}, 
{"name":"Bol'šaja Rogoznica","state":"Grodno","country":"Belarus","latitude":53.2671506,"longitude":24.6824393,"population":641}, 
{"name":"Raduga","state":"Gomel","country":"Belarus","latitude":52.582901,"longitude":31.085218,"population":639}, 
{"name":"Volpa","state":"Grodno","country":"Belarus","latitude":53.36823,"longitude":24.35969,"population":639}, 
{"name":"Derkovščina","state":"Vitebsk","country":"Belarus","latitude":55.06561871,"longitude":27.55528209,"population":638}, 
{"name":"Mazolovo","state":"Mogilev","country":"Belarus","latitude":53.9814067,"longitude":31.5814295,"population":638}, 
{"name":"Gorboviči","state":"Mogilev","country":"Belarus","latitude":53.8171134,"longitude":30.7019801,"population":637}, 
{"name":"Vičin","state":"Brest","country":"Belarus","latitude":52.2720749,"longitude":26.9331598,"population":634}, 
{"name":"Bol'šie Orly","state":"Brest","country":"Belarus","latitude":52.05425,"longitude":27.05916,"population":634}, 
{"name":"Svisloč'","state":"Mogilev","country":"Belarus","latitude":53.440026,"longitude":28.9681094,"population":634}, 
{"name":"Porplišče","state":"Vitebsk","country":"Belarus","latitude":54.96294118,"longitude":27.65512307,"population":633}, 
{"name":"Starica","state":"Minsk","country":"Belarus","latitude":53.23288,"longitude":27.26996,"population":633}, 
{"name":"Malaja Kolpenica","state":"Brest","country":"Belarus","latitude":53.1752028,"longitude":26.0281311,"population":632}, 
{"name":"Zapesoč'e","state":"Gomel","country":"Belarus","latitude":52.0758,"longitude":27.70623,"population":632}, 
{"name":"Novye Zelenki","state":"Minsk","country":"Belarus","latitude":53.8335522,"longitude":28.3409408,"population":632}, 
{"name":"Svetlyj Bor","state":"Minsk","country":"Belarus","latitude":53.581951,"longitude":28.292801,"population":632}, 
{"name":"Pastoviči","state":"Minsk","country":"Belarus","latitude":53.049797,"longitude":28.483749,"population":632}, 
{"name":"Bol'šie Vikoroviči","state":"Brest","country":"Belarus","latitude":51.86482,"longitude":26.89513,"population":631}, 
{"name":"Jazno","state":"Vitebsk","country":"Belarus","latitude":55.4221932,"longitude":28.15742143,"population":630}, 
{"name":"Ovsjanka","state":"Mogilev","country":"Belarus","latitude":54.216213,"longitude":30.784716,"population":630}, 
{"name":"Kosino","state":"Minsk","country":"Belarus","latitude":54.126007,"longitude":27.953018,"population":630}, 
{"name":"Zditovo","state":"Brest","country":"Belarus","latitude":52.4249308,"longitude":25.2602187,"population":629}, 
{"name":"Borodiči","state":"Grodno","country":"Belarus","latitude":53.1626475,"longitude":24.7837258,"population":629}, 
{"name":"Petrunovo","state":"Vitebsk","country":"Belarus","latitude":55.18899689,"longitude":27.65351592,"population":628}, 
{"name":"Lipsk","state":"Brest","country":"Belarus","latitude":52.8358452,"longitude":26.0935357,"population":626}, 
{"name":"Zen'koviči","state":"Minsk","country":"Belarus","latitude":53.4938741,"longitude":27.2461233,"population":625}, 
{"name":"Barsuki","state":"Mogilev","country":"Belarus","latitude":53.7074661,"longitude":31.9071532,"population":624}, 
{"name":"Sledjuki","state":"Mogilev","country":"Belarus","latitude":53.5808671,"longitude":30.3554815,"population":624}, 
{"name":"Zales'e","state":"Brest","country":"Belarus","latitude":52.217605,"longitude":24.4752199,"population":623}, 
{"name":"Voroni","state":"Brest","country":"Belarus","latitude":51.828859,"longitude":26.8233348,"population":623}, 
{"name":"Žuraviči","state":"Gomel","country":"Belarus","latitude":53.24919,"longitude":30.54594,"population":623}, 
{"name":"Saltanovka","state":"Mogilev","country":"Belarus","latitude":53.7989584,"longitude":30.2568555,"population":623},