{"name":"Abertamy","state":"Karlovarský","country":"Czechia","latitude":50.3704947,"longitude":12.8289108,"population":1157}, 
{"name":"Adamov","state":"Jihočeský","country":"Czechia","latitude":49.0005117,"longitude":14.5395936,"population":627}, 
{"name":"Adamov","state":"Středočeský","country":"Czechia","latitude":49.8578162,"longitude":15.4089129,"population":112}, 
{"name":"Adamov","state":"Královéhradecký","country":"Czechia","latitude":50.5416187,"longitude":15.9781535,"population":85}, 
{"name":"Adamov","state":"Jihomoravský","country":"Czechia","latitude":49.2991595,"longitude":16.6657833,"population":4591}, 
{"name":"Adolfovice","state":"Olomoucký","country":"Czechia","latitude":50.1699801,"longitude":17.1700888,"population":768}, 
{"name":"Albeř","state":"Jihočeský","country":"Czechia","latitude":49.0319409,"longitude":15.1354433,"population":144}, 
{"name":"Albeřice","state":"Karlovarský","country":"Czechia","latitude":50.1638874,"longitude":13.1656714,"population":98}, 
{"name":"Alberovice","state":"Středočeský","country":"Czechia","latitude":49.6505711,"longitude":15.103091,"population":77}, 
{"name":"Albrechtice","state":"Moravskoslezský","country":"Czechia","latitude":49.7863609,"longitude":18.5246402,"population":3795}, 
{"name":"Albrechtice","state":"Plzeňský","country":"Czechia","latitude":49.1995731,"longitude":13.5664518,"population":57}, 
{"name":"Albrechtice","state":"Středočeský","country":"Czechia","latitude":49.89534,"longitude":15.1717104,"population":13}, 
{"name":"Albrechtice","state":"Liberecký","country":"Czechia","latitude":50.6076578,"longitude":15.0724621,"population":33}, 
{"name":"Albrechtice","state":"Jihočeský","country":"Czechia","latitude":49.2036396,"longitude":14.1063828,"population":58}, 
{"name":"Albrechtice","state":"Pardubický","country":"Czechia","latitude":49.927545,"longitude":16.644696,"population":469}, 
{"name":"Albrechtice","state":"Vysočina","country":"Czechia","latitude":49.52094,"longitude":16.1854158,"population":75}, 
{"name":"Albrechtice nad Orlicí","state":"Královéhradecký","country":"Czechia","latitude":50.1409513,"longitude":16.0405453,"population":1016}, 
{"name":"Albrechtice nad Vltavou","state":"Jihočeský","country":"Czechia","latitude":49.250063,"longitude":14.3286259,"population":405}, 
{"name":"Albrechtice u Frýdlantu","state":"Liberecký","country":"Czechia","latitude":50.8616152,"longitude":15.0383108,"population":106}, 
{"name":"Albrechtice u Rýmařova","state":"Moravskoslezský","country":"Czechia","latitude":49.9075155,"longitude":17.3270627,"population":33}, 
{"name":"Albrechtice v Jizerských horách","state":"Liberecký","country":"Czechia","latitude":50.7919884,"longitude":15.2747452,"population":309}, 
{"name":"Albrechtičky","state":"Moravskoslezský","country":"Czechia","latitude":49.7039706,"longitude":18.1029562,"population":684}, 
{"name":"Albrechtovice","state":"Jihočeský","country":"Czechia","latitude":48.9733198,"longitude":13.9609506,"population":0}, 
{"name":"Aleje-Zátiší","state":"Karlovarský","country":"Czechia","latitude":50.1246968,"longitude":12.3669595,"population":59}, 
{"name":"Alenina Lhota","state":"Jihočeský","country":"Czechia","latitude":49.5262685,"longitude":14.5222986,"population":10}, 
{"name":"Alexovice","state":"Jihomoravský","country":"Czechia","latitude":49.0870255,"longitude":16.3502423,"population":537}, 
{"name":"Alojzov","state":"Olomoucký","country":"Czechia","latitude":49.4234413,"longitude":17.0414823,"population":230}, 
{"name":"Alšovice","state":"Liberecký","country":"Czechia","latitude":50.6752348,"longitude":15.2326358,"population":557}, 
{"name":"Alžbětín","state":"Plzeňský","country":"Czechia","latitude":49.1481259,"longitude":13.1961983,"population":97}, 
{"name":"Amalín","state":"Moravskoslezský","country":"Czechia","latitude":50.2170995,"longitude":17.6666179,"population":35}, 
{"name":"Amerika","state":"Středočeský","country":"Czechia","latitude":49.630501,"longitude":14.6563885,"population":35}, 
{"name":"Anděl Strážce","state":"Liberecký","country":"Czechia","latitude":50.6579695,"longitude":15.1569034,"population":10}, 
{"name":"Andělice","state":"Plzeňský","country":"Czechia","latitude":49.4114672,"longitude":13.2416987,"population":20}, 
{"name":"Andělka","state":"Liberecký","country":"Czechia","latitude":50.9939412,"longitude":15.0011637,"population":125}, 
{"name":"Andělská Hora","state":"Moravskoslezský","country":"Czechia","latitude":50.0608138,"longitude":17.3890959,"population":347}, 
{"name":"Andělská Hora","state":"Karlovarský","country":"Czechia","latitude":50.2049959,"longitude":12.9582516,"population":294}, 
{"name":"Andělská Hora","state":"Liberecký","country":"Czechia","latitude":50.8007798,"longitude":14.9566826,"population":303}, 
{"name":"Anenská Studánka","state":"Pardubický","country":"Czechia","latitude":49.8477043,"longitude":16.5436238,"population":193}, 
{"name":"Anenská Ves","state":"Karlovarský","country":"Czechia","latitude":50.2018325,"longitude":12.548802,"population":43}, 
{"name":"Annín","state":"Plzeňský","country":"Czechia","latitude":49.173953,"longitude":13.5128635,"population":71}, 
{"name":"Annovice","state":"Jihočeský","country":"Czechia","latitude":49.3004976,"longitude":14.9366449,"population":9}, 
{"name":"Antonínov","state":"Liberecký","country":"Czechia","latitude":50.7764028,"longitude":15.2518223,"population":207}, 
{"name":"Antonínova Výšina","state":"Karlovarský","country":"Czechia","latitude":50.138881,"longitude":12.3217474,"population":4}, 
{"name":"Antonínův Důl","state":"Vysočina","country":"Czechia","latitude":49.4636438,"longitude":15.6052846,"population":545}, 
{"name":"Antonka","state":"Vysočina","country":"Czechia","latitude":49.3080897,"longitude":15.1035334,"population":70}, 
{"name":"Archlebov","state":"Jihomoravský","country":"Czechia","latitude":49.0541085,"longitude":16.9973106,"population":850}, 
{"name":"Arneštovice","state":"Vysočina","country":"Czechia","latitude":49.5330349,"longitude":15.1215121,"population":88}, 
{"name":"Arnoldov","state":"Karlovarský","country":"Czechia","latitude":50.3568681,"longitude":12.9477353,"population":5}, 
{"name":"Arnolec","state":"Vysočina","country":"Czechia","latitude":49.4408199,"longitude":15.81987,"population":157}, 
{"name":"Arnoltice","state":"Ústecký","country":"Czechia","latitude":50.8379152,"longitude":14.2552068,"population":371}, 
{"name":"Arnoltice","state":"Liberecký","country":"Czechia","latitude":50.9624449,"longitude":15.0961501,"population":307}, 
{"name":"Arnoltice","state":"Olomoucký","country":"Czechia","latitude":49.8451141,"longitude":17.3551927,"population":131}, 
{"name":"Arnoltov","state":"Karlovarský","country":"Czechia","latitude":50.1140363,"longitude":12.5956568,"population":40}, 
{"name":"Arnoštka","state":"Jihočeský","country":"Czechia","latitude":49.0016621,"longitude":13.7836418,"population":15}, 
{"name":"Arnoštov","state":"Královéhradecký","country":"Czechia","latitude":50.4623653,"longitude":15.6030311,"population":14}, 
{"name":"Arnoštov","state":"Jihočeský","country":"Czechia","latitude":48.8991734,"longitude":13.9971724,"population":47}, 
{"name":"Arnoštovice","state":"Středočeský","country":"Czechia","latitude":49.618867,"longitude":14.6012133,"population":99}, 
{"name":"Arnultovice","state":"Moravskoslezský","country":"Czechia","latitude":50.2498051,"longitude":17.558805,"population":62}, 
{"name":"Arnultovice","state":"Liberecký","country":"Czechia","latitude":50.7685456,"longitude":14.5508517,"population":3629}, 
{"name":"Arnultovice","state":"Královéhradecký","country":"Czechia","latitude":50.5598333,"longitude":15.7256047,"population":322}, 
{"name":"Arnultovice","state":"Ústecký","country":"Czechia","latitude":50.7139334,"longitude":14.0460524,"population":70}, 
{"name":"Artolec","state":"Jihočeský","country":"Czechia","latitude":49.004659,"longitude":15.1361696,"population":51}, 
{"name":"Aš","state":"Karlovarský","country":"Czechia","latitude":50.2235893,"longitude":12.1898679,"population":11498}, 
{"name":"Baba","state":"Středočeský","country":"Czechia","latitude":49.7954533,"longitude":14.7115026,"population":3}, 
{"name":"Babčice","state":"Středočeský","country":"Czechia","latitude":49.7517861,"longitude":14.7237035,"population":7}, 
{"name":"Babčice","state":"Jihočeský","country":"Czechia","latitude":49.4677053,"longitude":14.8937079,"population":15}, 
{"name":"Babí","state":"Královéhradecký","country":"Czechia","latitude":50.6268508,"longitude":15.8994461,"population":769}, 
{"name":"Babí","state":"Královéhradecký","country":"Czechia","latitude":50.6268508,"longitude":15.8994461,"population":109}, 
{"name":"Babice","state":"Středočeský","country":"Czechia","latitude":50.0054048,"longitude":14.7241793,"population":1}, 
{"name":"Babice","state":"Středočeský","country":"Czechia","latitude":50.0054048,"longitude":14.7241793,"population":178}, 
{"name":"Babice","state":"Karlovarský","country":"Czechia","latitude":50.0051859,"longitude":12.8073808,"population":16}, 
{"name":"Babice","state":"Plzeňský","country":"Czechia","latitude":49.6075642,"longitude":12.7814045,"population":23}, 
{"name":"Babice","state":"Vysočina","country":"Czechia","latitude":49.6346927,"longitude":15.474941,"population":203}, 
{"name":"Babice","state":"Královéhradecký","country":"Czechia","latitude":50.192097,"longitude":15.5855115,"population":195}, 
{"name":"Babice","state":"Olomoucký","country":"Czechia","latitude":49.7378307,"longitude":17.2608592,"population":433}, 
{"name":"Babice","state":"Vysočina","country":"Czechia","latitude":49.6346927,"longitude":15.474941,"population":42}, 
{"name":"Babice","state":"Plzeňský","country":"Czechia","latitude":49.6075642,"longitude":12.7814045,"population":12}, 
{"name":"Babice","state":"Jihočeský","country":"Czechia","latitude":49.0247597,"longitude":14.2375764,"population":79}, 
{"name":"Babice","state":"Středočeský","country":"Czechia","latitude":50.0054048,"longitude":14.7241793,"population":843}, 
{"name":"Babice","state":"Vysočina","country":"Czechia","latitude":49.6346927,"longitude":15.474941,"population":145}, 
{"name":"Babice","state":"Zlínský","country":"Czechia","latitude":49.1216616,"longitude":17.4767566,"population":1777}, 
{"name":"Babice","state":"Zlínský","country":"Czechia","latitude":49.1216616,"longitude":17.4767566,"population":103}, 
{"name":"Babice nad Svitavou","state":"Jihomoravský","country":"Czechia","latitude":49.2824066,"longitude":16.6970969,"population":1021}, 
{"name":"Babice u Rosic","state":"Jihomoravský","country":"Czechia","latitude":49.1755804,"longitude":16.353006,"population":659}, 
{"name":"Babín","state":"Plzeňský","country":"Czechia","latitude":49.3471979,"longitude":13.7273637,"population":56}, 
{"name":"Babín","state":"Vysočina","country":"Czechia","latitude":49.3361551,"longitude":15.0840398,"population":38}, 
{"name":"Babina","state":"Plzeňský","country":"Czechia","latitude":49.9334907,"longitude":13.4442863,"population":193}, 
{"name":"Babiny I","state":"Ústecký","country":"Czechia","latitude":50.5935939,"longitude":14.1291639,"population":4}, 
{"name":"Babiny II","state":"Ústecký","country":"Czechia","latitude":50.6395863,"longitude":14.1853736,"population":13}, 
{"name":"Babolky","state":"Jihomoravský","country":"Czechia","latitude":49.5915911,"longitude":16.5789888,"population":47}, 
{"name":"Babylon","state":"Plzeňský","country":"Czechia","latitude":49.3979353,"longitude":12.8487159,"population":296}, 
{"name":"Bačalky","state":"Královéhradecký","country":"Czechia","latitude":50.3883391,"longitude":15.1545255,"population":134}, 
{"name":"Bačetín","state":"Královéhradecký","country":"Czechia","latitude":50.298929,"longitude":16.2326559,"population":336}, 
{"name":"Bačice","state":"Vysočina","country":"Czechia","latitude":49.0811199,"longitude":16.0275652,"population":121}, 
{"name":"Bačkov","state":"Vysočina","country":"Czechia","latitude":49.7367672,"longitude":15.4659918,"population":126}, 
{"name":"Bačkovice","state":"Vysočina","country":"Czechia","latitude":48.9657716,"longitude":15.5839327,"population":116}, 
{"name":"Bacov","state":"Královéhradecký","country":"Czechia","latitude":50.4892134,"longitude":15.2232051,"population":17}, 
{"name":"Bačov","state":"Jihomoravský","country":"Czechia","latitude":49.5281133,"longitude":16.6418898,"population":80}, 
{"name":"Bácovice","state":"Vysočina","country":"Czechia","latitude":49.4789945,"longitude":15.1680293,"population":69}, 
{"name":"Bahno","state":"Středočeský","country":"Czechia","latitude":49.8719187,"longitude":15.233187,"population":117}, 
{"name":"Bakov","state":"Středočeský","country":"Czechia","latitude":50.2675745,"longitude":14.0958977,"population":104}, 
{"name":"Bakov","state":"Královéhradecký","country":"Czechia","latitude":50.4351895,"longitude":16.0863323,"population":39}, 
{"name":"Bakov nad Jizerou","state":"Středočeský","country":"Czechia","latitude":50.4737325,"longitude":14.9546479,"population":3728}, 
{"name":"Baldovec","state":"Olomoucký","country":"Czechia","latitude":49.4107285,"longitude":16.8214294,"population":102}, 
{"name":"Baliny","state":"Vysočina","country":"Czechia","latitude":49.3367277,"longitude":15.9566158,"population":125}, 
{"name":"Balková","state":"Plzeňský","country":"Czechia","latitude":50.0849667,"longitude":13.2967964,"population":0}, 
{"name":"Balkova Lhota","state":"Jihočeský","country":"Czechia","latitude":49.4494468,"longitude":14.5988703,"population":120}, 
{"name":"Balkovy","state":"Plzeňský","country":"Czechia","latitude":49.4449086,"longitude":13.2203291,"population":16}, 
{"name":"Banín","state":"Pardubický","country":"Czechia","latitude":49.6641435,"longitude":16.4436789,"population":301}, 
{"name":"Bánov","state":"Zlínský","country":"Czechia","latitude":48.9711376,"longitude":17.7288644,"population":2048}, 
{"name":"Báňov","state":"Středočeský","country":"Czechia","latitude":49.594206,"longitude":14.6304997,"population":8}, 
{"name":"Báňovice","state":"Jihočeský","country":"Czechia","latitude":49.0155192,"longitude":15.4918541,"population":110}, 
{"name":"Bantice","state":"Jihomoravský","country":"Czechia","latitude":48.8763719,"longitude":16.1770028,"population":285}, 
{"name":"Barchov","state":"Královéhradecký","country":"Czechia","latitude":50.204439,"longitude":15.5707221,"population":289}, 
{"name":"Barchov","state":"Pardubický","country":"Czechia","latitude":49.9993118,"longitude":15.6808051,"population":186}, 
{"name":"Barchovice","state":"Středočeský","country":"Czechia","latitude":49.9448132,"longitude":14.9701579,"population":89}, 
{"name":"Barchůvek","state":"Královéhradecký","country":"Czechia","latitude":50.2094661,"longitude":15.5474785,"population":95}, 
{"name":"Barčov","state":"Středočeský","country":"Czechia","latitude":49.5947861,"longitude":14.7099356,"population":10}, 
{"name":"Bařice","state":"Zlínský","country":"Czechia","latitude":49.2444735,"longitude":17.4219363,"population":249}, 
{"name":"Barochov","state":"Středočeský","country":"Czechia","latitude":49.8617205,"longitude":14.6282745,"population":70}, 
{"name":"Barovice","state":"Vysočina","country":"Czechia","latitude":49.7616492,"longitude":15.7554563,"population":57}, 
{"name":"Bartoňov","state":"Olomoucký","country":"Czechia","latitude":49.9694778,"longitude":16.8780783,"population":118}, 
{"name":"Bartošovice","state":"Moravskoslezský","country":"Czechia","latitude":49.6651277,"longitude":18.0503057,"population":1278}, 
{"name":"Bartošovice v Orlických horách","state":"Královéhradecký","country":"Czechia","latitude":50.1581807,"longitude":16.5456141,"population":205}, 
{"name":"Bartoušov","state":"Vysočina","country":"Czechia","latitude":49.575428,"longitude":15.6451738,"population":175}, 
{"name":"Bartoušov","state":"Královéhradecký","country":"Czechia","latitude":50.3564871,"longitude":15.3098272,"population":72}, 
{"name":"Bartultovice","state":"Moravskoslezský","country":"Czechia","latitude":50.2689247,"longitude":17.5922928,"population":85}, 
{"name":"Baška","state":"Moravskoslezský","country":"Czechia","latitude":49.6384403,"longitude":18.3805857,"population":1708}, 
{"name":"Bašnice","state":"Královéhradecký","country":"Czechia","latitude":50.3276795,"longitude":15.5979953,"population":188}, 
{"name":"Bašť","state":"Středočeský","country":"Czechia","latitude":50.2069295,"longitude":14.4704052,"population":1657}, 
{"name":"Bašta","state":"Středočeský","country":"Czechia","latitude":50.0134362,"longitude":15.2964977,"population":650}, 
{"name":"Batelov","state":"Vysočina","country":"Czechia","latitude":49.3136993,"longitude":15.3983982,"population":1783}, 
{"name":"Batín","state":"Královéhradecký","country":"Czechia","latitude":50.4198135,"longitude":15.2299752,"population":46}, 
{"name":"Batňovice","state":"Královéhradecký","country":"Czechia","latitude":50.5185113,"longitude":16.0362029,"population":723}, 
{"name":"Batouchovice","state":"Vysočina","country":"Czechia","latitude":49.3117704,"longitude":15.9044097,"population":48}, 
{"name":"Bavorov","state":"Jihočeský","country":"Czechia","latitude":49.1222535,"longitude":14.0833199,"population":1236}, 
{"name":"Bavorovice","state":"Jihočeský","country":"Czechia","latitude":49.0252876,"longitude":14.430928,"population":312}, 
{"name":"Bavory","state":"Jihomoravský","country":"Czechia","latitude":48.8312167,"longitude":16.6150175,"population":402}, 
{"name":"Bavoryně","state":"Středočeský","country":"Czechia","latitude":49.8951737,"longitude":13.9522982,"population":203}, 
{"name":"Bdeněves","state":"Plzeňský","country":"Czechia","latitude":49.7642058,"longitude":13.2238108,"population":626}, 
{"name":"Bdín","state":"Středočeský","country":"Czechia","latitude":50.2154017,"longitude":13.856463,"population":54}, 
{"name":"Běchárky","state":"Královéhradecký","country":"Czechia","latitude":50.292899,"longitude":15.2884554,"population":5}, 
{"name":"Běchary","state":"Královéhradecký","country":"Czechia","latitude":50.305508,"longitude":15.292049,"population":214}, 
{"name":"Bechlín","state":"Ústecký","country":"Czechia","latitude":50.4194983,"longitude":14.3419894,"population":682}, 
{"name":"Bechov","state":"Středočeský","country":"Czechia","latitude":50.4352696,"longitude":15.0897432,"population":113}, 
{"name":"Bechyně","state":"Jihočeský","country":"Czechia","latitude":49.298868,"longitude":14.4776792,"population":5057}, 
{"name":"Bechyňská Smoleč","state":"Jihočeský","country":"Czechia","latitude":49.3128604,"longitude":14.5443907,"population":151}, 
{"name":"Bečice","state":"Jihočeský","country":"Czechia","latitude":49.2215318,"longitude":14.5090633,"population":98}, 
{"name":"Bečice","state":"Jihočeský","country":"Czechia","latitude":49.2215318,"longitude":14.5090633,"population":70}, 
{"name":"Bečov","state":"Ústecký","country":"Czechia","latitude":50.5192017,"longitude":13.3162306,"population":37}, 
{"name":"Bečov","state":"Ústecký","country":"Czechia","latitude":50.5192017,"longitude":13.3162306,"population":1545}, 
{"name":"Bečov nad Teplou","state":"Karlovarský","country":"Czechia","latitude":50.0776322,"longitude":12.8409907,"population":832}, 
{"name":"Bečváry","state":"Středočeský","country":"Czechia","latitude":49.9550392,"longitude":15.0752402,"population":522}, 
{"name":"Bedihošť","state":"Olomoucký","country":"Czechia","latitude":49.4437438,"longitude":17.1562406,"population":1019}, 
{"name":"Bedlno","state":"Středočeský","country":"Czechia","latitude":50.1198171,"longitude":13.506687,"population":18}, 
{"name":"Bednárec","state":"Jihočeský","country":"Czechia","latitude":49.1925495,"longitude":15.1053707,"population":103}, 
{"name":"Bednáreček","state":"Jihočeský","country":"Czechia","latitude":49.2051515,"longitude":15.1443125,"population":192}, 
{"name":"Bedrč","state":"Středočeský","country":"Czechia","latitude":49.8078379,"longitude":14.7180279,"population":109}, 
{"name":"Bedřichov","state":"Jihomoravský","country":"Czechia","latitude":49.4630616,"longitude":16.4577858,"population":255}, 
{"name":"Bedřichov","state":"Jihočeský","country":"Czechia","latitude":48.758103,"longitude":14.7211064,"population":19}, 
{"name":"Bedřichov","state":"Liberecký","country":"Czechia","latitude":50.791017,"longitude":15.1426403,"population":300}, 
{"name":"Bedřichov","state":"Středočeský","country":"Czechia","latitude":49.8825368,"longitude":15.1716542,"population":7}, 
{"name":"Bedřichov","state":"Vysočina","country":"Czechia","latitude":49.475221,"longitude":14.9602272,"population":51}, 
{"name":"Bedřichov","state":"Olomoucký","country":"Czechia","latitude":49.9309706,"longitude":17.1550203,"population":123}, 
{"name":"Bedřichov","state":"Královéhradecký","country":"Czechia","latitude":50.7259884,"longitude":15.5966602,"population":861}, 
{"name":"Bedřichovice","state":"Středočeský","country":"Czechia","latitude":49.6756117,"longitude":14.7752555,"population":49}, 
{"name":"Bedřichovice","state":"Jihomoravský","country":"Czechia","latitude":49.1790774,"longitude":16.7131655,"population":338}, 
{"name":"Bedřichovice","state":"Ústecký","country":"Czechia","latitude":50.3035157,"longitude":13.8805823,"population":70}, 
{"name":"Bedřichův Světec","state":"Ústecký","country":"Czechia","latitude":50.4494584,"longitude":13.7466259,"population":30}, 
{"name":"Běhánky","state":"Ústecký","country":"Czechia","latitude":50.6789591,"longitude":13.8015521,"population":935}, 
{"name":"Běhařov","state":"Plzeňský","country":"Czechia","latitude":49.3402485,"longitude":13.1601247,"population":130}, 
{"name":"Běhařovice","state":"Jihomoravský","country":"Czechia","latitude":49.0065502,"longitude":16.0720244,"population":176}, 
{"name":"Bělá","state":"Jihočeský","country":"Czechia","latitude":48.6576558,"longitude":14.5839923,"population":71}, 
{"name":"Bělá","state":"Pardubický","country":"Czechia","latitude":49.8845063,"longitude":16.0030712,"population":215}, 
{"name":"Bělá","state":"Vysočina","country":"Czechia","latitude":49.7522092,"longitude":15.2372961,"population":160}, 
{"name":"Bělá","state":"Olomoucký","country":"Czechia","latitude":50.1315955,"longitude":17.2158479,"population":23}, 
{"name":"Bělá","state":"Moravskoslezský","country":"Czechia","latitude":49.9733337,"longitude":18.1463119,"population":661}, 
{"name":"Bělá","state":"Vysočina","country":"Czechia","latitude":49.7522092,"longitude":15.2372961,"population":54}, 
{"name":"Bělá","state":"Jihočeský","country":"Czechia","latitude":48.6576558,"longitude":14.5839923,"population":17}, 
{"name":"Bělá","state":"Královéhradecký","country":"Czechia","latitude":50.1845561,"longitude":16.3778572,"population":103}, 
{"name":"Bělá","state":"Liberecký","country":"Czechia","latitude":50.5919127,"longitude":15.1841395,"population":251}, 
{"name":"Bělá","state":"Liberecký","country":"Czechia","latitude":50.5919127,"longitude":15.1841395,"population":270}, 
{"name":"Bělá nad Radbuzou","state":"Plzeňský","country":"Czechia","latitude":49.5931832,"longitude":12.6998743,"population":1383}, 
{"name":"Bělá nad Svitavou","state":"Pardubický","country":"Czechia","latitude":49.6415437,"longitude":16.4849415,"population":505}, 
{"name":"Bělá pod Bezdězem","state":"Středočeský","country":"Czechia","latitude":50.51675,"longitude":14.8094527,"population":4531}, 
{"name":"Bělá u Jevíčka","state":"Pardubický","country":"Czechia","latitude":49.6460436,"longitude":16.6473492,"population":289}, 
{"name":"Bělá u Pecky","state":"Královéhradecký","country":"Czechia","latitude":50.4768635,"longitude":15.5801608,"population":190}, 
{"name":"Bělbožice","state":"Středočeský","country":"Czechia","latitude":50.01835,"longitude":13.6013307,"population":38}, 
{"name":"Bělčice","state":"Středočeský","country":"Czechia","latitude":49.8432993,"longitude":14.8087622,"population":14}, 
{"name":"Bělčice","state":"Jihočeský","country":"Czechia","latitude":49.5055308,"longitude":13.8790102,"population":696}, 
{"name":"Bělčovice","state":"Jihočeský","country":"Czechia","latitude":48.988497,"longitude":15.5124945,"population":38}, 
{"name":"Běleč","state":"Středočeský","country":"Czechia","latitude":50.0567695,"longitude":13.9729815,"population":146}, 
{"name":"Běleč","state":"Jihomoravský","country":"Czechia","latitude":49.4339359,"longitude":16.3831302,"population":134}, 
{"name":"Běleč","state":"Středočeský","country":"Czechia","latitude":50.0567695,"longitude":13.9729815,"population":336}, 
{"name":"Běleč","state":"Jihočeský","country":"Czechia","latitude":49.0493211,"longitude":14.036542,"population":106}, 
{"name":"Běleč","state":"Jihočeský","country":"Czechia","latitude":49.0493211,"longitude":14.036542,"population":102}, 
{"name":"Běleč nad Orlicí","state":"Královéhradecký","country":"Czechia","latitude":50.18227,"longitude":15.954783,"population":319}, 
{"name":"Bělečko","state":"Pardubický","country":"Czechia","latitude":50.1493358,"longitude":15.9593635,"population":195}, 
{"name":"Bělečská Lhota","state":"Jihočeský","country":"Czechia","latitude":49.0390591,"longitude":14.0315315,"population":32}, 
{"name":"Bělešovice","state":"Pardubický","country":"Czechia","latitude":49.9814808,"longitude":15.9547146,"population":17}, 
{"name":"Bělice","state":"Středočeský","country":"Czechia","latitude":49.7678973,"longitude":14.4790251,"population":115}, 
{"name":"Bělidla","state":"Olomoucký","country":"Czechia","latitude":49.5996239,"longitude":17.2804524,"population":779}, 
{"name":"Bělkovice-Lašťany","state":"Olomoucký","country":"Czechia","latitude":49.6697764,"longitude":17.3181635,"population":2101}, 
{"name":"Bělohrad","state":"Středočeský","country":"Czechia","latitude":49.7063279,"longitude":14.2013464,"population":12}, 
{"name":"Bělokozly","state":"Středočeský","country":"Czechia","latitude":49.8485833,"longitude":14.9004068,"population":83}, 
{"name":"Běloky","state":"Středočeský","country":"Czechia","latitude":50.1301375,"longitude":14.20243,"population":188}, 
{"name":"Bělotín","state":"Olomoucký","country":"Czechia","latitude":49.5957851,"longitude":17.7944217,"population":1253}, 
{"name":"Bělov","state":"Zlínský","country":"Czechia","latitude":49.2181346,"longitude":17.4851304,"population":301}, 
{"name":"Běloves","state":"Královéhradecký","country":"Czechia","latitude":50.4213316,"longitude":16.1961054,"population":1408}, 
{"name":"Běluň","state":"Královéhradecký","country":"Czechia","latitude":50.3864879,"longitude":15.9295403,"population":0}, 
{"name":"Běluň","state":"Královéhradecký","country":"Czechia","latitude":50.3864879,"longitude":15.9295403,"population":67}, 
{"name":"Bělušice","state":"Středočeský","country":"Czechia","latitude":50.0664173,"longitude":15.3182731,"population":269}, 
{"name":"Bělušice","state":"Ústecký","country":"Czechia","latitude":50.4491559,"longitude":13.7628159,"population":791}, 
{"name":"Bělý","state":"Královéhradecký","country":"Czechia","latitude":50.5126515,"longitude":16.2876393,"population":113}, 
{"name":"Benátecká Vrutice","state":"Středočeský","country":"Czechia","latitude":50.2345729,"longitude":14.8415382,"population":285}, 
{"name":"Benátky","state":"Vysočina","country":"Czechia","latitude":49.7090606,"longitude":15.8455364,"population":166}, 
{"name":"Benátky","state":"Královéhradecký","country":"Czechia","latitude":50.3095989,"longitude":15.7359235,"population":109}, 
{"name":"Benátky","state":"Středočeský","country":"Czechia","latitude":49.9020989,"longitude":14.9314223,"population":39}, 
{"name":"Benátky","state":"Vysočina","country":"Czechia","latitude":49.7090606,"longitude":15.8455364,"population":20}, 
{"name":"Benátky","state":"Pardubický","country":"Czechia","latitude":49.8541887,"longitude":16.3267417,"population":350}, 
{"name":"Benátky","state":"Vysočina","country":"Czechia","latitude":49.7090606,"longitude":15.8455364,"population":218}, 
{"name":"Benátky nad Jizerou","state":"Středočeský","country":"Czechia","latitude":50.291767,"longitude":14.8260014,"population":6507}, 
{"name":"Bendovo Záhoří","state":"Jihočeský","country":"Czechia","latitude":49.5013501,"longitude":14.8184087,"population":13}, 
{"name":"Benecko","state":"Liberecký","country":"Czechia","latitude":50.6658026,"longitude":15.5564538,"population":366}, 
{"name":"Beneda","state":"Jihočeský","country":"Czechia","latitude":49.1094412,"longitude":13.9167812,"population":7}, 
{"name":"Benešov","state":"Středočeský","country":"Czechia","latitude":49.7818921,"longitude":14.6869121,"population":15317}, 
{"name":"Benešov","state":"Jihomoravský","country":"Czechia","latitude":49.5094712,"longitude":16.7701962,"population":651}, 
{"name":"Benešov","state":"Královéhradecký","country":"Czechia","latitude":50.6138208,"longitude":16.347684,"population":107}, 
{"name":"Benešov","state":"Vysočina","country":"Czechia","latitude":49.3366848,"longitude":15.0068922,"population":56}, 
{"name":"Benešov nad Černou","state":"Jihočeský","country":"Czechia","latitude":48.7137824,"longitude":14.6384899,"population":1081}, 
{"name":"Benešov nad Ploučnicí","state":"Ústecký","country":"Czechia","latitude":50.7440934,"longitude":14.3050658,"population":3705}, 
{"name":"Benešov u Semil","state":"Liberecký","country":"Czechia","latitude":50.6098412,"longitude":15.3752141,"population":827}, 
{"name":"Benešova Hora","state":"Jihočeský","country":"Czechia","latitude":49.1268324,"longitude":13.6906551,"population":131}, 
{"name":"Benešovice","state":"Liberecký","country":"Czechia","latitude":50.6092513,"longitude":14.9646041,"population":13}, 
{"name":"Benešovice","state":"Pardubický","country":"Czechia","latitude":50.015194,"longitude":15.5584877,"population":38}, 
{"name":"Benešovice","state":"Plzeňský","country":"Czechia","latitude":49.7192783,"longitude":12.9015759,"population":137}, 
{"name":"Benetice","state":"Vysočina","country":"Czechia","latitude":49.3015064,"longitude":15.864768,"population":29}, 
{"name":"Benetice","state":"Vysočina","country":"Czechia","latitude":49.3015064,"longitude":15.864768,"population":141}, 
{"name":"Benice","state":"Středočeský","country":"Czechia","latitude":49.7941298,"longitude":14.5572861,"population":21}, 
{"name":"Benkov","state":"Olomoucký","country":"Czechia","latitude":49.8947683,"longitude":17.0251082,"population":217}, 
{"name":"Benkov","state":"Olomoucký","country":"Czechia","latitude":49.8947683,"longitude":17.0251082,"population":46}, 
{"name":"Benkovice","state":"Moravskoslezský","country":"Czechia","latitude":49.8713192,"longitude":17.8367395,"population":203}, 
{"name":"Beňov","state":"Olomoucký","country":"Czechia","latitude":49.4184312,"longitude":17.5053967,"population":598}, 
{"name":"Beňovy","state":"Plzeňský","country":"Czechia","latitude":49.3908902,"longitude":13.2612682,"population":61}, 
{"name":"Beranov","state":"Karlovarský","country":"Czechia","latitude":50.0012615,"longitude":12.8928411,"population":29}, 
{"name":"Beranova Lhota","state":"Jihočeský","country":"Czechia","latitude":49.4806941,"longitude":14.7111423,"population":37}, 
{"name":"Beranovec","state":"Vysočina","country":"Czechia","latitude":49.3132957,"longitude":15.5604921,"population":72}, 
{"name":"Beranovka","state":"Karlovarský","country":"Czechia","latitude":49.9397981,"longitude":12.839404,"population":28}, 
{"name":"Bergov","state":"Olomoucký","country":"Czechia","latitude":50.3372018,"longitude":17.0531232,"population":30}, 
{"name":"Běřín","state":"Středočeský","country":"Czechia","latitude":49.79256,"longitude":13.9970263,"population":44}, 
{"name":"Bernardov","state":"Středočeský","country":"Czechia","latitude":50.0155009,"longitude":15.4006393,"population":180}, 
{"name":"Bernartice","state":"Středočeský","country":"Czechia","latitude":49.675344,"longitude":15.1271697,"population":210}, 
{"name":"Bernartice","state":"Olomoucký","country":"Czechia","latitude":50.389811,"longitude":17.0782743,"population":715}, 
{"name":"Bernartice","state":"Plzeňský","country":"Czechia","latitude":49.62679,"longitude":12.800553,"population":25}, 
{"name":"Bernartice","state":"Jihočeský","country":"Czechia","latitude":49.3689077,"longitude":14.3800064,"population":839}, 
{"name":"Bernartice","state":"Plzeňský","country":"Czechia","latitude":49.62679,"longitude":12.800553,"population":89}, 
{"name":"Bernartice","state":"Královéhradecký","country":"Czechia","latitude":50.6408789,"longitude":15.9791303,"population":845}, 
{"name":"Bernartice nad Odrou","state":"Moravskoslezský","country":"Czechia","latitude":49.6140688,"longitude":17.9500105,"population":926}, 
{"name":"Bernov","state":"Karlovarský","country":"Czechia","latitude":50.3310973,"longitude":12.6868905,"population":272}, 
{"name":"Bernov","state":"Karlovarský","country":"Czechia","latitude":50.3310973,"longitude":12.6868905,"population":23}, 
{"name":"Beroun","state":"Karlovarský","country":"Czechia","latitude":49.9505159,"longitude":12.9243746,"population":21}, 
{"name":"Beroun","state":"Středočeský","country":"Czechia","latitude":49.973038,"longitude":14.0723089,"population":18819}, 
{"name":"Beřovice","state":"Středočeský","country":"Czechia","latitude":50.265349,"longitude":14.1255088,"population":259}, 
{"name":"Bertoldka","state":"Královéhradecký","country":"Czechia","latitude":50.4018487,"longitude":15.5835251,"population":3}, 
{"name":"Běrunice","state":"Středočeský","country":"Czechia","latitude":50.1810247,"longitude":15.3263124,"population":410}, 
{"name":"Běruničky","state":"Středočeský","country":"Czechia","latitude":50.2054898,"longitude":15.3395441,"population":62}, 
{"name":"Besedice","state":"Liberecký","country":"Czechia","latitude":50.6258682,"longitude":15.2026817,"population":105}, 
{"name":"Besednice","state":"Jihočeský","country":"Czechia","latitude":48.789605,"longitude":14.559907,"population":793}, 
{"name":"Bešetín","state":"Plzeňský","country":"Czechia","latitude":49.2396173,"longitude":13.6266052,"population":18}, 
{"name":"Běšiny","state":"Plzeňský","country":"Czechia","latitude":49.2997558,"longitude":13.3197346,"population":630}, 
{"name":"Beškov","state":"Liberecký","country":"Czechia","latitude":50.5166775,"longitude":14.5790035,"population":2}, 
{"name":"Běsno","state":"Ústecký","country":"Czechia","latitude":50.1816763,"longitude":13.5101684,"population":115}, 
{"name":"Běštín","state":"Středočeský","country":"Czechia","latitude":49.8019304,"longitude":14.0217659,"population":289}, 
{"name":"Běstovice","state":"Pardubický","country":"Czechia","latitude":50.020203,"longitude":16.2088769,"population":449}, 
{"name":"Běstvina","state":"Pardubický","country":"Czechia","latitude":49.8276524,"longitude":15.6097428,"population":264}, 
{"name":"Běstviny","state":"Královéhradecký","country":"Czechia","latitude":50.318576,"longitude":16.1436603,"population":74}, 
{"name":"Betlem","state":"Královéhradecký","country":"Czechia","latitude":50.4621068,"longitude":15.2478488,"population":16}, 
{"name":"Bezděčí","state":"Jihomoravský","country":"Czechia","latitude":49.6076975,"longitude":16.6164876,"population":43}, 
{"name":"Bezděčí u Trnávky","state":"Pardubický","country":"Czechia","latitude":49.691103,"longitude":16.7654177,"population":154}, 
{"name":"Bezděčín","state":"Liberecký","country":"Czechia","latitude":50.658119,"longitude":15.1307374,"population":131}, 
{"name":"Bezděčín","state":"Vysočina","country":"Czechia","latitude":49.3212392,"longitude":15.3754523,"population":89}, 
{"name":"Bezděčín","state":"Středočeský","country":"Czechia","latitude":50.3856533,"longitude":14.8985107,"population":393}, 
{"name":"Bezděčín","state":"Vysočina","country":"Czechia","latitude":49.3212392,"longitude":15.3754523,"population":7}, 
{"name":"Bezděčín","state":"Liberecký","country":"Czechia","latitude":50.658119,"longitude":15.1307374,"population":12}, 
{"name":"Bezděčín","state":"Jihočeský","country":"Czechia","latitude":49.3243282,"longitude":14.6216171,"population":114}, 
{"name":"Bezdědice","state":"Středočeský","country":"Czechia","latitude":50.4864315,"longitude":14.7044004,"population":117}, 
{"name":"Bezdědice","state":"Středočeský","country":"Czechia","latitude":50.4864315,"longitude":14.7044004,"population":52}, 
{"name":"Bezdědovice","state":"Jihočeský","country":"Czechia","latitude":49.4500307,"longitude":13.887001,"population":266}, 
{"name":"Bezděkov","state":"Středočeský","country":"Czechia","latitude":49.8592076,"longitude":14.7652631,"population":33}, 
{"name":"Bezděkov","state":"Středočeský","country":"Czechia","latitude":49.8592076,"longitude":14.7652631,"population":77}, 
{"name":"Bezděkov","state":"Vysočina","country":"Czechia","latitude":49.2504184,"longitude":15.5303498,"population":231}, 
{"name":"Bezděkov","state":"Vysočina","country":"Czechia","latitude":49.2504184,"longitude":15.5303498,"population":50}, 
{"name":"Bezděkov","state":"Vysočina","country":"Czechia","latitude":49.2504184,"longitude":15.5303498,"population":33}, 
{"name":"Bezděkov","state":"Karlovarský","country":"Czechia","latitude":50.0067995,"longitude":12.9760442,"population":38}, 
{"name":"Bezděkov","state":"Plzeňský","country":"Czechia","latitude":49.4150713,"longitude":13.7406507,"population":601}, 
{"name":"Bezděkov","state":"Plzeňský","country":"Czechia","latitude":49.4150713,"longitude":13.7406507,"population":5}, 
{"name":"Bezděkov","state":"Ústecký","country":"Czechia","latitude":50.3264743,"longitude":13.5850142,"population":259}, 
{"name":"Bezděkov","state":"Olomoucký","country":"Czechia","latitude":49.7125545,"longitude":16.869688,"population":43}, 
{"name":"Bezděkov","state":"Pardubický","country":"Czechia","latitude":50.0065357,"longitude":15.6516973,"population":293}, 
{"name":"Bezděkov","state":"Vysočina","country":"Czechia","latitude":49.2504184,"longitude":15.5303498,"population":44}, 
{"name":"Bezděkov","state":"Plzeňský","country":"Czechia","latitude":49.4150713,"longitude":13.7406507,"population":81}, 
{"name":"Bezděkov","state":"Plzeňský","country":"Czechia","latitude":49.4150713,"longitude":13.7406507,"population":121}, 
{"name":"Bezděkov","state":"Jihočeský","country":"Czechia","latitude":49.5292799,"longitude":14.4805095,"population":13}, 
{"name":"Bezděkov","state":"Plzeňský","country":"Czechia","latitude":49.4150713,"longitude":13.7406507,"population":23}, 
{"name":"Bezděkov","state":"Plzeňský","country":"Czechia","latitude":49.4150713,"longitude":13.7406507,"population":59}, 
{"name":"Bezděkov","state":"Vysočina","country":"Czechia","latitude":49.2504184,"longitude":15.5303498,"population":67}, 
{"name":"Bezděkov nad Metují","state":"Královéhradecký","country":"Czechia","latitude":50.5068319,"longitude":16.2275481,"population":504}, 
{"name":"Bezděkov pod Třemšínem","state":"Středočeský","country":"Czechia","latitude":49.5779431,"longitude":13.8786492,"population":155}, 
{"name":"Bezděkov u Úsova","state":"Olomoucký","country":"Czechia","latitude":49.8352457,"longitude":16.989966,"population":79}, 
{"name":"Bezděkovec","state":"Plzeňský","country":"Czechia","latitude":49.4573779,"longitude":13.6468953,"population":43}, 
{"name":"Bezděkovské Předměstí","state":"Plzeňský","country":"Czechia","latitude":49.4352576,"longitude":12.9192485,"population":2334}, 
{"name":"Bezděz","state":"Liberecký","country":"Czechia","latitude":50.5424238,"longitude":14.7161584,"population":299}, 
{"name":"Bezdružice","state":"Plzeňský","country":"Czechia","latitude":49.9074727,"longitude":12.9848171,"population":798}, 
{"name":"Bezejovice","state":"Středočeský","country":"Czechia","latitude":49.7368775,"longitude":14.6083647,"population":8}, 
{"name":"Bezemín","state":"Plzeňský","country":"Czechia","latitude":49.8464855,"longitude":13.0045004,"population":20}, 
{"name":"Bežerovice","state":"Jihočeský","country":"Czechia","latitude":49.2915561,"longitude":14.506077,"population":127}, 
{"name":"Bezkov","state":"Jihomoravský","country":"Czechia","latitude":48.8738016,"longitude":15.9441207,"population":204}, 
{"name":"Bezměrov","state":"Zlínský","country":"Czechia","latitude":49.3267974,"longitude":17.341509,"population":518}, 
{"name":"Bezmíř","state":"Středočeský","country":"Czechia","latitude":49.6459942,"longitude":14.5397486,"population":54}, 
{"name":"Bezník","state":"Královéhradecký","country":"Czechia","latitude":50.4497264,"longitude":15.6438298,"population":27}, 
{"name":"Bezno","state":"Středočeský","country":"Czechia","latitude":50.3649427,"longitude":14.8057864,"population":875}, 
{"name":"Bezpravovice","state":"Plzeňský","country":"Czechia","latitude":49.4496278,"longitude":13.1454868,"population":15}, 
{"name":"Beztahov","state":"Středočeský","country":"Czechia","latitude":49.6354834,"longitude":14.6014916,"population":113}, 
{"name":"Bezuchov","state":"Olomoucký","country":"Czechia","latitude":49.4638381,"longitude":17.6074072,"population":189}, 
{"name":"Bezvěrov","state":"Karlovarský","country":"Czechia","latitude":49.9470722,"longitude":12.8233302,"population":3}, 
{"name":"Bezvěrov","state":"Plzeňský","country":"Czechia","latitude":49.9956591,"longitude":13.0476304,"population":396}, 
{"name":"Bílá","state":"Moravskoslezský","country":"Czechia","latitude":49.444676,"longitude":18.4526955,"population":290}, 
{"name":"Bílá","state":"Jihočeský","country":"Czechia","latitude":49.0703359,"longitude":15.0487874,"population":25}, 
{"name":"Bílá","state":"Liberecký","country":"Czechia","latitude":50.66483,"longitude":15.0354133,"population":292}, 
{"name":"Bílá Bříza","state":"Moravskoslezský","country":"Czechia","latitude":49.9702757,"longitude":18.0173982,"population":69}, 
{"name":"Bílá Hlína","state":"Středočeský","country":"Czechia","latitude":50.5249635,"longitude":14.9075382,"population":103}, 
{"name":"Bílá Lhota","state":"Olomoucký","country":"Czechia","latitude":49.7017549,"longitude":16.9625443,"population":143}, 
{"name":"Bílá Skála","state":"Plzeňský","country":"Czechia","latitude":49.885296,"longitude":13.6775087,"population":22}, 
{"name":"Bílá Studně","state":"Pardubický","country":"Czechia","latitude":49.7854429,"longitude":16.6880338,"population":39}, 
{"name":"Bílá Třemešná","state":"Královéhradecký","country":"Czechia","latitude":50.4449235,"longitude":15.7467099,"population":1111}, 
{"name":"Bílá Voda","state":"Pardubický","country":"Czechia","latitude":50.0201384,"longitude":16.7625065,"population":173}, 
{"name":"Bilantova Lhota","state":"Vysočina","country":"Czechia","latitude":49.6600821,"longitude":15.3282433,"population":20}, 
{"name":"Bílany","state":"Zlínský","country":"Czechia","latitude":49.3029323,"longitude":17.4358559,"population":306}, 
{"name":"Bílavsko","state":"Zlínský","country":"Czechia","latitude":49.3849623,"longitude":17.6301848,"population":271}, 
{"name":"Bílčice","state":"Moravskoslezský","country":"Czechia","latitude":49.8760765,"longitude":17.5704802,"population":229}, 
{"name":"Bílé Podolí","state":"Středočeský","country":"Czechia","latitude":49.9616731,"longitude":15.4816865,"population":378}, 
{"name":"Bílé Poličany","state":"Královéhradecký","country":"Czechia","latitude":50.3945885,"longitude":15.7339848,"population":146}, 
{"name":"Bílé Vchynice","state":"Pardubický","country":"Czechia","latitude":50.0957418,"longitude":15.4466256,"population":111}, 
{"name":"Bílek","state":"Vysočina","country":"Czechia","latitude":49.6925257,"longitude":15.7520121,"population":273}, 
{"name":"Bílence","state":"Ústecký","country":"Czechia","latitude":50.4264166,"longitude":13.5176733,"population":124}, 
{"name":"Bílenec","state":"Ústecký","country":"Czechia","latitude":50.1403082,"longitude":13.4700178,"population":45}, 
{"name":"Bílenice","state":"Plzeňský","country":"Czechia","latitude":49.2367311,"longitude":13.647256,"population":77}, 
{"name":"Bíletín","state":"Plzeňský","country":"Czechia","latitude":49.8115363,"longitude":12.6784473,"population":30}, 
{"name":"Bílichov","state":"Středočeský","country":"Czechia","latitude":50.2564304,"longitude":13.8967555,"population":182}, 
{"name":"Bilina","state":"Jihočeský","country":"Czechia","latitude":49.3809947,"longitude":14.3635112,"population":65}, 
{"name":"Bílina","state":"Ústecký","country":"Czechia","latitude":50.5465729,"longitude":13.7807345,"population":312}, 
{"name":"Bilinka","state":"Jihočeský","country":"Czechia","latitude":49.3526753,"longitude":14.3583919,"population":32}, 
{"name":"Bílinka","state":"Ústecký","country":"Czechia","latitude":50.5212341,"longitude":14.002435,"population":59}, 
{"name":"Bílka","state":"Ústecký","country":"Czechia","latitude":50.5659598,"longitude":13.9392674,"population":40}, 
{"name":"Bílkov","state":"Jihočeský","country":"Czechia","latitude":49.0905453,"longitude":15.4863804,"population":378}, 
{"name":"Bílkovice","state":"Středočeský","country":"Czechia","latitude":49.7596604,"longitude":14.8505743,"population":146}, 
{"name":"Bílov","state":"Moravskoslezský","country":"Czechia","latitude":49.7315284,"longitude":18.001526,"population":575}, 
{"name":"Bílov","state":"Plzeňský","country":"Czechia","latitude":50.0177731,"longitude":13.4257053,"population":76}, 
{"name":"Bílovec","state":"Moravskoslezský","country":"Czechia","latitude":49.7567664,"longitude":18.01623,"population":5735}, 
{"name":"Bílovice","state":"Olomoucký","country":"Czechia","latitude":49.5116898,"longitude":17.0181582,"population":317}, 
{"name":"Bílovice","state":"Zlínský","country":"Czechia","latitude":49.0996498,"longitude":17.549607,"population":1371}, 
{"name":"Bílovice nad Svitavou","state":"Jihomoravský","country":"Czechia","latitude":49.2603677,"longitude":16.6551867,"population":3674}, 
{"name":"Bílsko","state":"Královéhradecký","country":"Czechia","latitude":50.3485887,"longitude":15.2666425,"population":65}, 
{"name":"Bílsko","state":"Olomoucký","country":"Czechia","latitude":49.6443533,"longitude":17.0177084,"population":217}, 
{"name":"Bílsko","state":"Jihočeský","country":"Czechia","latitude":49.1590384,"longitude":14.0590058,"population":136}, 
{"name":"Bílsko u Hořic","state":"Královéhradecký","country":"Czechia","latitude":50.3648726,"longitude":15.6003172,"population":120}, 
{"name":"Bíluky","state":"Plzeňský","country":"Czechia","latitude":49.4718903,"longitude":13.4222853,"population":83}, 
{"name":"Bílý Kámen","state":"Pardubický","country":"Czechia","latitude":49.9299553,"longitude":15.5482433,"population":26}, 
{"name":"Bílý Kámen","state":"Vysočina","country":"Czechia","latitude":49.4438851,"longitude":15.501616,"population":249}, 
{"name":"Bílý Kostel nad Nisou","state":"Liberecký","country":"Czechia","latitude":50.8143767,"longitude":14.9081195,"population":819}, 
{"name":"Bílý Kostelec","state":"Ústecký","country":"Czechia","latitude":50.6407197,"longitude":14.3377176,"population":11}, 
{"name":"Bílý Kůň","state":"Pardubický","country":"Czechia","latitude":49.8820595,"longitude":16.0670948,"population":64}, 
{"name":"Bílý Potok","state":"Moravskoslezský","country":"Czechia","latitude":50.1305883,"longitude":17.3194266,"population":13}, 
{"name":"Bílý Potok","state":"Olomoucký","country":"Czechia","latitude":50.407673,"longitude":16.996044,"population":230}, 
{"name":"Bílý Potok","state":"Liberecký","country":"Czechia","latitude":50.8736749,"longitude":15.221633,"population":674}, 
{"name":"Bílý Újezd","state":"Ústecký","country":"Czechia","latitude":50.5508498,"longitude":13.9765796,"population":139}, 
{"name":"Bílý Újezd","state":"Královéhradecký","country":"Czechia","latitude":50.2384439,"longitude":16.2252655,"population":205}, 
{"name":"Biřkov","state":"Plzeňský","country":"Czechia","latitude":49.5151003,"longitude":13.2287469,"population":130}, 
{"name":"Biskoupky","state":"Jihomoravský","country":"Czechia","latitude":49.0976886,"longitude":16.2812818,"population":178}, 
{"name":"Biskoupky","state":"Plzeňský","country":"Czechia","latitude":49.8767773,"longitude":13.6894681,"population":25}, 
{"name":"Biskupice","state":"Pardubický","country":"Czechia","latitude":49.8727611,"longitude":15.5128022,"population":51}, 
{"name":"Biskupice","state":"Olomoucký","country":"Czechia","latitude":49.4596745,"longitude":17.2365914,"population":310}, 
{"name":"Biskupice","state":"Pardubický","country":"Czechia","latitude":49.8727611,"longitude":15.5128022,"population":396}, 
{"name":"Biskupice","state":"Vysočina","country":"Czechia","latitude":49.0376657,"longitude":16.0110245,"population":221}, 
{"name":"Biskupice","state":"Zlínský","country":"Czechia","latitude":49.0831083,"longitude":17.7104173,"population":672}, 
{"name":"Bitětice","state":"Vysočina","country":"Czechia","latitude":49.4679684,"longitude":15.1484602,"population":32}, 
{"name":"Bítouchov","state":"Středočeský","country":"Czechia","latitude":50.4757804,"longitude":14.8894149,"population":220}, 
{"name":"Bítouchov","state":"Liberecký","country":"Czechia","latitude":50.6160176,"longitude":15.3210545,"population":356}, 
{"name":"Bítouchov","state":"Liberecký","country":"Czechia","latitude":50.6160176,"longitude":15.3210545,"population":7}, 
{"name":"Bítov","state":"Středočeský","country":"Czechia","latitude":49.9292707,"longitude":14.0652842,"population":41}, 
{"name":"Bítov","state":"Moravskoslezský","country":"Czechia","latitude":49.8003243,"longitude":18.0474839,"population":415}, 
{"name":"Bítov","state":"Plzeňský","country":"Czechia","latitude":49.6948687,"longitude":13.0975769,"population":59}, 
{"name":"Bítov","state":"Jihočeský","country":"Czechia","latitude":49.3787506,"longitude":14.8183658,"population":40}, 
{"name":"Bítov","state":"Jihomoravský","country":"Czechia","latitude":48.9363672,"longitude":15.718558,"population":150}, 
{"name":"Bítovánky","state":"Pardubický","country":"Czechia","latitude":49.8925621,"longitude":15.8760128,"population":22}, 
{"name":"Bítovánky","state":"Vysočina","country":"Czechia","latitude":49.1553348,"longitude":15.6905148,"population":181}, 
{"name":"Bítovany","state":"Pardubický","country":"Czechia","latitude":49.8996724,"longitude":15.8641599,"population":391}, 
{"name":"Bítovčice","state":"Vysočina","country":"Czechia","latitude":49.367348,"longitude":15.735,"population":432}, 
{"name":"Bitozeves","state":"Ústecký","country":"Czechia","latitude":50.3707318,"longitude":13.637623,"population":300}, 
{"name":"Blahoňov","state":"Jihomoravský","country":"Czechia","latitude":49.3343945,"longitude":16.310242,"population":8}, 
{"name":"Blahotice","state":"Středočeský","country":"Czechia","latitude":50.2345465,"longitude":14.1263125,"population":23}, 
{"name":"Blahousty","state":"Plzeňský","country":"Czechia","latitude":49.8036461,"longitude":13.0820528,"population":21}, 
{"name":"Bláhov","state":"Ústecký","country":"Czechia","latitude":50.6371748,"longitude":14.2020815,"population":20}, 
{"name":"Bláhova Lhota","state":"Středočeský","country":"Czechia","latitude":49.6103601,"longitude":14.3405603,"population":18}, 
{"name":"Blahuňov","state":"Ústecký","country":"Czechia","latitude":50.4505173,"longitude":13.2909111,"population":83}, 
{"name":"Blahutovice","state":"Moravskoslezský","country":"Czechia","latitude":49.5878706,"longitude":17.869555,"population":165}, 
{"name":"Blanice","state":"Jihočeský","country":"Czechia","latitude":49.101309,"longitude":14.0626574,"population":11}, 
{"name":"Blanice","state":"Jihočeský","country":"Czechia","latitude":49.101309,"longitude":14.0626574,"population":59}, 
{"name":"Blanička","state":"Jihočeský","country":"Czechia","latitude":49.4724693,"longitude":14.8406219,"population":28}, 
{"name":"Blanička","state":"Jihočeský","country":"Czechia","latitude":49.4724693,"longitude":14.8406219,"population":3}, 
{"name":"Blankartice","state":"Ústecký","country":"Czechia","latitude":50.6997256,"longitude":14.2884975,"population":42}, 
{"name":"Blanné","state":"Jihomoravský","country":"Czechia","latitude":48.9965354,"longitude":15.8809283,"population":85}, 
{"name":"Blansko","state":"Jihomoravský","country":"Czechia","latitude":49.3622125,"longitude":16.6584015,"population":17606}, 
{"name":"Blansko","state":"Jihočeský","country":"Czechia","latitude":48.740673,"longitude":14.5162874,"population":319}, 
{"name":"Blansko","state":"Pardubický","country":"Czechia","latitude":49.94751,"longitude":15.9394439,"population":32}, 
{"name":"Blansko","state":"Liberecký","country":"Czechia","latitude":50.7056296,"longitude":15.4222797,"population":159}, 
{"name":"Blata","state":"Královéhradecký","country":"Czechia","latitude":50.4708904,"longitude":15.2638737,"population":99}, 
{"name":"Blata","state":"Plzeňský","country":"Czechia","latitude":49.3019463,"longitude":13.192738,"population":18}, 
{"name":"Blatce","state":"Liberecký","country":"Czechia","latitude":50.5069486,"longitude":14.588886,"population":43}, 
{"name":"Blatec","state":"Olomoucký","country":"Czechia","latitude":49.5245984,"longitude":17.2421376,"population":597}, 
{"name":"Blatec","state":"Liberecký","country":"Czechia","latitude":50.5492213,"longitude":15.2466142,"population":24}, 
{"name":"Blatec","state":"Jihočeský","country":"Czechia","latitude":49.2616576,"longitude":14.5353328,"population":14}, 
{"name":"Blatečky","state":"Liberecký","country":"Czechia","latitude":50.4959377,"longitude":14.5875033,"population":5}, 
{"name":"Blatenka","state":"Jihočeský","country":"Czechia","latitude":49.402329,"longitude":13.853772,"population":40}, 
{"name":"Blatiny","state":"Vysočina","country":"Czechia","latitude":49.6545783,"longitude":16.0746745,"population":43}, 
{"name":"Blatná","state":"Jihočeský","country":"Czechia","latitude":49.423916,"longitude":13.8736062,"population":21}, 
{"name":"Blatná","state":"Jihočeský","country":"Czechia","latitude":49.423916,"longitude":13.8736062,"population":6217}, 
{"name":"Blatnice","state":"Vysočina","country":"Czechia","latitude":49.0602778,"longitude":15.8692461,"population":50}, 
{"name":"Blatnice","state":"Plzeňský","country":"Czechia","latitude":49.7197138,"longitude":13.1559861,"population":780}, 
{"name":"Blatnice","state":"Jihočeský","country":"Czechia","latitude":49.5127253,"longitude":14.899157,"population":12}, 
{"name":"Blatnice","state":"Vysočina","country":"Czechia","latitude":49.0602778,"longitude":15.8692461,"population":352}, 
{"name":"Blatnice pod Svatým Antonínkem","state":"Jihomoravský","country":"Czechia","latitude":48.9450945,"longitude":17.4706486,"population":2014}, 
{"name":"Blatnička","state":"Jihomoravský","country":"Czechia","latitude":48.9393868,"longitude":17.5291436,"population":428}, 
{"name":"Blatno","state":"Ústecký","country":"Czechia","latitude":50.0970153,"longitude":13.3895428,"population":203}, 
{"name":"Blatno","state":"Pardubický","country":"Czechia","latitude":49.7597268,"longitude":15.9233236,"population":609}, 
{"name":"Blatno","state":"Ústecký","country":"Czechia","latitude":50.0970153,"longitude":13.3895428,"population":405}, 
{"name":"Blato","state":"Jihočeský","country":"Czechia","latitude":49.0400711,"longitude":15.1685659,"population":36}, 
{"name":"Blato","state":"Pardubický","country":"Czechia","latitude":49.9898588,"longitude":15.7653078,"population":269}, 
{"name":"Bláto","state":"Středočeský","country":"Czechia","latitude":49.8911962,"longitude":15.0292609,"population":48}, 
{"name":"Blažejov","state":"Jihočeský","country":"Czechia","latitude":49.1394868,"longitude":15.0971766,"population":251}, 
{"name":"Blažejovice","state":"Středočeský","country":"Czechia","latitude":49.6225008,"longitude":15.2011404,"population":87}, 
{"name":"Blažejovice","state":"Jihočeský","country":"Czechia","latitude":48.9529498,"longitude":13.9500929,"population":84}, 
{"name":"Blažejovice","state":"Vysočina","country":"Czechia","latitude":49.5151641,"longitude":16.2020206,"population":48}, 
{"name":"Blaženice","state":"Středočeský","country":"Czechia","latitude":49.7867707,"longitude":14.4466199,"population":72}, 
{"name":"Blazice","state":"Zlínský","country":"Czechia","latitude":49.4405022,"longitude":17.6440882,"population":197}, 
{"name":"Blažim","state":"Středočeský","country":"Czechia","latitude":49.7618819,"longitude":14.453319,"population":54}, 
{"name":"Blažim","state":"Ústecký","country":"Czechia","latitude":50.4052711,"longitude":13.626943,"population":254}, 
{"name":"Blažim","state":"Plzeňský","country":"Czechia","latitude":49.9159143,"longitude":13.0476118,"population":57}, 
{"name":"Blažkov","state":"Jihočeský","country":"Czechia","latitude":48.7410311,"longitude":14.4498922,"population":36}, 
{"name":"Blažkov","state":"Královéhradecký","country":"Czechia","latitude":50.3459505,"longitude":16.1893382,"population":43}, 
{"name":"Blažkov","state":"Vysočina","country":"Czechia","latitude":49.4739802,"longitude":16.1910495,"population":179}, 
{"name":"Blažnov","state":"Vysočina","country":"Czechia","latitude":49.5769691,"longitude":15.0525507,"population":6}, 
{"name":"Blažov","state":"Olomoucký","country":"Czechia","latitude":49.6801653,"longitude":16.8841714,"population":38}, 
{"name":"Blažovice","state":"Jihomoravský","country":"Czechia","latitude":49.1597421,"longitude":16.7857835,"population":1119}, 
{"name":"Blehov","state":"Jihočeský","country":"Czechia","latitude":49.4868296,"longitude":14.3864201,"population":54}, 
{"name":"Blešno","state":"Královéhradecký","country":"Czechia","latitude":50.2172426,"longitude":15.9312329,"population":350}, 
{"name":"Blešno","state":"Ústecký","country":"Czechia","latitude":50.4812468,"longitude":13.9035841,"population":5}, 
{"name":"Blevice","state":"Středočeský","country":"Czechia","latitude":50.2117455,"longitude":14.2365112,"population":285}, 
{"name":"Blinka","state":"Středočeský","country":"Czechia","latitude":50.0425921,"longitude":15.0578018,"population":44}, 
{"name":"Blišice","state":"Zlínský","country":"Czechia","latitude":49.1258779,"longitude":17.161291,"population":205}, 
{"name":"Bližanovy","state":"Plzeňský","country":"Czechia","latitude":49.4234841,"longitude":13.4954282,"population":103}, 
{"name":"Blížejov","state":"Plzeňský","country":"Czechia","latitude":49.5037827,"longitude":12.9861953,"population":975}, 
{"name":"Blíževedly","state":"Liberecký","country":"Czechia","latitude":50.6049855,"longitude":14.401948,"population":449}, 
{"name":"Blízkov","state":"Vysočina","country":"Czechia","latitude":49.4039506,"longitude":15.9164029,"population":224}, 
{"name":"Blížkovice","state":"Jihomoravský","country":"Czechia","latitude":49.0000208,"longitude":15.8352074,"population":1185}, 
{"name":"Bližná","state":"Jihočeský","country":"Czechia","latitude":48.7220289,"longitude":14.0965966,"population":140}, 
{"name":"Blížňovice","state":"Pardubický","country":"Czechia","latitude":49.9587177,"longitude":15.9469871,"population":70}, 
{"name":"Bližší Lhota","state":"Jihočeský","country":"Czechia","latitude":48.7564434,"longitude":14.0125548,"population":42}, 
{"name":"Blov","state":"Ústecký","country":"Czechia","latitude":50.3255177,"longitude":13.295685,"population":59}, 
{"name":"Blovice","state":"Plzeňský","country":"Czechia","latitude":49.5946146,"longitude":13.5402203,"population":3262}, 
{"name":"Blšany","state":"Ústecký","country":"Czechia","latitude":50.2219193,"longitude":13.4731173,"population":420}, 
{"name":"Blšany u Loun","state":"Ústecký","country":"Czechia","latitude":50.3472417,"longitude":13.8534338,"population":239}, 
{"name":"Blučina","state":"Jihomoravský","country":"Czechia","latitude":49.0509873,"longitude":16.6545525,"population":2215}, 
{"name":"Bludná","state":"Karlovarský","country":"Czechia","latitude":50.3998315,"longitude":12.8139315,"population":0}, 
{"name":"Bludov","state":"Středočeský","country":"Czechia","latitude":49.8074908,"longitude":15.2551815,"population":25}, 
{"name":"Bludov","state":"Olomoucký","country":"Czechia","latitude":49.941051,"longitude":16.9239537,"population":3068}, 
{"name":"Bludovice","state":"Moravskoslezský","country":"Czechia","latitude":49.7709579,"longitude":18.4582165,"population":2622}, 
{"name":"Bludovice","state":"Moravskoslezský","country":"Czechia","latitude":49.7709579,"longitude":18.4582165,"population":379}, 
{"name":"Bobnice","state":"Středočeský","country":"Czechia","latitude":50.226111,"longitude":15.0544208,"population":647}, 
{"name":"Bobov","state":"Liberecký","country":"Czechia","latitude":50.6566918,"longitude":15.1841896,"population":17}, 
{"name":"Bobr","state":"Královéhradecký","country":"Czechia","latitude":50.671054,"longitude":15.8976982,"population":230}, 
{"name":"Bobrová","state":"Vysočina","country":"Czechia","latitude":49.4755967,"longitude":16.1184781,"population":879}, 
{"name":"Bobrovník","state":"Olomoucký","country":"Czechia","latitude":50.2215543,"longitude":17.1674333,"population":17}, 
{"name":"Bobrovníky","state":"Moravskoslezský","country":"Czechia","latitude":49.8677466,"longitude":18.2054087,"population":1336}, 
{"name":"Bobrůvka","state":"Vysočina","country":"Czechia","latitude":49.4530327,"longitude":16.0931515,"population":240}, 
{"name":"Boč","state":"Karlovarský","country":"Czechia","latitude":50.3614378,"longitude":13.0788788,"population":70}, 
{"name":"Bocanovice","state":"Moravskoslezský","country":"Czechia","latitude":49.5643803,"longitude":18.7272465,"population":426}, 
{"name":"Bochoř","state":"Olomoucký","country":"Czechia","latitude":49.4194893,"longitude":17.4066984,"population":977}, 
{"name":"Bochov","state":"Karlovarský","country":"Czechia","latitude":50.1481922,"longitude":13.0378204,"population":1226}, 
{"name":"Bochovice","state":"Vysočina","country":"Czechia","latitude":49.3214204,"longitude":15.893621,"population":95}, 
{"name":"Boháňka","state":"Královéhradecký","country":"Czechia","latitude":50.3647347,"longitude":15.6959203,"population":44}, 
{"name":"Boharyně","state":"Královéhradecký","country":"Czechia","latitude":50.2038134,"longitude":15.6277398,"population":211}, 
{"name":"Bohaté Málkovice","state":"Jihomoravský","country":"Czechia","latitude":49.1879743,"longitude":17.0078277,"population":251}, 
{"name":"Bohatice","state":"Liberecký","country":"Czechia","latitude":50.6688538,"longitude":14.6791104,"population":189}, 
{"name":"Bohatice","state":"Karlovarský","country":"Czechia","latitude":50.2426526,"longitude":12.8793687,"population":2306}, 
{"name":"Bohdalec","state":"Vysočina","country":"Czechia","latitude":49.4736096,"longitude":16.0484518,"population":280}, 
{"name":"Bohdalice","state":"Jihomoravský","country":"Czechia","latitude":49.2206324,"longitude":17.0316125,"population":473}, 
{"name":"Bohdalín","state":"Vysočina","country":"Czechia","latitude":49.3123499,"longitude":15.0152569,"population":190}, 
{"name":"Bohdalov","state":"Pardubický","country":"Czechia","latitude":49.7459851,"longitude":16.7814706,"population":53}, 
{"name":"Bohdalov","state":"Vysočina","country":"Czechia","latitude":49.4789664,"longitude":15.8760777,"population":910}, 
{"name":"Bohdalovice","state":"Jihočeský","country":"Czechia","latitude":48.7427803,"longitude":14.2866308,"population":129}, 
{"name":"Bohdalovice","state":"Liberecký","country":"Czechia","latitude":50.7207364,"longitude":15.3320809,"population":158}, 
{"name":"Bohdaneč","state":"Středočeský","country":"Czechia","latitude":49.7785374,"longitude":15.2226288,"population":283}, 
{"name":"Bohdánkov","state":"Liberecký","country":"Czechia","latitude":50.681608,"longitude":15.0526582,"population":52}, 
{"name":"Bohdanovice","state":"Moravskoslezský","country":"Czechia","latitude":49.9022532,"longitude":17.6257359,"population":222}, 
{"name":"Bohdašice","state":"Plzeňský","country":"Czechia","latitude":49.1762545,"longitude":13.5203495,"population":57}, 
{"name":"Bohdašín","state":"Královéhradecký","country":"Czechia","latitude":50.5968169,"longitude":16.2094191,"population":230}, 
{"name":"Bohdašín","state":"Královéhradecký","country":"Czechia","latitude":50.5968169,"longitude":16.2094191,"population":100}, 
{"name":"Bohdašín","state":"Královéhradecký","country":"Czechia","latitude":50.5968169,"longitude":16.2094191,"population":201}, 
{"name":"Bohdíkov","state":"Olomoucký","country":"Czechia","latitude":50.0099611,"longitude":16.9043329,"population":772}, 
{"name":"Bohostice","state":"Středočeský","country":"Czechia","latitude":49.603325,"longitude":14.1423791,"population":191}, 
{"name":"Bohosudov","state":"Ústecký","country":"Czechia","latitude":50.6799613,"longitude":13.8756317,"population":4014}, 
{"name":"Bohouňovice I","state":"Středočeský","country":"Czechia","latitude":49.9776065,"longitude":15.1811639,"population":144}, 
{"name":"Bohouňovice II","state":"Středočeský","country":"Czechia","latitude":49.9150688,"longitude":14.9777024,"population":86}, 
{"name":"Bohouškovice","state":"Jihočeský","country":"Czechia","latitude":48.9236068,"longitude":14.3140091,"population":39}, 
{"name":"Bohousová","state":"Pardubický","country":"Czechia","latitude":50.0836569,"longitude":16.3957455,"population":161}, 
{"name":"Bohučovice","state":"Moravskoslezský","country":"Czechia","latitude":49.8629226,"longitude":17.9037018,"population":313}, 
{"name":"Bohuliby","state":"Středočeský","country":"Czechia","latitude":49.8827285,"longitude":14.4588115,"population":62}, 
{"name":"Bohumileč","state":"Liberecký","country":"Czechia","latitude":50.6376025,"longitude":14.9835036,"population":29}, 
{"name":"Bohumileč","state":"Pardubický","country":"Czechia","latitude":50.100411,"longitude":15.8497557,"population":156}, 
{"name":"Bohumilice","state":"Jihomoravský","country":"Czechia","latitude":49.0158455,"longitude":16.8923007,"population":228}, 
{"name":"Bohumilice","state":"Vysočina","country":"Czechia","latitude":49.6930983,"longitude":15.253773,"population":160}, 
{"name":"Bohumilice","state":"Jihočeský","country":"Czechia","latitude":49.0960729,"longitude":13.8163394,"population":321}, 
{"name":"Bohunice","state":"Jihočeský","country":"Czechia","latitude":49.2113251,"longitude":14.3798753,"population":163}, 
{"name":"Bohunice","state":"Jihočeský","country":"Czechia","latitude":49.2113251,"longitude":14.3798753,"population":51}, 
{"name":"Bohuňov","state":"Pardubický","country":"Czechia","latitude":49.5990987,"longitude":16.4638495,"population":161}, 
{"name":"Bohuňov","state":"Vysočina","country":"Czechia","latitude":49.5626213,"longitude":16.2017114,"population":201}, 
{"name":"Bohuňovice","state":"Olomoucký","country":"Czechia","latitude":49.6779547,"longitude":17.2919649,"population":2507}, 
{"name":"Bohuňovice","state":"Pardubický","country":"Czechia","latitude":49.9078836,"longitude":16.2628593,"population":113}, 
{"name":"Bohuňovsko","state":"Liberecký","country":"Czechia","latitude":50.6527441,"longitude":15.3280945,"population":16}, 
{"name":"Bohušice","state":"Vysočina","country":"Czechia","latitude":49.0849005,"longitude":15.8486826,"population":129}, 
{"name":"Bohuslav","state":"Karlovarský","country":"Czechia","latitude":50.0330282,"longitude":12.8050712,"population":11}, 
{"name":"Bohuslav","state":"Liberecký","country":"Czechia","latitude":50.5221124,"longitude":15.2044429,"population":10}, 
{"name":"Bohuslavice","state":"Jihomoravský","country":"Czechia","latitude":49.0504233,"longitude":17.1223383,"population":646}, 
{"name":"Bohuslavice","state":"Vysočina","country":"Czechia","latitude":49.151561,"longitude":15.5801156,"population":132}, 
{"name":"Bohuslavice","state":"Královéhradecký","country":"Czechia","latitude":50.3125838,"longitude":16.0882609,"population":1000}, 
{"name":"Bohuslavice","state":"Moravskoslezský","country":"Czechia","latitude":49.9423182,"longitude":18.1286573,"population":1621}, 
{"name":"Bohuslavice","state":"Olomoucký","country":"Czechia","latitude":49.6209624,"longitude":16.9546122,"population":456}, 
{"name":"Bohuslavice","state":"Olomoucký","country":"Czechia","latitude":49.6209624,"longitude":16.9546122,"population":501}, 
{"name":"Bohuslavice","state":"Královéhradecký","country":"Czechia","latitude":50.3125838,"longitude":16.0882609,"population":111}, 
{"name":"Bohuslavice nad Vláří","state":"Zlínský","country":"Czechia","latitude":49.0886722,"longitude":17.9379219,"population":394}, 
{"name":"Bohuslavice u Zlína","state":"Zlínský","country":"Czechia","latitude":49.1658093,"longitude":17.6445953,"population":776}, 
{"name":"Bohuslávky","state":"Olomoucký","country":"Czechia","latitude":49.556145,"longitude":17.5691537,"population":338}, 
{"name":"Bohusoudov","state":"Vysočina","country":"Czechia","latitude":49.1071532,"longitude":15.5740228,"population":8}, 
{"name":"Bohušov","state":"Moravskoslezský","country":"Czechia","latitude":50.2403233,"longitude":17.7091351,"population":239}, 
{"name":"Bohušov","state":"Plzeňský","country":"Czechia","latitude":49.5787495,"longitude":13.5474416,"population":52}, 
{"name":"Bohušovice nad Ohří","state":"Ústecký","country":"Czechia","latitude":50.4939076,"longitude":14.1349896,"population":2175}, 
{"name":"Bohutice","state":"Jihomoravský","country":"Czechia","latitude":48.9899726,"longitude":16.3506201,"population":607}, 
{"name":"Bohutín","state":"Vysočina","country":"Czechia","latitude":49.3749602,"longitude":15.0192446,"population":9}, 
{"name":"Bohutín","state":"Středočeský","country":"Czechia","latitude":49.6572327,"longitude":13.9384718,"population":480}, 
{"name":"Bohutín","state":"Olomoucký","country":"Czechia","latitude":49.9535082,"longitude":16.8814907,"population":761}, 
{"name":"Bohy","state":"Plzeňský","country":"Czechia","latitude":49.9386064,"longitude":13.5759856,"population":78}, 
{"name":"Bojanov","state":"Pardubický","country":"Czechia","latitude":49.8418571,"longitude":15.7137585,"population":256}, 
{"name":"Bojanov","state":"Vysočina","country":"Czechia","latitude":49.3951126,"longitude":16.1593639,"population":22}, 
{"name":"Bojanovice","state":"Plzeňský","country":"Czechia","latitude":49.2936268,"longitude":13.6374347,"population":66}, 
{"name":"Bojanovice","state":"Zlínský","country":"Czechia","latitude":49.3096957,"longitude":17.3122833,"population":144}, 
{"name":"Bojanovice","state":"Středočeský","country":"Czechia","latitude":49.8529228,"longitude":14.355711,"population":277}, 
{"name":"Bojanovice","state":"Jihomoravský","country":"Czechia","latitude":48.9681586,"longitude":15.9890574,"population":183}, 
{"name":"Boječnice","state":"Plzeňský","country":"Czechia","latitude":49.6898171,"longitude":12.8105915,"population":53}, 
{"name":"Bojenice","state":"Jihočeský","country":"Czechia","latitude":49.3648954,"longitude":14.3605228,"population":67}, 
{"name":"Boješice","state":"Jihočeský","country":"Czechia","latitude":49.5373732,"longitude":14.0425356,"population":43}, 
{"name":"Bojetice","state":"Středočeský","country":"Czechia","latitude":50.3853127,"longitude":14.9608036,"population":233}, 
{"name":"Bojiště","state":"Vysočina","country":"Czechia","latitude":49.6676876,"longitude":15.279472,"population":153}, 
{"name":"Bojiště","state":"Středočeský","country":"Czechia","latitude":49.970537,"longitude":15.2013313,"population":106}, 
{"name":"Bojiště","state":"Královéhradecký","country":"Czechia","latitude":50.5456479,"longitude":15.9117403,"population":280}, 
{"name":"Bojkovice","state":"Zlínský","country":"Czechia","latitude":49.0406448,"longitude":17.8115824,"population":3675}, 
{"name":"Bojmany","state":"Středočeský","country":"Czechia","latitude":49.9590664,"longitude":15.4398245,"population":78}, 
{"name":"Bojov","state":"Středočeský","country":"Czechia","latitude":49.8703775,"longitude":14.3480877,"population":303}, 
{"name":"Bolatice","state":"Moravskoslezský","country":"Czechia","latitude":49.9537424,"longitude":18.0891586,"population":3665}, 
{"name":"Boleboř","state":"Ústecký","country":"Czechia","latitude":50.5376597,"longitude":13.4144841,"population":172}, 
{"name":"Bolechov","state":"Vysočina","country":"Czechia","latitude":49.5393322,"longitude":15.20782,"population":24}, 
{"name":"Bolechovice","state":"Středočeský","country":"Czechia","latitude":49.6112582,"longitude":14.5001089,"population":52}, 
{"name":"Bolehošť","state":"Královéhradecký","country":"Czechia","latitude":50.2083315,"longitude":16.0847942,"population":328}, 
{"name":"Bolehošťská Lhota","state":"Královéhradecký","country":"Czechia","latitude":50.2063157,"longitude":16.0847371,"population":123}, 
{"name":"Bolelouc","state":"Olomoucký","country":"Czechia","latitude":49.4946543,"longitude":17.2713194,"population":430}, 
{"name":"Boleradice","state":"Jihomoravský","country":"Czechia","latitude":48.9663527,"longitude":16.8132792,"population":860}, 
{"name":"Bolešín","state":"Středočeský","country":"Czechia","latitude":49.5567251,"longitude":14.514121,"population":11}, 
{"name":"Bolešín","state":"Vysočina","country":"Czechia","latitude":49.5464404,"longitude":16.3595245,"population":86}, 
{"name":"Bolešiny","state":"Plzeňský","country":"Czechia","latitude":49.4074249,"longitude":13.3597695,"population":435}, 
{"name":"Boleslav","state":"Liberecký","country":"Czechia","latitude":51.0023929,"longitude":15.0266347,"population":78}, 
{"name":"Boletice","state":"Jihočeský","country":"Czechia","latitude":48.8373156,"longitude":14.1957786,"population":11}, 
{"name":"Boletice","state":"Jihočeský","country":"Czechia","latitude":48.8373156,"longitude":14.1957786,"population":66}, 
{"name":"Bolíkovice","state":"Jihočeský","country":"Czechia","latitude":49.089563,"longitude":13.9002476,"population":30}, 
{"name":"Bolíkovice","state":"Vysočina","country":"Czechia","latitude":49.1420067,"longitude":15.7543679,"population":46}, 
{"name":"Bolina","state":"Středočeský","country":"Czechia","latitude":49.6800407,"longitude":14.9424035,"population":356}, 
{"name":"Bolkov","state":"Plzeňský","country":"Czechia","latitude":49.5335645,"longitude":13.2238651,"population":61}, 
{"name":"Boněnov","state":"Plzeňský","country":"Czechia","latitude":49.9129334,"longitude":12.8114241,"population":67}, 
{"name":"Bonětice","state":"Plzeňský","country":"Czechia","latitude":49.6667804,"longitude":12.8151892,"population":40}, 
{"name":"Bonětičky","state":"Plzeňský","country":"Czechia","latitude":49.6663786,"longitude":12.8392273,"population":28}, 
{"name":"Boňkov","state":"Vysočina","country":"Czechia","latitude":49.5469545,"longitude":15.4435129,"population":66}, 
{"name":"Boňkov","state":"Olomoucký","country":"Czechia","latitude":49.6060818,"longitude":17.6819978,"population":33}, 
{"name":"Bonkovice","state":"Středočeský","country":"Czechia","latitude":49.5336674,"longitude":14.5939986,"population":22}, 
{"name":"Boňov","state":"Vysočina","country":"Czechia","latitude":49.1185013,"longitude":15.9268919,"population":90}, 
{"name":"Bor","state":"Jihočeský","country":"Czechia","latitude":48.8941047,"longitude":14.806252,"population":33}, 
{"name":"Bor","state":"Jihočeský","country":"Czechia","latitude":48.8941047,"longitude":14.806252,"population":61}, 
{"name":"Bor","state":"Karlovarský","country":"Czechia","latitude":50.2654799,"longitude":12.9360663,"population":273}, 
{"name":"Bor","state":"Středočeský","country":"Czechia","latitude":50.3387499,"longitude":15.1836805,"population":15}, 
{"name":"Bor","state":"Vysočina","country":"Czechia","latitude":49.43729,"longitude":16.2892371,"population":13}, 
{"name":"Bor","state":"Středočeský","country":"Czechia","latitude":50.3387499,"longitude":15.1836805,"population":60}, 
{"name":"Bor","state":"Středočeský","country":"Czechia","latitude":50.3387499,"longitude":15.1836805,"population":36}, 
{"name":"Bor","state":"Plzeňský","country":"Czechia","latitude":49.7117435,"longitude":12.7752132,"population":2646}, 
{"name":"Bor","state":"Vysočina","country":"Czechia","latitude":49.43729,"longitude":16.2892371,"population":46}, 
{"name":"Bor u Chroustovic","state":"Pardubický","country":"Czechia","latitude":49.9238141,"longitude":15.9912285,"population":123}, 
{"name":"Bor u Skutče","state":"Pardubický","country":"Czechia","latitude":49.8236905,"longitude":16.1284603,"population":148}, 
{"name":"Borač","state":"Jihomoravský","country":"Czechia","latitude":49.3995199,"longitude":16.355865,"population":253}, 
{"name":"Bořanovice","state":"Jihočeský","country":"Czechia","latitude":49.0775913,"longitude":13.8039256,"population":52}, 
{"name":"Bořanovice","state":"Středočeský","country":"Czechia","latitude":50.1813869,"longitude":14.4857741,"population":382}, 
{"name":"Boratkov","state":"Jihočeský","country":"Czechia","latitude":49.5155376,"longitude":14.5832067,"population":9}, 
{"name":"Borčice","state":"Jihočeský","country":"Czechia","latitude":49.1105597,"longitude":14.0329097,"population":8}, 
{"name":"Bordovice","state":"Moravskoslezský","country":"Czechia","latitude":49.5412946,"longitude":18.1602471,"population":559}, 
{"name":"Boreč","state":"Ústecký","country":"Czechia","latitude":50.5087543,"longitude":13.9888181,"population":24}, 
{"name":"Boreč","state":"Středočeský","country":"Czechia","latitude":50.4107436,"longitude":14.726829,"population":121}, 
{"name":"Boreček","state":"Liberecký","country":"Czechia","latitude":50.6392166,"longitude":14.7110359,"population":72}, 
{"name":"Borečnice","state":"Jihočeský","country":"Czechia","latitude":49.3668051,"longitude":14.1350919,"population":53}, 
{"name":"Bořejov","state":"Liberecký","country":"Czechia","latitude":50.5094714,"longitude":14.6188593,"population":12}, 
{"name":"Borek","state":"Středočeský","country":"Czechia","latitude":49.8790348,"longitude":14.505013,"population":11}, 
{"name":"Borek","state":"Liberecký","country":"Czechia","latitude":50.537216,"longitude":15.2311086,"population":35}, 
{"name":"Borek","state":"Jihočeský","country":"Czechia","latitude":49.075439,"longitude":15.461395,"population":1395}, 
{"name":"Borek","state":"Pardubický","country":"Czechia","latitude":50.1328281,"longitude":15.8552072,"population":2}, 
{"name":"Borek","state":"Ústecký","country":"Czechia","latitude":50.7194693,"longitude":14.173588,"population":27}, 
{"name":"Borek","state":"Vysočina","country":"Czechia","latitude":49.7918143,"longitude":15.5899787,"population":39}, 
{"name":"Borek","state":"Liberecký","country":"Czechia","latitude":50.537216,"longitude":15.2311086,"population":11}, 
{"name":"Borek","state":"Královéhradecký","country":"Czechia","latitude":50.1434739,"longitude":16.0574746,"population":39}, 
{"name":"Borek","state":"Jihočeský","country":"Czechia","latitude":49.075439,"longitude":15.461395,"population":124}, 
{"name":"Borek","state":"Karlovarský","country":"Czechia","latitude":50.0547944,"longitude":13.1439602,"population":24}, 
{"name":"Borek","state":"Středočeský","country":"Czechia","latitude":49.8790348,"longitude":14.505013,"population":33}, 
{"name":"Borek","state":"Středočeský","country":"Czechia","latitude":49.8790348,"longitude":14.505013,"population":37}, 
{"name":"Borek","state":"Pardubický","country":"Czechia","latitude":50.1328281,"longitude":15.8552072,"population":248}, 
{"name":"Borek","state":"Plzeňský","country":"Czechia","latitude":49.9184346,"longitude":13.5174402,"population":39}, 
{"name":"Borek","state":"Středočeský","country":"Czechia","latitude":49.8790348,"longitude":14.505013,"population":310}, 
{"name":"Borek","state":"Středočeský","country":"Czechia","latitude":49.8790348,"longitude":14.505013,"population":172}, 
{"name":"Borek","state":"Plzeňský","country":"Czechia","latitude":49.9184346,"longitude":13.5174402,"population":387}, 
{"name":"Borek","state":"Liberecký","country":"Czechia","latitude":50.537216,"longitude":15.2311086,"population":28}, 
{"name":"Borek","state":"Jihočeský","country":"Czechia","latitude":49.075439,"longitude":15.461395,"population":6}, 
{"name":"Borek","state":"Plzeňský","country":"Czechia","latitude":49.9184346,"longitude":13.5174402,"population":42}, 
{"name":"Bořená Hora","state":"Středočeský","country":"Czechia","latitude":49.6616097,"longitude":14.506918,"population":21}, 
{"name":"Bořenovice","state":"Zlínský","country":"Czechia","latitude":49.3592263,"longitude":17.564849,"population":177}, 
{"name":"Bořeňovice","state":"Středočeský","country":"Czechia","latitude":49.7654016,"longitude":14.796003,"population":90}, 
{"name":"Bořetice","state":"Středočeský","country":"Czechia","latitude":49.6119605,"longitude":14.7083846,"population":22}, 
{"name":"Bořetice","state":"Jihomoravský","country":"Czechia","latitude":48.9130249,"longitude":16.8530627,"population":1289}, 
{"name":"Bořetice","state":"Středočeský","country":"Czechia","latitude":49.6119605,"longitude":14.7083846,"population":60}, 
{"name":"Bořetice","state":"Vysočina","country":"Czechia","latitude":49.4869122,"longitude":15.1003392,"population":68}, 
{"name":"Bořetín","state":"Liberecký","country":"Czechia","latitude":50.6692722,"longitude":14.4734751,"population":27}, 
{"name":"Bořetín","state":"Jihočeský","country":"Czechia","latitude":49.1892185,"longitude":15.2118389,"population":99}, 
{"name":"Bořetín","state":"Vysočina","country":"Czechia","latitude":49.3156114,"longitude":14.9441291,"population":101}, 
{"name":"Bořice","state":"Pardubický","country":"Czechia","latitude":49.9766916,"longitude":15.9255142,"population":187}, 
{"name":"Bořice","state":"Plzeňský","country":"Czechia","latitude":49.4283989,"longitude":12.972462,"population":180}, 
{"name":"Bořice","state":"Jihočeský","country":"Czechia","latitude":49.4025027,"longitude":14.0181959,"population":24}, 
{"name":"Boříkovy","state":"Plzeňský","country":"Czechia","latitude":49.3270122,"longitude":13.3904962,"population":35}, 
{"name":"Bořislav","state":"Ústecký","country":"Czechia","latitude":50.5826532,"longitude":13.9371894,"population":326}, 
{"name":"Bořitov","state":"Jihomoravský","country":"Czechia","latitude":49.4333791,"longitude":16.5897085,"population":1273}, 
{"name":"Bořitov","state":"Pardubický","country":"Czechia","latitude":50.0600845,"longitude":16.5860645,"population":61}, 
{"name":"Bořkov","state":"Liberecký","country":"Czechia","latitude":50.5911592,"longitude":15.3538515,"population":198}, 
{"name":"Borkovany","state":"Jihomoravský","country":"Czechia","latitude":49.0324258,"longitude":16.824022,"population":749}, 
{"name":"Borkovice","state":"Jihočeský","country":"Czechia","latitude":49.2186233,"longitude":14.6464203,"population":232}, 
{"name":"Bořkovice","state":"Středočeský","country":"Czechia","latitude":49.6121396,"longitude":14.8008869,"population":20}, 
{"name":"Borohrádek","state":"Královéhradecký","country":"Czechia","latitude":50.1010844,"longitude":16.0975155,"population":2032}, 
{"name":"Borotice","state":"Středočeský","country":"Czechia","latitude":49.7448153,"longitude":14.2678135,"population":121}, 
{"name":"Borotice","state":"Jihomoravský","country":"Czechia","latitude":48.8572905,"longitude":16.2426085,"population":398}, 
{"name":"Borotín","state":"Jihomoravský","country":"Czechia","latitude":49.5813049,"longitude":16.6714605,"population":407}, 
{"name":"Borotín","state":"Jihočeský","country":"Czechia","latitude":49.5047496,"longitude":14.6128216,"population":426}, 
{"name":"Borová","state":"Jihočeský","country":"Czechia","latitude":48.8783655,"longitude":14.2146573,"population":82}, 
{"name":"Borová","state":"Jihočeský","country":"Czechia","latitude":48.8783655,"longitude":14.2146573,"population":26}, 
{"name":"Borová","state":"Středočeský","country":"Czechia","latitude":49.7979774,"longitude":15.1821119,"population":25}, 
{"name":"Borová","state":"Královéhradecký","country":"Czechia","latitude":50.3844766,"longitude":16.2536447,"population":196}, 
{"name":"Borová","state":"Moravskoslezský","country":"Czechia","latitude":49.9584904,"longitude":18.1039503,"population":676}, 
{"name":"Borová","state":"Pardubický","country":"Czechia","latitude":49.9290104,"longitude":16.2749243,"population":968}, 
{"name":"Borová","state":"Pardubický","country":"Czechia","latitude":49.9290104,"longitude":16.2749243,"population":30}, 
{"name":"Borová Lada","state":"Jihočeský","country":"Czechia","latitude":48.9892103,"longitude":13.6438331,"population":228}, 
{"name":"Borová Lhota","state":"Středočeský","country":"Czechia","latitude":49.856836,"longitude":14.6781771,"population":78}, 
{"name":"Borovany","state":"Jihočeský","country":"Czechia","latitude":48.8952192,"longitude":14.6406743,"population":2837}, 
{"name":"Borovany","state":"Jihočeský","country":"Czechia","latitude":48.8952192,"longitude":14.6406743,"population":201}, 
{"name":"Borovany","state":"Plzeňský","country":"Czechia","latitude":49.6937149,"longitude":12.8516548,"population":58}, 
{"name":"Borovice","state":"Plzeňský","country":"Czechia","latitude":49.5676814,"longitude":12.9424908,"population":44}, 
{"name":"Borovice","state":"Královéhradecký","country":"Czechia","latitude":50.2450439,"longitude":15.9814121,"population":16}, 
{"name":"Borovice","state":"Středočeský","country":"Czechia","latitude":50.5588255,"longitude":14.9244438,"population":57}, 
{"name":"Borovina","state":"Vysočina","country":"Czechia","latitude":49.2058011,"longitude":15.8558525,"population":5003}, 
{"name":"Borovka","state":"Středočeský","country":"Czechia","latitude":49.7736514,"longitude":14.5288034,"population":57}, 
{"name":"Borovná","state":"Vysočina","country":"Czechia","latitude":49.1667974,"longitude":15.3938345,"population":71}, 
{"name":"Borovnice","state":"Středočeský","country":"Czechia","latitude":49.6490602,"longitude":15.01623,"population":74}, 
{"name":"Borovnice","state":"Jihočeský","country":"Czechia","latitude":48.9120577,"longitude":14.519014,"population":110}, 
{"name":"Borovnice","state":"Královéhradecký","country":"Czechia","latitude":50.5091569,"longitude":15.6171877,"population":151}, 
{"name":"Borovnice","state":"Královéhradecký","country":"Czechia","latitude":50.5091569,"longitude":15.6171877,"population":378}, 
{"name":"Borovnice","state":"Vysočina","country":"Czechia","latitude":49.6672289,"longitude":16.2025492,"population":173}, 
{"name":"Borovnička","state":"Královéhradecký","country":"Czechia","latitude":50.5017623,"longitude":15.669873,"population":178}, 
{"name":"Borovník","state":"Jihomoravský","country":"Czechia","latitude":49.3584773,"longitude":16.2330655,"population":92}, 
{"name":"Borovno","state":"Plzeňský","country":"Czechia","latitude":49.6199723,"longitude":13.6997451,"population":92}, 
{"name":"Borovsko","state":"Středočeský","country":"Czechia","latitude":49.6935764,"longitude":15.1172435,"population":2}, 
{"name":"Borovy","state":"Plzeňský","country":"Czechia","latitude":49.5232565,"longitude":13.3028276,"population":222}, 
{"name":"Boršice","state":"Zlínský","country":"Czechia","latitude":49.0625776,"longitude":17.3510075,"population":2182}, 
{"name":"Boršice u Blatnice","state":"Zlínský","country":"Czechia","latitude":48.9325494,"longitude":17.5702841,"population":823}, 
{"name":"Boršíkov","state":"Jihočeský","country":"Czechia","latitude":48.8179988,"longitude":14.6344547,"population":39}, 
{"name":"Boršov","state":"Jihomoravský","country":"Czechia","latitude":49.0252984,"longitude":17.1221106,"population":683}, 
{"name":"Boršov","state":"Vysočina","country":"Czechia","latitude":49.3965943,"longitude":15.4340484,"population":158}, 
{"name":"Boršov","state":"Pardubický","country":"Czechia","latitude":49.744583,"longitude":16.6340688,"population":751}, 
{"name":"Boršov nad Vltavou","state":"Jihočeský","country":"Czechia","latitude":48.9283803,"longitude":14.4355696,"population":880}, 
{"name":"Borušov","state":"Pardubický","country":"Czechia","latitude":49.7754576,"longitude":16.7393287,"population":155}, 
{"name":"Boseň","state":"Středočeský","country":"Czechia","latitude":50.505414,"longitude":15.0290054,"population":311}, 
{"name":"Bošice","state":"Středočeský","country":"Czechia","latitude":50.0156498,"longitude":15.0324593,"population":126}, 
{"name":"Bošice","state":"Jihočeský","country":"Czechia","latitude":49.0826433,"longitude":13.8413113,"population":111}, 
{"name":"Bošilec","state":"Jihočeský","country":"Czechia","latitude":49.1497746,"longitude":14.6528585,"population":191}, 
{"name":"Bošín","state":"Středočeský","country":"Czechia","latitude":50.2771263,"longitude":15.1170868,"population":63}, 
{"name":"Bošín","state":"Pardubický","country":"Czechia","latitude":50.0341346,"longitude":16.2029638,"population":89}, 
{"name":"Boškov","state":"Olomoucký","country":"Czechia","latitude":49.6217896,"longitude":17.6168459,"population":73}, 
{"name":"Boskovice","state":"Jihomoravský","country":"Czechia","latitude":49.4965318,"longitude":16.6634667,"population":10711}, 
{"name":"Boskovštejn","state":"Jihomoravský","country":"Czechia","latitude":48.9746575,"longitude":15.9312552,"population":144}, 
{"name":"Boškůvky","state":"Jihomoravský","country":"Czechia","latitude":49.2539149,"longitude":17.071062,"population":67}, 
{"name":"Bošov","state":"Pardubický","country":"Czechia","latitude":49.8516335,"longitude":15.8736759,"population":121}, 
{"name":"Bošov","state":"Karlovarský","country":"Czechia","latitude":50.1353673,"longitude":13.2317143,"population":35}, 
{"name":"Bošovice","state":"Jihočeský","country":"Czechia","latitude":49.3499234,"longitude":14.0780793,"population":82}, 
{"name":"Bošovice","state":"Jihomoravský","country":"Czechia","latitude":49.0577245,"longitude":16.8475205,"population":1161}, 
{"name":"Boštice","state":"Středočeský","country":"Czechia","latitude":49.8246642,"longitude":15.0652954,"population":3}, 
{"name":"Bosyně","state":"Středočeský","country":"Czechia","latitude":50.4148007,"longitude":14.5561353,"population":132}, 
{"name":"Boubín","state":"Plzeňský","country":"Czechia","latitude":49.3000204,"longitude":13.6954202,"population":105}, 
{"name":"Boubská","state":"Jihočeský","country":"Czechia","latitude":49.0683075,"longitude":13.7974468,"population":137}, 
{"name":"Boučí","state":"Karlovarský","country":"Czechia","latitude":50.2349351,"longitude":12.5868955,"population":35}, 
{"name":"Boudy","state":"Jihomoravský","country":"Czechia","latitude":49.3842207,"longitude":16.3128571,"population":6}, 
{"name":"Boudy","state":"Jihočeský","country":"Czechia","latitude":49.451178,"longitude":14.0297074,"population":191}, 
{"name":"Boudy","state":"Středočeský","country":"Czechia","latitude":49.5844299,"longitude":14.4794586,"population":44}, 
{"name":"Boušice","state":"Středočeský","country":"Czechia","latitude":49.7752393,"longitude":14.737919,"population":34}, 
{"name":"Bousín","state":"Olomoucký","country":"Czechia","latitude":49.4573231,"longitude":16.8855064,"population":117}, 
{"name":"Bousov","state":"Pardubický","country":"Czechia","latitude":49.9035582,"longitude":15.5369157,"population":185}, 
{"name":"Bouzov","state":"Olomoucký","country":"Czechia","latitude":49.6964595,"longitude":16.8958354,"population":547}, 
{"name":"Božanov","state":"Královéhradecký","country":"Czechia","latitude":50.5219313,"longitude":16.357598,"population":340}, 
{"name":"Bozdíš","state":"Plzeňský","country":"Czechia","latitude":49.479041,"longitude":12.9027619,"population":9}, 
{"name":"Božec","state":"Středočeský","country":"Czechia","latitude":50.0747213,"longitude":15.3527749,"population":84}, 
{"name":"Božejov","state":"Jihočeský","country":"Czechia","latitude":48.7924345,"longitude":14.7002892,"population":13}, 
{"name":"Božejov","state":"Vysočina","country":"Czechia","latitude":49.3538281,"longitude":15.1557849,"population":615}, 
{"name":"Božejovice","state":"Jihočeský","country":"Czechia","latitude":49.4549991,"longitude":14.4841174,"population":191}, 
{"name":"Božetice","state":"Jihočeský","country":"Czechia","latitude":49.4505824,"longitude":14.4417332,"population":375}, 
{"name":"Božetín","state":"Karlovarský","country":"Czechia","latitude":50.2329913,"longitude":12.4349349,"population":32}, 
{"name":"Božetín","state":"Středočeský","country":"Czechia","latitude":49.5509936,"longitude":14.5726477,"population":13}, 
{"name":"Boží Dar","state":"Karlovarský","country":"Czechia","latitude":50.4126639,"longitude":12.9039022,"population":192}, 
{"name":"Boží Dar","state":"Středočeský","country":"Czechia","latitude":50.2420015,"longitude":14.9179824,"population":203}, 
{"name":"Božičany","state":"Karlovarský","country":"Czechia","latitude":50.2701889,"longitude":12.7585787,"population":593}, 
{"name":"Božice","state":"Jihomoravský","country":"Czechia","latitude":48.8386643,"longitude":16.3034898,"population":1525}, 
{"name":"Božíkov","state":"Liberecký","country":"Czechia","latitude":50.6686235,"longitude":14.6464016,"population":181}, 
{"name":"Bozkov","state":"Liberecký","country":"Czechia","latitude":50.637937,"longitude":15.3372917,"population":560}, 
{"name":"Božkov","state":"Středočeský","country":"Czechia","latitude":49.9286463,"longitude":14.7058874,"population":523}, 
{"name":"Božkovice","state":"Středočeský","country":"Czechia","latitude":49.698877,"longitude":14.6337245,"population":56}, 
{"name":"Božkovy","state":"Plzeňský","country":"Czechia","latitude":49.4647476,"longitude":13.0143756,"population":29}, 
{"name":"Božtěšice","state":"Plzeňský","country":"Czechia","latitude":49.2851913,"longitude":13.2639661,"population":16}, 
{"name":"Brada","state":"Královéhradecký","country":"Czechia","latitude":50.4624135,"longitude":15.3342473,"population":22}, 
{"name":"Bradáčov","state":"Jihočeský","country":"Czechia","latitude":49.4937214,"longitude":14.8727026,"population":39}, 
{"name":"Bradlec","state":"Středočeský","country":"Czechia","latitude":50.4511126,"longitude":14.9110476,"population":1216}, 
{"name":"Bradlecká Lhota","state":"Liberecký","country":"Czechia","latitude":50.4929796,"longitude":15.3978241,"population":216}, 
{"name":"Bradlo","state":"Vysočina","country":"Czechia","latitude":49.3890878,"longitude":15.6620742,"population":59}, 
{"name":"Bradné","state":"Plzeňský","country":"Czechia","latitude":49.2591619,"longitude":13.2873575,"population":13}, 
{"name":"Brambory","state":"Středočeský","country":"Czechia","latitude":49.9778936,"longitude":15.4660458,"population":111}, 
{"name":"Braňany","state":"Ústecký","country":"Czechia","latitude":50.5387851,"longitude":13.704944,"population":1129}, 
{"name":"Brandlín","state":"Jihočeský","country":"Czechia","latitude":49.1445908,"longitude":15.3122997,"population":73}, 
{"name":"Brandlín","state":"Jihočeský","country":"Czechia","latitude":49.1445908,"longitude":15.3122997,"population":67}, 
{"name":"Brandov","state":"Ústecký","country":"Czechia","latitude":50.6217325,"longitude":13.3876163,"population":243}, 
{"name":"Brandýs","state":"Středočeský","country":"Czechia","latitude":49.7626942,"longitude":15.0518999,"population":11}, 
{"name":"Brandýs nad Labem","state":"Středočeský","country":"Czechia","latitude":50.1857979,"longitude":14.6537967,"population":12134}, 
{"name":"Brandýs nad Orlicí","state":"Pardubický","country":"Czechia","latitude":50.0045166,"longitude":16.2809948,"population":1377}, 
{"name":"Brandýsek","state":"Středočeský","country":"Czechia","latitude":50.1888917,"longitude":14.1556062,"population":1185}, 
{"name":"Branice","state":"Jihočeský","country":"Czechia","latitude":49.4081739,"longitude":14.3382654,"population":297}, 
{"name":"Braníčkov","state":"Plzeňský","country":"Czechia","latitude":49.263757,"longitude":13.3441508,"population":1}, 
{"name":"Braníškov","state":"Jihomoravský","country":"Czechia","latitude":49.2965207,"longitude":16.3504615,"population":189}, 
{"name":"Branišov","state":"Jihočeský","country":"Czechia","latitude":48.9787018,"longitude":14.3956913,"population":247}, 
{"name":"Branišov","state":"Plzeňský","country":"Czechia","latitude":49.3858072,"longitude":13.0796457,"population":8}, 
{"name":"Branišov","state":"Vysočina","country":"Czechia","latitude":49.4668044,"longitude":15.4329496,"population":1}, 
{"name":"Branišov","state":"Vysočina","country":"Czechia","latitude":49.4668044,"longitude":15.4329496,"population":14}, 
{"name":"Branišov","state":"Karlovarský","country":"Czechia","latitude":49.9913044,"longitude":13.0119876,"population":8}, 
{"name":"Branišov","state":"Vysočina","country":"Czechia","latitude":49.4668044,"longitude":15.4329496,"population":53}, 
{"name":"Branišov","state":"Jihočeský","country":"Czechia","latitude":48.9787018,"longitude":14.3956913,"population":2}, 
{"name":"Branišov","state":"Jihočeský","country":"Czechia","latitude":48.9787018,"longitude":14.3956913,"population":67}, 
{"name":"Branišov","state":"Vysočina","country":"Czechia","latitude":49.4668044,"longitude":15.4329496,"population":202}, 
{"name":"Branišovice","state":"Jihomoravský","country":"Czechia","latitude":48.9644488,"longitude":16.4343773,"population":553}, 
{"name":"Branišovice","state":"Jihočeský","country":"Czechia","latitude":48.8531974,"longitude":14.505743,"population":96}, 
{"name":"Branišovice","state":"Jihočeský","country":"Czechia","latitude":48.8531974,"longitude":14.505743,"population":20}, 
{"name":"Branka","state":"Plzeňský","country":"Czechia","latitude":49.8254956,"longitude":12.52371,"population":58}, 
{"name":"Branka u Opavy","state":"Moravskoslezský","country":"Czechia","latitude":49.892077,"longitude":17.8770188,"population":1072}, 
{"name":"Brankovice","state":"Jihomoravský","country":"Czechia","latitude":49.1546535,"longitude":17.1470818,"population":893}, 
{"name":"Branky","state":"Zlínský","country":"Czechia","latitude":49.4582389,"longitude":17.9000094,"population":903}, 
{"name":"Branná","state":"Jihočeský","country":"Czechia","latitude":48.9669805,"longitude":14.7746578,"population":328}, 
{"name":"Branná","state":"Olomoucký","country":"Czechia","latitude":50.1531944,"longitude":17.0114658,"population":285}, 
{"name":"Branov","state":"Středočeský","country":"Czechia","latitude":50.0019172,"longitude":13.8284624,"population":202}, 
{"name":"Bransouze","state":"Vysočina","country":"Czechia","latitude":49.3003051,"longitude":15.7393911,"population":249}, 
{"name":"Brantice","state":"Moravskoslezský","country":"Czechia","latitude":50.0597558,"longitude":17.6309402,"population":1005}, 
{"name":"Branžež","state":"Středočeský","country":"Czechia","latitude":50.5100103,"longitude":15.0707462,"population":82}, 
{"name":"Braškov","state":"Středočeský","country":"Czechia","latitude":50.0975354,"longitude":14.0870741,"population":1016}, 
{"name":"Braštice","state":"Středočeský","country":"Czechia","latitude":49.6859139,"longitude":14.5719,"population":8}, 
{"name":"Břasy","state":"Plzeňský","country":"Czechia","latitude":49.8372275,"longitude":13.5860141,"population":1185}, 
{"name":"Bratčice","state":"Jihomoravský","country":"Czechia","latitude":49.0699506,"longitude":16.5232945,"population":686}, 
{"name":"Bratčice","state":"Středočeský","country":"Czechia","latitude":49.8552162,"longitude":15.4303774,"population":398}, 
{"name":"Bratkovice","state":"Středočeský","country":"Czechia","latitude":49.739619,"longitude":13.9985526,"population":121}, 
{"name":"Bratkovice","state":"Středočeský","country":"Czechia","latitude":49.739619,"longitude":13.9985526,"population":105}, 
{"name":"Bratřejov","state":"Středočeský","country":"Czechia","latitude":49.5771255,"longitude":14.3701755,"population":62}, 
{"name":"Bratřejov","state":"Zlínský","country":"Czechia","latitude":49.2223431,"longitude":17.9134604,"population":760}, 
{"name":"Bratřice","state":"Vysočina","country":"Czechia","latitude":49.5227585,"longitude":15.003163,"population":139}, 
{"name":"Bratříkov","state":"Liberecký","country":"Czechia","latitude":50.6789733,"longitude":15.253831,"population":310}, 
{"name":"Bratříkovice","state":"Moravskoslezský","country":"Czechia","latitude":49.9332723,"longitude":17.6975906,"population":162}, 
{"name":"Bratříkovice","state":"Středočeský","country":"Czechia","latitude":49.5592619,"longitude":14.3950494,"population":15},