{"name":"Ääsmäe", "state":"Harju", "country":"Estonia", "latitude":59.2382997, "longitude":24.5398719, "population":809}, 
{"name":"Aavere", "state":"Harju", "country":"Estonia", "latitude":59.3899881, "longitude":25.2608626, "population":13}, 
{"name":"Aaviku", "state":"Harju", "country":"Estonia", "latitude":59.3352415, "longitude":24.9076515, "population":237}, 
{"name":"Adra", "state":"Harju", "country":"Estonia", "latitude":59.3753294, "longitude":24.3563612, "population":107}, 
{"name":"Aegviidu", "state":"Harju", "country":"Estonia", "latitude":59.2794052, "longitude":25.6257223, "population":674}, 
{"name":"Aela", "state":"Harju", "country":"Estonia", "latitude":59.0273569, "longitude":25.3011112, "population":7}, 
{"name":"Ahisilla", "state":"Harju", "country":"Estonia", "latitude":59.2150668, "longitude":25.1594876, "population":41}, 
{"name":"Äigrumäe", "state":"Harju", "country":"Estonia", "latitude":59.4822367, "longitude":24.9097187, "population":116}, 
{"name":"Aila", "state":"Harju", "country":"Estonia", "latitude":59.2967372, "longitude":24.4968937, "population":207}, 
{"name":"Äksi", "state":"Harju", "country":"Estonia", "latitude":59.1136274, "longitude":25.1676837, "population":23}, 
{"name":"Alansi", "state":"Harju", "country":"Estonia", "latitude":59.1198598, "longitude":25.1473134, "population":25}, 
{"name":"Alavere", "state":"Harju", "country":"Estonia", "latitude":59.2316943, "longitude":25.3201605, "population":347}, 
{"name":"Allika", "state":"Harju", "country":"Estonia", "latitude":59.4637979, "longitude":25.4203913, "population":43}, 
{"name":"Allika", "state":"Harju", "country":"Estonia", "latitude":59.176097, "longitude":24.464215, "population":49}, 
{"name":"Alliklepa", "state":"Harju", "country":"Estonia", "latitude":59.2668395, "longitude":23.8048367, "population":11}, 
{"name":"Alliku", "state":"Harju", "country":"Estonia", "latitude":59.3545097, "longitude":24.5692167, "population":2096}, 
{"name":"Altküla", "state":"Harju", "country":"Estonia", "latitude":59.2424555, "longitude":24.0363974, "population":47}, 
{"name":"Ämari", "state":"Harju", "country":"Estonia", "latitude":59.2539817, "longitude":24.2104005, "population":556}, 
{"name":"Andineeme", "state":"Harju", "country":"Estonia", "latitude":59.5022468, "longitude":25.4639718, "population":35}, 
{"name":"Änglema", "state":"Harju", "country":"Estonia", "latitude":59.2241162, "longitude":23.8546684, "population":29}, 
{"name":"Anija", "state":"Harju", "country":"Estonia", "latitude":59.3789673, "longitude":25.2866472, "population":92}, 
{"name":"Arava", "state":"Harju", "country":"Estonia", "latitude":59.2593755, "longitude":25.3993977, "population":38}, 
{"name":"Ardu", "state":"Harju", "country":"Estonia", "latitude":59.0990058, "longitude":25.3519065, "population":506}, 
{"name":"Aru", "state":"Harju", "country":"Estonia", "latitude":59.4231327, "longitude":25.4922783, "population":28}, 
{"name":"Aruaru", "state":"Harju", "country":"Estonia", "latitude":59.3885992, "longitude":25.1395694, "population":64}, 
{"name":"Aruküla", "state":"Harju", "country":"Estonia", "latitude":59.3633505, "longitude":25.0694135, "population":2198}, 
{"name":"Arusta", "state":"Harju", "country":"Estonia", "latitude":59.2519205, "longitude":24.8151155, "population":51}, 
{"name":"Aruvalla", "state":"Harju", "country":"Estonia", "latitude":59.2496995, "longitude":25.0323094, "population":144}, 
{"name":"Assaku", "state":"Harju", "country":"Estonia", "latitude":59.3736279, "longitude":24.8425631, "population":481}, 
{"name":"Aude", "state":"Harju", "country":"Estonia", "latitude":59.1513047, "longitude":24.2369126, "population":20}, 
{"name":"Audevälja", "state":"Harju", "country":"Estonia", "latitude":59.1829153, "longitude":24.0800089, "population":57}, 
{"name":"Ellamaa", "state":"Harju", "country":"Estonia", "latitude":59.0444647, "longitude":24.1742913, "population":167}, 
{"name":"Haabneeme", "state":"Harju", "country":"Estonia", "latitude":59.5148038, "longitude":24.8230923, "population":7265}, 
{"name":"Haapse", "state":"Harju", "country":"Estonia", "latitude":59.4931012, "longitude":25.3028105, "population":78}, 
{"name":"Haavakannu", "state":"Harju", "country":"Estonia", "latitude":59.4656598, "longitude":25.2913299, "population":16}, 
{"name":"Habaja", "state":"Harju", "country":"Estonia", "latitude":59.1016307, "longitude":25.1648701, "population":314}, 
{"name":"Haiba", "state":"Harju", "country":"Estonia", "latitude":59.1317702, "longitude":24.4635969, "population":358}, 
{"name":"Haljava", "state":"Harju", "country":"Estonia", "latitude":59.3991015, "longitude":25.1780795, "population":163}, 
{"name":"Hara", "state":"Harju", "country":"Estonia", "latitude":59.5555025, "longitude":25.6292437, "population":82}, 
{"name":"Harju-Risti", "state":"Harju", "country":"Estonia", "latitude":59.2266784, "longitude":24.0182839, "population":334}, 
{"name":"Harku", "state":"Harju", "country":"Estonia", "latitude":59.3793831, "longitude":24.5953177, "population":720}, 
{"name":"Harkujärve", "state":"Harju", "country":"Estonia", "latitude":59.4176468, "longitude":24.6013572, "population":787}, 
{"name":"Härma", "state":"Harju", "country":"Estonia", "latitude":59.2745248, "longitude":25.1730088, "population":108}, 
{"name":"Härmakosu", "state":"Harju", "country":"Estonia", "latitude":59.3920209, "longitude":25.4331428, "population":46}, 
{"name":"Harmi", "state":"Harju", "country":"Estonia", "latitude":59.1088844, "longitude":25.2058038, "population":52}, 
{"name":"Hatu", "state":"Harju", "country":"Estonia", "latitude":59.1761425, "longitude":23.9245351, "population":62}, 
{"name":"Hingu", "state":"Harju", "country":"Estonia", "latitude":59.1703788, "longitude":24.3513479, "population":19}, 
{"name":"Hirvli", "state":"Harju", "country":"Estonia", "latitude":59.4353775, "longitude":25.5629459, "population":83}, 
{"name":"Humala", "state":"Harju", "country":"Estonia", "latitude":59.3628454, "longitude":24.4101594, "population":33}, 
{"name":"Hüüru", "state":"Harju", "country":"Estonia", "latitude":59.3822234, "longitude":24.5417024, "population":446}, 
{"name":"Idaotsa", "state":"Harju", "country":"Estonia", "latitude":59.6112151, "longitude":25.0527243, "population":45}, 
{"name":"Igavere", "state":"Harju", "country":"Estonia", "latitude":59.3308322, "longitude":25.0836199, "population":148}, 
{"name":"Ihasalu", "state":"Harju", "country":"Estonia", "latitude":59.5015534, "longitude":25.1979291, "population":100}, 
{"name":"Illurma", "state":"Harju", "country":"Estonia", "latitude":59.3381117, "longitude":24.3101011, "population":92}, 
{"name":"Ilmandu", "state":"Harju", "country":"Estonia", "latitude":59.443118, "longitude":24.4772903, "population":401}, 
{"name":"Ilmastalu", "state":"Harju", "country":"Estonia", "latitude":59.4369903, "longitude":25.4699715, "population":30}, 
{"name":"Iru", "state":"Harju", "country":"Estonia", "latitude":59.4528198, "longitude":24.9202216, "population":474}, 
{"name":"Jaanika", "state":"Harju", "country":"Estonia", "latitude":59.1507374, "longitude":24.3177654, "population":37}, 
{"name":"Jägala", "state":"Harju", "country":"Estonia", "latitude":59.4162455, "longitude":25.2282351, "population":107}, 
{"name":"Jägala-Joa", "state":"Harju", "country":"Estonia", "latitude":59.4570122, "longitude":25.1732931, "population":17}, 
{"name":"Jälgimäe", "state":"Harju", "country":"Estonia", "latitude":59.323868, "longitude":24.6108424, "population":310}, 
{"name":"Järsi", "state":"Harju", "country":"Estonia", "latitude":59.3595632, "longitude":25.0408902, "population":222}, 
{"name":"Järveküla", "state":"Harju", "country":"Estonia", "latitude":59.3746491, "longitude":24.7982794, "population":2880}, 
{"name":"Joaveski", "state":"Harju", "country":"Estonia", "latitude":59.5049129, "longitude":25.8194206, "population":22}, 
{"name":"Jõelähtme", "state":"Harju", "country":"Estonia", "latitude":59.4491633, "longitude":25.1322375, "population":99}, 
{"name":"Jõesuu", "state":"Harju", "country":"Estonia", "latitude":59.475719, "longitude":25.1725285, "population":76}, 
{"name":"Jõgisoo", "state":"Harju", "country":"Estonia", "latitude":59.2861111, "longitude":24.5230051, "population":258}, 
{"name":"Juminda", "state":"Harju", "country":"Estonia", "latitude":59.63398, "longitude":25.5098258, "population":30}, 
{"name":"Jüri", "state":"Harju", "country":"Estonia", "latitude":59.3558015, "longitude":24.9078279, "population":3719}, 
{"name":"Juuliku", "state":"Harju", "country":"Estonia", "latitude":59.3088851, "longitude":24.6407757, "population":428}, 
{"name":"Kaasiku", "state":"Harju", "country":"Estonia", "latitude":59.1965264, "longitude":24.3327263, "population":532}, 
{"name":"Kaberla", "state":"Harju", "country":"Estonia", "latitude":59.4739302, "longitude":25.2718208, "population":81}, 
{"name":"Kaberneeme", "state":"Harju", "country":"Estonia", "latitude":59.5028997, "longitude":25.2736366, "population":131}, 
{"name":"Kabila", "state":"Harju", "country":"Estonia", "latitude":59.2252273, "longitude":24.4128526, "population":62}, 
{"name":"Kadaka", "state":"Harju", "country":"Estonia", "latitude":59.3968553, "longitude":24.9748377, "population":45}, 
{"name":"Kadja", "state":"Harju", "country":"Estonia", "latitude":59.0423474, "longitude":25.2222705, "population":11}, 
{"name":"Käesalu", "state":"Harju", "country":"Estonia", "latitude":59.3726548, "longitude":24.2970199, "population":109}, 
{"name":"Kahala", "state":"Harju", "country":"Estonia", "latitude":59.4692835, "longitude":25.536997, "population":100}, 
{"name":"Kajamaa", "state":"Harju", "country":"Estonia", "latitude":59.2819897, "longitude":24.6997402, "population":74}, 
{"name":"Kalesi", "state":"Harju", "country":"Estonia", "latitude":59.3489303, "longitude":25.1130133, "population":214}, 
{"name":"Kallavere", "state":"Harju", "country":"Estonia", "latitude":59.4896944, "longitude":25.0332044, "population":118}, 
{"name":"Kalme", "state":"Harju", "country":"Estonia", "latitude":59.4880932, "longitude":25.6979463, "population":22}, 
{"name":"Kanavere", "state":"Harju", "country":"Estonia", "latitude":59.158049, "longitude":25.0705779, "population":105}, 
{"name":"Kangru", "state":"Harju", "country":"Estonia", "latitude":59.3506779, "longitude":24.7906366, "population":759}, 
{"name":"Kantküla", "state":"Harju", "country":"Estonia", "latitude":59.1270028, "longitude":25.2466794, "population":19}, 
{"name":"Karilepa", "state":"Harju", "country":"Estonia", "latitude":59.2503588, "longitude":24.1463826, "population":34}, 
{"name":"Karjaküla", "state":"Harju", "country":"Estonia", "latitude":59.3394617, "longitude":24.3896479, "population":314}, 
{"name":"Karla", "state":"Harju", "country":"Estonia", "latitude":59.1594884, "longitude":25.1183295, "population":886}, 
{"name":"Karla", "state":"Harju", "country":"Estonia", "latitude":59.3804562, "longitude":24.9284181, "population":183}, 
{"name":"Kasemetsa", "state":"Harju", "country":"Estonia", "latitude":59.2798231, "longitude":24.6646352, "population":536}, 
{"name":"Kasepere", "state":"Harju", "country":"Estonia", "latitude":59.2117358, "longitude":24.1687007, "population":77}, 
{"name":"Kasispea", "state":"Harju", "country":"Estonia", "latitude":59.5854566, "longitude":25.7445107, "population":102}, 
{"name":"Kata", "state":"Harju", "country":"Estonia", "latitude":59.1935991, "longitude":24.9572127, "population":72}, 
{"name":"Katsina", "state":"Harju", "country":"Estonia", "latitude":59.0875493, "longitude":25.2941657, "population":3}, 
{"name":"Kaunissaare", "state":"Harju", "country":"Estonia", "latitude":59.3060237, "longitude":25.3606371, "population":83}, 
{"name":"Kautjala", "state":"Harju", "country":"Estonia", "latitude":59.3403715, "longitude":24.9377482, "population":17}, 
{"name":"Keelva", "state":"Harju", "country":"Estonia", "latitude":59.3563115, "longitude":24.3311871, "population":41}, 
{"name":"Kehra", "state":"Harju", "country":"Estonia", "latitude":59.3359801, "longitude":25.3332138, "population":29}, 
{"name":"Kehra", "state":"Harju", "country":"Estonia", "latitude":59.352048, "longitude":25.3262678, "population":2759}, 
{"name":"Keibu", "state":"Harju", "country":"Estonia", "latitude":59.2400887, "longitude":23.7650087, "population":42}, 
{"name":"Keila", "state":"Harju", "country":"Estonia", "latitude":59.3113501, "longitude":24.3865119, "population":10499}, 
{"name":"Keila-Joa", "state":"Harju", "country":"Estonia", "latitude":59.4039142, "longitude":24.2971516, "population":398}, 
{"name":"Kelnase", "state":"Harju", "country":"Estonia", "latitude":59.6639659, "longitude":24.9907701, "population":64}, 
{"name":"Kelvingi", "state":"Harju", "country":"Estonia", "latitude":59.5507082, "longitude":24.8381662, "population":473}, 
{"name":"Kemba", "state":"Harju", "country":"Estonia", "latitude":59.4652617, "longitude":25.6928461, "population":38}, 
{"name":"Kernu", "state":"Harju", "country":"Estonia", "latitude":59.1345443, "longitude":24.5010012, "population":76}, 
{"name":"Kersalu", "state":"Harju", "country":"Estonia", "latitude":59.337306, "longitude":24.1941392, "population":54}, 
{"name":"Kibuna", "state":"Harju", "country":"Estonia", "latitude":59.1920526, "longitude":24.2878299, "population":187}, 
{"name":"Kihmla", "state":"Harju", "country":"Estonia", "latitude":59.367028, "longitude":25.2580938, "population":28}, 
{"name":"Kiia", "state":"Harju", "country":"Estonia", "latitude":59.3548992, "longitude":24.4816863, "population":215}, 
{"name":"Kiili", "state":"Harju", "country":"Estonia", "latitude":59.3062449, "longitude":24.8379217, "population":1841}, 
{"name":"Kiisa", "state":"Harju", "country":"Estonia", "latitude":59.2378454, "longitude":24.6805264, "population":676}, 
{"name":"Kiiu", "state":"Harju", "country":"Estonia", "latitude":59.4476418, "longitude":25.391533, "population":795}, 
{"name":"Kiiu-Aabla", "state":"Harju", "country":"Estonia", "latitude":59.5820525, "longitude":25.5341313, "population":32}, 
{"name":"Kirdalu", "state":"Harju", "country":"Estonia", "latitude":59.2492175, "longitude":24.7335863, "population":92}, 
{"name":"Kirikla", "state":"Harju", "country":"Estonia", "latitude":59.1408768, "longitude":24.5491917, "population":25}, 
{"name":"Kirivalla", "state":"Harju", "country":"Estonia", "latitude":59.1218161, "longitude":25.0947186, "population":22}, 
{"name":"Kiruvere", "state":"Harju", "country":"Estonia", "latitude":59.1310034, "longitude":25.3842016, "population":36}, 
{"name":"Kiviloo", "state":"Harju", "country":"Estonia", "latitude":59.3028943, "longitude":25.2523815, "population":57}, 
{"name":"Kivitammi", "state":"Harju", "country":"Estonia", "latitude":59.0959241, "longitude":24.2661267, "population":50}, 
{"name":"Klooga", "state":"Harju", "country":"Estonia", "latitude":59.308801, "longitude":24.2341611, "population":1024}, 
{"name":"Kloogaranna", "state":"Harju", "country":"Estonia", "latitude":59.3414028, "longitude":24.2542555, "population":259}, 
{"name":"Kobru", "state":"Harju", "country":"Estonia", "latitude":59.1798796, "longitude":24.1511708, "population":18}, 
{"name":"Kodasoo", "state":"Harju", "country":"Estonia", "latitude":59.444997, "longitude":25.2770642, "population":66}, 
{"name":"Kohatu", "state":"Harju", "country":"Estonia", "latitude":59.1600298, "longitude":24.5223461, "population":97}, 
{"name":"Koidu", "state":"Harju", "country":"Estonia", "latitude":59.342802, "longitude":24.588353, "population":416}, 
{"name":"Koila", "state":"Harju", "country":"Estonia", "latitude":59.4531236, "longitude":25.1520791, "population":18}, 
{"name":"Koipsi", "state":"Harju", "country":"Estonia", "latitude":59.5423977, "longitude":25.2683096, "population":0}, 
{"name":"Koitjärve", "state":"Harju", "country":"Estonia", "latitude":59.368196, "longitude":25.652183, "population":0}, 
{"name":"Kolga", "state":"Harju", "country":"Estonia", "latitude":59.4925412, "longitude":25.6307289, "population":450}, 
{"name":"Kolga-Aabla", "state":"Harju", "country":"Estonia", "latitude":59.5660338, "longitude":25.5448295, "population":94}, 
{"name":"Kolgaküla", "state":"Harju", "country":"Estonia", "latitude":59.5316619, "longitude":25.7058107, "population":176}, 
{"name":"Kolgu", "state":"Harju", "country":"Estonia", "latitude":59.3143648, "longitude":25.8712024, "population":0}, 
{"name":"Kolu", "state":"Harju", "country":"Estonia", "latitude":59.1965136, "longitude":25.0575854, "population":97}, 
{"name":"Kõmmaste", "state":"Harju", "country":"Estonia", "latitude":59.2179977, "longitude":24.045882, "population":63}, 
{"name":"Kõnnu", "state":"Harju", "country":"Estonia", "latitude":59.492257, "longitude":25.7032036, "population":89}, 
{"name":"Koogi", "state":"Harju", "country":"Estonia", "latitude":59.4385245, "longitude":25.172168, "population":137}, 
{"name":"Kopli", "state":"Harju", "country":"Estonia", "latitude":59.4082448, "longitude":24.9638922, "population":462}, 
{"name":"Koppelmaa", "state":"Harju", "country":"Estonia", "latitude":59.2599503, "longitude":24.5746202, "population":137}, 
{"name":"Kõrvenurga", "state":"Harju", "country":"Estonia", "latitude":59.1140695, "longitude":25.4199066, "population":12}, 
{"name":"Kose", "state":"Harju", "country":"Estonia", "latitude":59.1801113, "longitude":25.1660994, "population":2229}, 
{"name":"Kose-Uuemõisa", "state":"Harju", "country":"Estonia", "latitude":59.2023725, "longitude":25.1055846, "population":929}, 
{"name":"Kostiranna", "state":"Harju", "country":"Estonia", "latitude":59.4868247, "longitude":25.10092, "population":34}, 
{"name":"Kostivere", "state":"Harju", "country":"Estonia", "latitude":59.4271788, "longitude":25.0979164, "population":765}, 
{"name":"Kosu", "state":"Harju", "country":"Estonia", "latitude":59.4077226, "longitude":25.4825915, "population":9}, 
{"name":"Kotka", "state":"Harju", "country":"Estonia", "latitude":59.5397965, "longitude":25.7590628, "population":7}, 
{"name":"Kõue", "state":"Harju", "country":"Estonia", "latitude":59.0848826, "longitude":25.2552139, "population":22}, 
{"name":"Krei", "state":"Harju", "country":"Estonia", "latitude":59.2093697, "longitude":25.1177755, "population":171}, 
{"name":"Kuivajõe", "state":"Harju", "country":"Estonia", "latitude":59.1808822, "longitude":25.1064492, "population":87}, 
{"name":"Kukepala", "state":"Harju", "country":"Estonia", "latitude":59.0799616, "longitude":25.3315448, "population":3}, 
{"name":"Kullamäe", "state":"Harju", "country":"Estonia", "latitude":59.4938116, "longitude":25.3257659, "population":7}, 
{"name":"Kulli", "state":"Harju", "country":"Estonia", "latitude":59.3823342, "longitude":25.024891, "population":146}, 
{"name":"Külmaallika", "state":"Harju", "country":"Estonia", "latitude":59.4202361, "longitude":25.3696665, "population":4}, 
{"name":"Kulna", "state":"Harju", "country":"Estonia", "latitude":59.2982364, "longitude":24.3631733, "population":282}, 
{"name":"Kumna", "state":"Harju", "country":"Estonia", "latitude":59.3258118, "longitude":24.4428812, "population":278}, 
{"name":"Kupu", "state":"Harju", "country":"Estonia", "latitude":59.4604966, "longitude":25.4821611, "population":42}, 
{"name":"Kurevere", "state":"Harju", "country":"Estonia", "latitude":59.2500565, "longitude":24.8355808, "population":33}, 
{"name":"Kurgla", "state":"Harju", "country":"Estonia", "latitude":59.3898155, "longitude":25.090103, "population":119}, 
{"name":"Kurkse", "state":"Harju", "country":"Estonia", "latitude":59.2717562, "longitude":24.0274825, "population":34}, 
{"name":"Kurna", "state":"Harju", "country":"Estonia", "latitude":59.3440528, "longitude":24.8536732, "population":82}, 
{"name":"Kursi", "state":"Harju", "country":"Estonia", "latitude":59.4369243, "longitude":25.5028184, "population":52}, 
{"name":"Kurtna", "state":"Harju", "country":"Estonia", "latitude":59.2249381, "longitude":24.7094513, "population":314}, 
{"name":"Kustja", "state":"Harju", "country":"Estonia", "latitude":59.1115688, "longitude":24.4836903, "population":22}, 
{"name":"Kütke", "state":"Harju", "country":"Estonia", "latitude":59.3475246, "longitude":24.4410042, "population":68}, 
{"name":"Kuusalu", "state":"Harju", "country":"Estonia", "latitude":59.4619354, "longitude":25.4353644, "population":1176}, 
{"name":"Kuusalu", "state":"Harju", "country":"Estonia", "latitude":59.4454417, "longitude":25.4346791, "population":254}, 
{"name":"Kuusemäe", "state":"Harju", "country":"Estonia", "latitude":59.3731746, "longitude":25.3110974, "population":26}, 
{"name":"Laabi", "state":"Harju", "country":"Estonia", "latitude":59.4058716, "longitude":24.5769453, "population":21}, 
{"name":"Laagri", "state":"Harju", "country":"Estonia", "latitude":59.3373495, "longitude":24.607149, "population":6117}, 
{"name":"Laane", "state":"Harju", "country":"Estonia", "latitude":59.2497779, "longitude":24.1036401, "population":14}, 
{"name":"Laane", "state":"Harju", "country":"Estonia", "latitude":59.1809483, "longitude":25.3673378, "population":4}, 
{"name":"Lääneotsa", "state":"Harju", "country":"Estonia", "latitude":59.6178544, "longitude":24.9985409, "population":51}, 
{"name":"Lagedi", "state":"Harju", "country":"Estonia", "latitude":59.3982303, "longitude":24.9339065, "population":1027}, 
{"name":"Lähtse", "state":"Harju", "country":"Estonia", "latitude":59.2927689, "longitude":24.8595549, "population":514}, 
{"name":"Laiaküla", "state":"Harju", "country":"Estonia", "latitude":59.4670706, "longitude":24.9175677, "population":706}, 
{"name":"Laitse", "state":"Harju", "country":"Estonia", "latitude":59.2070644, "longitude":24.3672976, "population":432}, 
{"name":"Langa", "state":"Harju", "country":"Estonia", "latitude":59.2977772, "longitude":24.1838051, "population":32}, 
{"name":"Laoküla", "state":"Harju", "country":"Estonia", "latitude":59.3251479, "longitude":23.9607276, "population":35}, 
{"name":"Laulasmaa", "state":"Harju", "country":"Estonia", "latitude":59.3781339, "longitude":24.2395081, "population":789}, 
{"name":"Leesi", "state":"Harju", "country":"Estonia", "latitude":59.6034797, "longitude":25.5086925, "population":19}, 
{"name":"Lehetu", "state":"Harju", "country":"Estonia", "latitude":59.0392557, "longitude":24.2553916, "population":180}, 
{"name":"Lehmja", "state":"Harju", "country":"Estonia", "latitude":59.3633362, "longitude":24.8730716, "population":34}, 
{"name":"Lehola", "state":"Harju", "country":"Estonia", "latitude":59.2925811, "longitude":24.3192002, "population":405}, 
{"name":"Lehtmetsa", "state":"Harju", "country":"Estonia", "latitude":59.322961, "longitude":25.3438065, "population":707}, 
{"name":"Leistu", "state":"Harju", "country":"Estonia", "latitude":59.1639116, "longitude":25.3413994, "population":8}, 
{"name":"Lemmaru", "state":"Harju", "country":"Estonia", "latitude":59.2275589, "longitude":24.2958051, "population":63}, 
{"name":"Lepaste", "state":"Harju", "country":"Estonia", "latitude":59.0784061, "longitude":24.1492656, "population":34}, 
{"name":"Leppneeme", "state":"Harju", "country":"Estonia", "latitude":59.5449105, "longitude":24.8641095, "population":587}, 
{"name":"Liiapeksi", "state":"Harju", "country":"Estonia", "latitude":59.4499842, "longitude":25.6533431, "population":9}, 
{"name":"Liikva", "state":"Harju", "country":"Estonia", "latitude":59.4108589, "longitude":24.4399667, "population":548}, 
{"name":"Liiva", "state":"Harju", "country":"Estonia", "latitude":59.1649447, "longitude":25.1629202, "population":66}, 
{"name":"Liivamäe", "state":"Harju", "country":"Estonia", "latitude":59.4375401, "longitude":24.9601004, "population":385}, 
{"name":"Lilli", "state":"Harju", "country":"Estonia", "latitude":59.3680852, "longitude":25.3488634, "population":82}, 
{"name":"Limu", "state":"Harju", "country":"Estonia", "latitude":59.3452405, "longitude":24.97407, "population":154}, 
{"name":"Linnakse", "state":"Harju", "country":"Estonia", "latitude":59.3461593, "longitude":25.1968502, "population":58}, 
{"name":"Lohusalu", "state":"Harju", "country":"Estonia", "latitude":59.396491, "longitude":24.1994314, "population":213}, 
{"name":"Loksa", "state":"Harju", "country":"Estonia", "latitude":59.5663177, "longitude":25.7309367, "population":2615}, 
{"name":"Loksa", "state":"Harju", "country":"Estonia", "latitude":59.5784409, "longitude":25.7166083, "population":49}, 
{"name":"Lokuti", "state":"Harju", "country":"Estonia", "latitude":59.2818833, "longitude":24.7447626, "population":88}, 
{"name":"Loo", "state":"Harju", "country":"Estonia", "latitude":59.4414133, "longitude":25.0955602, "population":28}, 
{"name":"Loo", "state":"Harju", "country":"Estonia", "latitude":59.4297365, "longitude":24.9499235, "population":2295}, 
{"name":"Looküla", "state":"Harju", "country":"Estonia", "latitude":59.3588405, "longitude":25.3881267, "population":46}, 
{"name":"Lööra", "state":"Harju", "country":"Estonia", "latitude":59.1380485, "longitude":25.1599231, "population":24}, 
{"name":"Lõunaküla", "state":"Harju", "country":"Estonia", "latitude":59.5495846, "longitude":24.5405429, "population":7}, 
{"name":"Lubja", "state":"Harju", "country":"Estonia", "latitude":59.5217047, "longitude":24.8568162, "population":830}, 
{"name":"Luige", "state":"Harju", "country":"Estonia", "latitude":59.3291613, "longitude":24.7777056, "population":1337}, 
{"name":"Lükati", "state":"Harju", "country":"Estonia", "latitude":59.2812918, "longitude":25.2835208, "population":53}, 
{"name":"Lutsu", "state":"Harju", "country":"Estonia", "latitude":59.1173672, "longitude":25.1366094, "population":7}, 
{"name":"Määra", "state":"Harju", "country":"Estonia", "latitude":59.2073128, "longitude":24.1030897, "population":51}, 
{"name":"Maardu", "state":"Harju", "country":"Estonia", "latitude":59.429901, "longitude":25.0338402, "population":16170}, 
{"name":"Maardu", "state":"Harju", "country":"Estonia", "latitude":59.4652621, "longitude":24.9734964, "population":159}, 
{"name":"Madila", "state":"Harju", "country":"Estonia", "latitude":59.0965091, "longitude":24.2921882, "population":39}, 
{"name":"Madise", "state":"Harju", "country":"Estonia", "latitude":59.2781436, "longitude":24.1234615, "population":79}, 
{"name":"Mäepea", "state":"Harju", "country":"Estonia", "latitude":59.4739923, "longitude":25.3937907, "population":144}, 
{"name":"Maeru", "state":"Harju", "country":"Estonia", "latitude":59.2743794, "longitude":24.2695947, "population":90}, 
{"name":"Maidla", "state":"Harju", "country":"Estonia", "latitude":59.2245216, "longitude":24.6098385, "population":302}, 
{"name":"Mallavere", "state":"Harju", "country":"Estonia", "latitude":59.2572762, "longitude":25.1495312, "population":70}, 
{"name":"Männiku", "state":"Harju", "country":"Estonia", "latitude":59.3298218, "longitude":24.7118834, "population":302}, 
{"name":"Manniva", "state":"Harju", "country":"Estonia", "latitude":59.4735079, "longitude":25.1301525, "population":111}, 
{"name":"Marguse", "state":"Harju", "country":"Estonia", "latitude":59.1490305, "longitude":25.2003914, "population":14}, 
{"name":"Meremõisa", "state":"Harju", "country":"Estonia", "latitude":59.3887548, "longitude":24.2773543, "population":163}, 
{"name":"Merenuka", "state":"Harju", "country":"Estonia", "latitude":59.4039783, "longitude":24.281293, "population":7}, 
{"name":"Meriküla", "state":"Harju", "country":"Estonia", "latitude":59.4579038, "longitude":24.4661119, "population":134}, 
{"name":"Metsakasti", "state":"Harju", "country":"Estonia", "latitude":59.4938, "longitude":24.9057031, "population":764}, 
{"name":"Metsanurga", "state":"Harju", "country":"Estonia", "latitude":59.2722239, "longitude":24.9155102, "population":43}, 
{"name":"Metsanurga", "state":"Harju", "country":"Estonia", "latitude":59.1762599, "longitude":24.5055888, "population":38}, 
{"name":"Metsanurme", "state":"Harju", "country":"Estonia", "latitude":59.2599657, "longitude":24.6608216, "population":782}, 
{"name":"Metslõugu", "state":"Harju", "country":"Estonia", "latitude":59.1571678, "longitude":24.0837088, "population":26}, 
{"name":"Miiduranna", "state":"Harju", "country":"Estonia", "latitude":59.5007765, "longitude":24.8149893, "population":310}, 
{"name":"Mõisaküla", "state":"Harju", "country":"Estonia", "latitude":59.3225743, "longitude":24.8705539, "population":207}, 
{"name":"Mõnuste", "state":"Harju", "country":"Estonia", "latitude":59.1436686, "longitude":24.4409333, "population":63}, 
{"name":"Munalaskme", "state":"Harju", "country":"Estonia", "latitude":59.1927234, "longitude":24.2255769, "population":107}, 
{"name":"Muraste", "state":"Harju", "country":"Estonia", "latitude":59.4518197, "longitude":24.4416612, "population":1964}, 
{"name":"Murksi", "state":"Harju", "country":"Estonia", "latitude":59.4963858, "longitude":25.7330619, "population":5}, 
{"name":"Mustametsa", "state":"Harju", "country":"Estonia", "latitude":59.4777131, "longitude":25.5847334, "population":48}, 
{"name":"Mustjõe", "state":"Harju", "country":"Estonia", "latitude":59.2876157, "longitude":25.5058059, "population":30}, 
{"name":"Mustu", "state":"Harju", "country":"Estonia", "latitude":59.0997696, "longitude":24.3912168, "population":21}, 
{"name":"Muuga", "state":"Harju", "country":"Estonia", "latitude":59.4912832, "longitude":24.9412936, "population":593}, 
{"name":"Muuksi", "state":"Harju", "country":"Estonia", "latitude":59.5056316, "longitude":25.5081964, "population":40}, 
{"name":"Muusika", "state":"Harju", "country":"Estonia", "latitude":59.2109351, "longitude":24.4614372, "population":121}, 
{"name":"Naage", "state":"Harju", "country":"Estonia", "latitude":59.4079237, "longitude":24.3611104, "population":179}, 
{"name":"Nabala", "state":"Harju", "country":"Estonia", "latitude":59.2717159, "longitude":24.8651958, "population":117}, 
{"name":"Nahkjala", "state":"Harju", "country":"Estonia", "latitude":59.2629405, "longitude":24.3091302, "population":49}, 
{"name":"Neeme", "state":"Harju", "country":"Estonia", "latitude":59.5251968, "longitude":25.1589962, "population":324}, 
{"name":"Nehatu", "state":"Harju", "country":"Estonia", "latitude":59.4408207, "longitude":24.9225499, "population":34}, 
{"name":"Niitvälja", "state":"Harju", "country":"Estonia", "latitude":59.3155703, "longitude":24.2986321, "population":108}, 
{"name":"Nõmbra", "state":"Harju", "country":"Estonia", "latitude":59.2291334, "longitude":25.2673206, "population":31}, 
{"name":"Nõmmeri", "state":"Harju", "country":"Estonia", "latitude":59.0739301, "longitude":25.3746059, "population":30}, 
{"name":"Nõmmeveski", "state":"Harju", "country":"Estonia", "latitude":59.5081158, "longitude":25.7800845, "population":10}, 
{"name":"Nõrava", "state":"Harju", "country":"Estonia", "latitude":59.1522309, "longitude":25.0170728, "population":82}, 
{"name":"Nurme", "state":"Harju", "country":"Estonia", "latitude":59.0689889, "longitude":24.3099576, "population":74}, 
{"name":"Nutu", "state":"Harju", "country":"Estonia", "latitude":59.076412, "longitude":25.2054041, "population":7}, 
{"name":"Odulemma", "state":"Harju", "country":"Estonia", "latitude":59.1356526, "longitude":24.3629916, "population":73}, 
{"name":"Ohtu", "state":"Harju", "country":"Estonia", "latitude":59.26822, "longitude":24.3763819, "population":156}, 
{"name":"Ojasoo", "state":"Harju", "country":"Estonia", "latitude":59.1299643, "longitude":25.2027311, "population":85}, 
{"name":"Oru", "state":"Harju", "country":"Estonia", "latitude":59.1786019, "longitude":24.9705067, "population":486}, 
{"name":"Paasiku", "state":"Harju", "country":"Estonia", "latitude":59.3551609, "longitude":25.2990594, "population":38}, 
{"name":"Padise", "state":"Harju", "country":"Estonia", "latitude":59.2168873, "longitude":24.1350265, "population":302}, 
{"name":"Pae", "state":"Harju", "country":"Estonia", "latitude":59.1915793, "longitude":24.0228017, "population":78}, 
{"name":"Paekna", "state":"Harju", "country":"Estonia", "latitude":59.2726555, "longitude":24.8362241, "population":175}, 
{"name":"Pajupea", "state":"Harju", "country":"Estonia", "latitude":59.3661848, "longitude":24.9868494, "population":132}, 
{"name":"Pala", "state":"Harju", "country":"Estonia", "latitude":59.0683039, "longitude":25.2991848, "population":0}, 
{"name":"Pala", "state":"Harju", "country":"Estonia", "latitude":59.3656944, "longitude":25.8570473, "population":4}, 
{"name":"Paldiski", "state":"Harju", "country":"Estonia", "latitude":59.3455658, "longitude":24.0232614, "population":3719}, 
{"name":"Pällu", "state":"Harju", "country":"Estonia", "latitude":59.2411855, "longitude":24.4753447, "population":95}, 
{"name":"Palvere", "state":"Harju", "country":"Estonia", "latitude":59.2055485, "longitude":25.248592, "population":120}, 
{"name":"Parasmäe", "state":"Harju", "country":"Estonia", "latitude":59.4202298, "longitude":25.1327314, "population":64}, 
{"name":"Parila", "state":"Harju", "country":"Estonia", "latitude":59.3366195, "longitude":25.2482351, "population":76}, 
{"name":"Pärinurme", "state":"Harju", "country":"Estonia", "latitude":59.201957, "longitude":24.5711804, "population":33}, 
{"name":"Pärispea", "state":"Harju", "country":"Estonia", "latitude":59.647656, "longitude":25.7033196, "population":94}, 
{"name":"Parksi", "state":"Harju", "country":"Estonia", "latitude":59.5048932, "longitude":25.7649381, "population":24}, 
{"name":"Pärnamäe", "state":"Harju", "country":"Estonia", "latitude":59.5011641, "longitude":24.8642856, "population":1987}, 
{"name":"Partsaare", "state":"Harju", "country":"Estonia", "latitude":59.3963377, "longitude":25.3018123, "population":17}, 
{"name":"Patika", "state":"Harju", "country":"Estonia", "latitude":59.3103325, "longitude":24.9314268, "population":506}, 
{"name":"Paunaste", "state":"Harju", "country":"Estonia", "latitude":59.0749495, "longitude":25.2610464, "population":4}, 
{"name":"Paunküla", "state":"Harju", "country":"Estonia", "latitude":59.1446974, "longitude":25.3204888, "population":85}, 
{"name":"Pedase", "state":"Harju", "country":"Estonia", "latitude":59.2603939, "longitude":23.9486253, "population":26}, 
{"name":"Pedaspea", "state":"Harju", "country":"Estonia", "latitude":59.5453501, "longitude":25.5616352, "population":24}, 
{"name":"Peetri", "state":"Harju", "country":"Estonia", "latitude":59.3948477, "longitude":24.815007, "population":6352}, 
{"name":"Peningi", "state":"Harju", "country":"Estonia", "latitude":59.3286992, "longitude":25.160972, "population":180}, 
{"name":"Perila", "state":"Harju", "country":"Estonia", "latitude":59.2807363, "longitude":25.1906437, "population":100}, 
{"name":"Piissoo", "state":"Harju", "country":"Estonia", "latitude":59.2536278, "longitude":24.85644, "population":48}, 
{"name":"Pikavere", "state":"Harju", "country":"Estonia", "latitude":59.2940037, "longitude":25.1306736, "population":58}, 
{"name":"Pikva", "state":"Harju", "country":"Estonia", "latitude":59.2770877, "longitude":25.4036002, "population":101}, 
{"name":"Pildiküla", "state":"Harju", "country":"Estonia", "latitude":59.3585862, "longitude":24.88238, "population":101}, 
{"name":"Pillapalu", "state":"Harju", "country":"Estonia", "latitude":59.3357353, "longitude":25.6362282, "population":93}, 
{"name":"Põhja", "state":"Harju", "country":"Estonia", "latitude":59.4826634, "longitude":25.4285054, "population":35}, 
{"name":"Pohla", "state":"Harju", "country":"Estonia", "latitude":59.1645031, "longitude":24.3958724, "population":40}, 
{"name":"Põllküla", "state":"Harju", "country":"Estonia", "latitude":59.3209059, "longitude":24.1636479, "population":48}, 
{"name":"Pringi", "state":"Harju", "country":"Estonia", "latitude":59.5302837, "longitude":24.8012943, "population":1098}, 
{"name":"Pudisoo", "state":"Harju", "country":"Estonia", "latitude":59.5236509, "longitude":25.5820121, "population":45}, 
{"name":"Püha", "state":"Harju", "country":"Estonia", "latitude":59.3584132, "longitude":24.5204228, "population":114}, 
{"name":"Püünsi", "state":"Harju", "country":"Estonia", "latitude":59.5495977, "longitude":24.7989196, "population":1290}, 
{"name":"Puusepa", "state":"Harju", "country":"Estonia", "latitude":59.141408, "longitude":25.3399053, "population":17}, 
{"name":"Raasiku", "state":"Harju", "country":"Estonia", "latitude":59.3729048, "longitude":25.1723656, "population":1399}, 
{"name":"Rae", "state":"Harju", "country":"Estonia", "latitude":59.3884006, "longitude":24.8701256, "population":1496}, 
{"name":"Rahula", "state":"Harju", "country":"Estonia", "latitude":59.2849585, "longitude":24.5630811, "population":144}, 
{"name":"Rammu", "state":"Harju", "country":"Estonia", "latitude":59.592271, "longitude":25.2637957, "population":3}, 
{"name":"Randvere", "state":"Harju", "country":"Estonia", "latitude":59.5076197, "longitude":24.9067098, "population":1918}, 
{"name":"Rannamõisa", "state":"Harju", "country":"Estonia", "latitude":59.4273285, "longitude":24.5187205, "population":847}, 
{"name":"Rasivere", "state":"Harju", "country":"Estonia", "latitude":59.2207786, "longitude":25.3753702, "population":45}, 
{"name":"Rätla", "state":"Harju", "country":"Estonia", "latitude":59.3173987, "longitude":25.2089136, "population":45}, 
{"name":"Raudoja", "state":"Harju", "country":"Estonia", "latitude":59.3806501, "longitude":25.4496661, "population":59}, 
{"name":"Rava", "state":"Harju", "country":"Estonia", "latitude":59.1043331, "longitude":25.2899677, "population":38}, 
{"name":"Raveliku", "state":"Harju", "country":"Estonia", "latitude":59.1737217, "longitude":25.2493391, "population":40}, 
{"name":"Ravila", "state":"Harju", "country":"Estonia", "latitude":59.1828708, "longitude":25.2220678, "population":262}, 
{"name":"Rebala", "state":"Harju", "country":"Estonia", "latitude":59.4619039, "longitude":25.0923748, "population":158}, 
{"name":"Rehatse", "state":"Harju", "country":"Estonia", "latitude":59.420604, "longitude":25.4259756, "population":3}, 
{"name":"Riidamäe", "state":"Harju", "country":"Estonia", "latitude":59.1214978, "longitude":25.2282839, "population":2}, 
{"name":"Riisipere", "state":"Harju", "country":"Estonia", "latitude":59.1126315, "longitude":24.3155534, "population":868}, 
{"name":"Rohuneeme", "state":"Harju", "country":"Estonia", "latitude":59.5718326, "longitude":24.7829135, "population":422}, 
{"name":"Rohusi", "state":"Harju", "country":"Estonia", "latitude":59.5219338, "longitude":25.3126549, "population":0}, 
{"name":"Roobuka", "state":"Harju", "country":"Estonia", "latitude":59.2310085, "longitude":24.6759076, "population":541}, 
{"name":"Rooküla", "state":"Harju", "country":"Estonia", "latitude":59.2661892, "longitude":25.3050698, "population":75}, 
{"name":"Rõõsa", "state":"Harju", "country":"Estonia", "latitude":59.1370591, "longitude":25.284969, "population":47}, 
{"name":"Ruila", "state":"Harju", "country":"Estonia", "latitude":59.1946716, "longitude":24.4491924, "population":159}, 
{"name":"Rummu", "state":"Harju", "country":"Estonia", "latitude":59.2310131, "longitude":24.200759, "population":932}, 
{"name":"Rummu", "state":"Harju", "country":"Estonia", "latitude":59.4508088, "longitude":25.3142499, "population":63}, 
{"name":"Ruu", "state":"Harju", "country":"Estonia", "latitude":59.4559887, "longitude":25.2242143, "population":121}, 
{"name":"Saarnakõrve", "state":"Harju", "country":"Estonia", "latitude":59.0415659, "longitude":25.380562, "population":27}, 
{"name":"Sääsküla", "state":"Harju", "country":"Estonia", "latitude":59.1066519, "longitude":25.2361112, "population":9}, 
{"name":"Sae", "state":"Harju", "country":"Estonia", "latitude":59.1608191, "longitude":25.2924876, "population":20}, 
{"name":"Saha", "state":"Harju", "country":"Estonia", "latitude":59.4225673, "longitude":25.0063038, "population":143}, 
{"name":"Saku", "state":"Harju", "country":"Estonia", "latitude":59.3029006, "longitude":24.6568087, "population":4706}, 
{"name":"Salmistu", "state":"Harju", "country":"Estonia", "latitude":59.4992606, "longitude":25.3823517, "population":161}, 
{"name":"Salu", "state":"Harju", "country":"Estonia", "latitude":59.2686757, "longitude":25.0700893, "population":60}, 
{"name":"Salumäe", "state":"Harju", "country":"Estonia", "latitude":59.3727639, "longitude":25.2193715, "population":59}, 
{"name":"Salumetsa", "state":"Harju", "country":"Estonia", "latitude":59.3399981, "longitude":25.2932775, "population":35}, 
{"name":"Sambu", "state":"Harju", "country":"Estonia", "latitude":59.3904063, "longitude":25.2194098, "population":25}, 
{"name":"Saue", "state":"Harju", "country":"Estonia", "latitude":59.3218032, "longitude":24.5520984, "population":163}, 
{"name":"Saue", "state":"Harju", "country":"Estonia", "latitude":59.3022916, "longitude":24.5880052, "population":5826}, 
{"name":"Saula", "state":"Harju", "country":"Estonia", "latitude":59.2155129, "longitude":25.045082, "population":114}, 
{"name":"Saunja", "state":"Harju", "country":"Estonia", "latitude":59.4208359, "longitude":25.3158465, "population":109}, 
{"name":"Sausti", "state":"Harju", "country":"Estonia", "latitude":59.308851, "longitude":24.7814375, "population":183}, 
{"name":"Saustinõmme", "state":"Harju", "country":"Estonia", "latitude":59.3059892, "longitude":24.7355275, "population":256}, 
{"name":"Saviranna", "state":"Harju", "country":"Estonia", "latitude":59.5009149, "longitude":25.046542, "population":102}, 
{"name":"Seli", "state":"Harju", "country":"Estonia", "latitude":59.3354579, "longitude":24.9983689, "population":33}, 
{"name":"Sigula", "state":"Harju", "country":"Estonia", "latitude":59.4420882, "longitude":25.6066356, "population":66}, 
{"name":"Siimika", "state":"Harju", "country":"Estonia", "latitude":59.1268061, "longitude":24.140565, "population":21}, 
{"name":"Silmsi", "state":"Harju", "country":"Estonia", "latitude":59.1121246, "longitude":25.3118017, "population":34}, 
{"name":"Sõgula", "state":"Harju", "country":"Estonia", "latitude":59.2677777, "longitude":24.8933752, "population":30}, 
{"name":"Sõitme", "state":"Harju", "country":"Estonia", "latitude":59.4763889, "longitude":25.4655192, "population":133}, 
{"name":"Sõmeru", "state":"Harju", "country":"Estonia", "latitude":59.1610186, "longitude":25.2516053, "population":51}, 
{"name":"Sõmeru", "state":"Harju", "country":"Estonia", "latitude":59.247025, "longitude":24.9096208, "population":73}, 
{"name":"Soodevahe", "state":"Harju", "country":"Estonia", "latitude":59.4080125, "longitude":24.8944001, "population":739}, 
{"name":"Soodla", "state":"Harju", "country":"Estonia", "latitude":59.3872001, "longitude":25.3569164, "population":77}, 
{"name":"Sookaera", "state":"Harju", "country":"Estonia", "latitude":59.277609, "longitude":24.7903518, "population":37}, 
{"name":"Sookaera-Metsanurga", "state":"Harju", "country":"Estonia", "latitude":59.2690975, "longitude":24.764947, "population":21}, 
{"name":"Soorinna", "state":"Harju", "country":"Estonia", "latitude":59.4966626, "longitude":25.4966888, "population":31}, 
{"name":"Sõrve", "state":"Harju", "country":"Estonia", "latitude":59.4223401, "longitude":24.4797596, "population":207}, 
{"name":"Suru", "state":"Harju", "country":"Estonia", "latitude":59.4210688, "longitude":25.7447754, "population":9}, 
{"name":"Suuresta", "state":"Harju", "country":"Estonia", "latitude":59.3058481, "longitude":24.9981052, "population":56}, 
{"name":"Suurküla", "state":"Harju", "country":"Estonia", "latitude":59.2696675, "longitude":24.1932191, "population":32}, 
{"name":"Suurpea", "state":"Harju", "country":"Estonia", "latitude":59.614588, "longitude":25.713689, "population":117}, 
{"name":"Suursoo", "state":"Harju", "country":"Estonia", "latitude":59.2999, "longitude":25.0756565, "population":81}, 
{"name":"Suurupi", "state":"Harju", "country":"Estonia", "latitude":59.4592786, "longitude":24.394526, "population":1222}, 
{"name":"Tabara", "state":"Harju", "country":"Estonia", "latitude":59.1282964, "longitude":24.2137638, "population":37}, 
{"name":"Tabasalu", "state":"Harju", "country":"Estonia", "latitude":59.4260545, "longitude":24.5474928, "population":3938}, 
{"name":"Tade", "state":"Harju", "country":"Estonia", "latitude":59.2004595, "longitude":25.0893586, "population":132}, 
{"name":"Tagadi", "state":"Harju", "country":"Estonia", "latitude":59.2300304, "longitude":24.8162519, "population":193}, 
{"name":"Tagaküla", "state":"Harju", "country":"Estonia", "latitude":59.5822127, "longitude":24.5112216, "population":3}, 
{"name":"Tagametsa", "state":"Harju", "country":"Estonia", "latitude":59.2058704, "longitude":24.5204372, "population":91}, 
{"name":"Tallinn", "state":"Harju", "country":"Estonia", "latitude":59.4716923, "longitude":24.7382266, "population":437817, "stateCapital":true, "nationalCapital":true}, 
{"name":"Tammemäe", "state":"Harju", "country":"Estonia", "latitude":59.3187622, "longitude":24.6809347, "population":38}, 
{"name":"Tammiku", "state":"Harju", "country":"Estonia", "latitude":59.2080198, "longitude":24.9359722, "population":48}, 
{"name":"Tammispea", "state":"Harju", "country":"Estonia", "latitude":59.5564552, "longitude":25.8223728, "population":61}, 
{"name":"Tammistu", "state":"Harju", "country":"Estonia", "latitude":59.6225071, "longitude":25.5101049, "population":29}, 
{"name":"Tammneeme", "state":"Harju", "country":"Estonia", "latitude":59.5321572, "longitude":24.8839824, "population":528}, 
{"name":"Tänassilma", "state":"Harju", "country":"Estonia", "latitude":59.3370133, "longitude":24.6501091, "population":446}, 
{"name":"Tapurla", "state":"Harju", "country":"Estonia", "latitude":59.6075714, "longitude":25.5466367, "population":28}, 
{"name":"Tiskre", "state":"Harju", "country":"Estonia", "latitude":59.4230984, "longitude":24.5798258, "population":1615}, 
{"name":"Tõdva", "state":"Harju", "country":"Estonia", "latitude":59.2607872, "longitude":24.717427, "population":153}, 
{"name":"Tõhelgi", "state":"Harju", "country":"Estonia", "latitude":59.3554907, "longitude":25.1373576, "population":51}, 
{"name":"Tõmmiku", "state":"Harju", "country":"Estonia", "latitude":59.3420854, "longitude":24.3591494, "population":53}, 
{"name":"Tõreska", "state":"Harju", "country":"Estonia", "latitude":59.4094182, "longitude":25.8187167, "population":8}, 
{"name":"Triigi", "state":"Harju", "country":"Estonia", "latitude":59.0990008, "longitude":25.2417361, "population":44}, 
{"name":"Tsitre", "state":"Harju", "country":"Estonia", "latitude":59.5158349, "longitude":25.5084364, "population":17}, 
{"name":"Tuhala", "state":"Harju", "country":"Estonia", "latitude":59.2313391, "longitude":24.9775628, "population":137}, 
{"name":"Turba", "state":"Harju", "country":"Estonia", "latitude":59.0779393, "longitude":24.2387061, "population":997}, 
{"name":"Turbuneeme", "state":"Harju", "country":"Estonia", "latitude":59.6194786, "longitude":25.755448, "population":43}, 
{"name":"Türisalu", "state":"Harju", "country":"Estonia", "latitude":59.4022126, "longitude":24.322596, "population":715}, 
{"name":"Tutermaa", "state":"Harju", "country":"Estonia", "latitude":59.3218866, "longitude":24.4675167, "population":242}, 
{"name":"Tuula", "state":"Harju", "country":"Estonia", "latitude":59.2632199, "longitude":24.446446, "population":198}, 
{"name":"Tuulevälja", "state":"Harju", "country":"Estonia", "latitude":59.3846983, "longitude":24.9658332, "population":52}, 
{"name":"Tuulna", "state":"Harju", "country":"Estonia", "latitude":59.3398894, "longitude":24.2818254, "population":416}, 
{"name":"Üksnurme", "state":"Harju", "country":"Estonia", "latitude":59.2835396, "longitude":24.6270364, "population":738}, 
{"name":"Ülejõe", "state":"Harju", "country":"Estonia", "latitude":59.3408368, "longitude":25.3627953, "population":212}, 
{"name":"Ülejõe", "state":"Harju", "country":"Estonia", "latitude":59.4142203, "longitude":24.9305914, "population":179}, 
{"name":"Ülgase", "state":"Harju", "country":"Estonia", "latitude":59.4884457, "longitude":25.0671654, "population":105}, 
{"name":"Ürjaste", "state":"Harju", "country":"Estonia", "latitude":59.1098325, "longitude":24.3357579, "population":86}, 
{"name":"Urvaste", "state":"Harju", "country":"Estonia", "latitude":59.2589938, "longitude":25.098636, "population":61}, 
{"name":"Uuearu", "state":"Harju", "country":"Estonia", "latitude":59.2387114, "longitude":25.3533125, "population":38}, 
{"name":"Uuesalu", "state":"Harju", "country":"Estonia", "latitude":59.3616741, "longitude":24.8127158, "population":1001}, 
{"name":"Uueveski", "state":"Harju", "country":"Estonia", "latitude":59.1392019, "longitude":25.1885369, "population":9}, 
{"name":"Uuri", "state":"Harju", "country":"Estonia", "latitude":59.5019457, "longitude":25.5784504, "population":155}, 
{"name":"Uusküla", "state":"Harju", "country":"Estonia", "latitude":59.4897039, "longitude":25.0004395, "population":460}, 
{"name":"Vääna", "state":"Harju", "country":"Estonia", "latitude":59.3872377, "longitude":24.3907867, "population":255}, 
{"name":"Vääna-Jõesuu", "state":"Harju", "country":"Estonia", "latitude":59.4350376, "longitude":24.3622171, "population":1200}, 
{"name":"Vaela", "state":"Harju", "country":"Estonia", "latitude":59.3324278, "longitude":24.8112963, "population":717}, 
{"name":"Vahastu", "state":"Harju", "country":"Estonia", "latitude":59.4624108, "longitude":25.6087833, "population":51}, 
{"name":"Vahetüki", "state":"Harju", "country":"Estonia", "latitude":59.0736699, "longitude":25.2320728, "population":5}, 
{"name":"Vahi", "state":"Harju", "country":"Estonia", "latitude":59.3793078, "longitude":24.4486333, "population":176}, 
{"name":"Vaida", "state":"Harju", "country":"Estonia", "latitude":59.2879388, "longitude":24.9748755, "population":911}, 
{"name":"Vaidasoo", "state":"Harju", "country":"Estonia", "latitude":59.2776822, "longitude":25.0006131, "population":107}, 
{"name":"Väikeheinamaa", "state":"Harju", "country":"Estonia", "latitude":59.5535465, "longitude":24.5119065, "population":0}, 
{"name":"Vaila", "state":"Harju", "country":"Estonia", "latitude":59.4087767, "longitude":24.3972288, "population":80}, 
{"name":"Valgejõe", "state":"Harju", "country":"Estonia", "latitude":59.4651379, "longitude":25.7809403, "population":31}, 
{"name":"Valingu", "state":"Harju", "country":"Estonia", "latitude":59.3003844, "longitude":24.4729843, "population":264}, 
{"name":"Valkla", "state":"Harju", "country":"Estonia", "latitude":59.4691949, "longitude":25.3284158, "population":263}, 
{"name":"Valkse", "state":"Harju", "country":"Estonia", "latitude":59.3309349, "longitude":24.3762234, "population":142}, 
{"name":"Vanaküla", "state":"Harju", "country":"Estonia", "latitude":59.4830841, "longitude":25.7656207, "population":52}, 
{"name":"Vanamõisa", "state":"Harju", "country":"Estonia", "latitude":59.3313101, "longitude":24.5386462, "population":3}, 
{"name":"Vanamõisa", "state":"Harju", "country":"Estonia", "latitude":59.0911912, "longitude":25.454636, "population":801}, 
{"name":"Vandjala", "state":"Harju", "country":"Estonia", "latitude":59.4254605, "longitude":25.08239, "population":56}, 
{"name":"Vansi", "state":"Harju", "country":"Estonia", "latitude":59.207093, "longitude":24.3630052, "population":117}, 
{"name":"Vardja", "state":"Harju", "country":"Estonia", "latitude":59.1716818, "longitude":25.2081945, "population":205}, 
{"name":"Vasalemma", "state":"Harju", "country":"Estonia", "latitude":59.2381275, "longitude":24.2854898, "population":788}, 
{"name":"Vaskjala", "state":"Harju", "country":"Estonia", "latitude":59.3666049, "longitude":24.9485723, "population":733}, 
{"name":"Vatsla", "state":"Harju", "country":"Estonia", "latitude":59.393626, "longitude":24.5114571, "population":413}, 
{"name":"Veneküla", "state":"Harju", "country":"Estonia", "latitude":59.4245681, "longitude":24.9183117, "population":42}, 
{"name":"Veskiküla", "state":"Harju", "country":"Estonia", "latitude":59.2410304, "longitude":24.2324542, "population":112}, 
{"name":"Veskitaguse", "state":"Harju", "country":"Estonia", "latitude":59.3206373, "longitude":24.9621937, "population":90}, 
{"name":"Vetla", "state":"Harju", "country":"Estonia", "latitude":59.2264817, "longitude":25.4615339, "population":55}, 
{"name":"Vihasoo", "state":"Harju", "country":"Estonia", "latitude":59.5605143, "longitude":25.7941573, "population":208}, 
{"name":"Vihterpalu", "state":"Harju", "country":"Estonia", "latitude":59.2480165, "longitude":23.8821533, "population":50}, 
{"name":"Viimsi", "state":"Harju", "country":"Estonia", "latitude":59.500192, "longitude":24.8474561, "population":2703}, 
{"name":"Viinistu", "state":"Harju", "country":"Estonia", "latitude":59.6526642, "longitude":25.7667623, "population":97}, 
{"name":"Vikipalu", "state":"Harju", "country":"Estonia", "latitude":59.3344867, "longitude":25.4748922, "population":101}, 
{"name":"Vilama", "state":"Harju", "country":"Estonia", "latitude":59.1984822, "longitude":25.2916476, "population":13}, 
{"name":"Vilivalla", "state":"Harju", "country":"Estonia", "latitude":59.2352063, "longitude":23.9518425, "population":48}, 
{"name":"Vilumäe", "state":"Harju", "country":"Estonia", "latitude":59.1212264, "longitude":24.2809446, "population":43}, 
{"name":"Vintse", "state":"Harju", "country":"Estonia", "latitude":59.268837, "longitude":23.85016, "population":34}, 
{"name":"Virla", "state":"Harju", "country":"Estonia", "latitude":59.0528456, "longitude":25.2600827, "population":24}, 
{"name":"Viruküla", "state":"Harju", "country":"Estonia", "latitude":59.0898815, "longitude":24.2114732, "population":21}, 
{"name":"Virve", "state":"Harju", "country":"Estonia", "latitude":59.5902976, "longitude":25.5651114, "population":12}, 
{"name":"Viskla", "state":"Harju", "country":"Estonia", "latitude":59.2238914, "longitude":25.2008004, "population":77}, 
{"name":"Viti", "state":"Harju", "country":"Estonia", "latitude":59.440747, "longitude":24.395503, "population":643}, 
{"name":"Võerdla", "state":"Harju", "country":"Estonia", "latitude":59.4612425, "longitude":25.0463753, "population":11}, 
{"name":"Võlle", "state":"Harju", "country":"Estonia", "latitude":59.1913747, "longitude":25.2358942, "population":74}, 
{"name":"Voose", "state":"Harju", "country":"Estonia", "latitude":59.1791959, "longitude":25.4485269, "population":67}, 
{"name":"Aadma", "state":"Hiiu", "country":"Estonia", "latitude":58.8016005, "longitude":22.6477922, "population":19}, 
{"name":"Ala", "state":"Hiiu", "country":"Estonia", "latitude":58.9488949, "longitude":22.8123444, "population":21}, 
{"name":"Allika", "state":"Hiiu", "country":"Estonia", "latitude":58.8449647, "longitude":22.7723805, "population":24}, 
{"name":"Aruküla", "state":"Hiiu", "country":"Estonia", "latitude":58.8627539, "longitude":23.0071669, "population":22}, 
{"name":"Emmaste", "state":"Hiiu", "country":"Estonia", "latitude":58.7021295, "longitude":22.5883704, "population":206}, 
{"name":"Emmaste-Kurisu", "state":"Hiiu", "country":"Estonia", "latitude":58.7760996, "longitude":22.5619296, "population":14}, 
{"name":"Emmaste-Selja", "state":"Hiiu", "country":"Estonia", "latitude":58.7674695, "longitude":22.516123, "population":3}, 
{"name":"Esiküla", "state":"Hiiu", "country":"Estonia", "latitude":58.8118369, "longitude":22.8561326, "population":83}, 
{"name":"Hagaste", "state":"Hiiu", "country":"Estonia", "latitude":58.9210221, "longitude":22.9758917, "population":13}, 
{"name":"Haldi", "state":"Hiiu", "country":"Estonia", "latitude":58.8076907, "longitude":22.4618385, "population":18}, 
{"name":"Haldreka", "state":"Hiiu", "country":"Estonia", "latitude":58.7907986, "longitude":22.4619954, "population":0}, 
{"name":"Harju", "state":"Hiiu", "country":"Estonia", "latitude":58.7445402, "longitude":22.626686, "population":59}, 
{"name":"Härma", "state":"Hiiu", "country":"Estonia", "latitude":58.7983483, "longitude":22.4676605, "population":12}, 
{"name":"Hausma", "state":"Hiiu", "country":"Estonia", "latitude":58.9925453, "longitude":22.7895081, "population":57}, 
{"name":"Heigi", "state":"Hiiu", "country":"Estonia", "latitude":58.9753554, "longitude":22.5700451, "population":10}, 
{"name":"Heiste", "state":"Hiiu", "country":"Estonia", "latitude":58.9236547, "longitude":22.5117459, "population":10}, 
{"name":"Heistesoo", "state":"Hiiu", "country":"Estonia", "latitude":58.9266691, "longitude":22.2892623, "population":6}, 
{"name":"Hellamaa", "state":"Hiiu", "country":"Estonia", "latitude":58.9288225, "longitude":22.9269919, "population":66}, 
{"name":"Heltermaa", "state":"Hiiu", "country":"Estonia", "latitude":58.8663285, "longitude":23.0357623, "population":29}, 
{"name":"Hiiessaare", "state":"Hiiu", "country":"Estonia", "latitude":58.9979214, "longitude":22.8406217, "population":26}, 
{"name":"Hilleste", "state":"Hiiu", "country":"Estonia", "latitude":58.8841216, "longitude":22.9789178, "population":15}, 
{"name":"Hindu", "state":"Hiiu", "country":"Estonia", "latitude":58.7042166, "longitude":22.4933311, "population":75}, 
{"name":"Hirmuste", "state":"Hiiu", "country":"Estonia", "latitude":58.929902, "longitude":22.1307486, "population":15}, 
{"name":"Hüti", "state":"Hiiu", "country":"Estonia", "latitude":58.9109028, "longitude":22.4876, "population":4}, 
{"name":"Isabella", "state":"Hiiu", "country":"Estonia", "latitude":58.9445401, "longitude":22.5268399, "population":37}, 
{"name":"Jausa", "state":"Hiiu", "country":"Estonia", "latitude":58.7732401, "longitude":22.6901855, "population":90}, 
{"name":"Jõeküla", "state":"Hiiu", "country":"Estonia", "latitude":58.8422662, "longitude":22.8816124, "population":16}, 
{"name":"Jõeranna", "state":"Hiiu", "country":"Estonia", "latitude":58.953674, "longitude":22.4874379, "population":33}, 
{"name":"Jõesuu", "state":"Hiiu", "country":"Estonia", "latitude":58.8949754, "longitude":22.4371562, "population":3}, 
{"name":"Kaasiku", "state":"Hiiu", "country":"Estonia", "latitude":58.8683221, "longitude":22.8356104, "population":7}, 
{"name":"Kabuna", "state":"Hiiu", "country":"Estonia", "latitude":58.7394048, "longitude":22.5466027, "population":3}, 
{"name":"Kaderna", "state":"Hiiu", "country":"Estonia", "latitude":58.8091121, "longitude":22.5181289, "population":2}, 
{"name":"Kaigutsi", "state":"Hiiu", "country":"Estonia", "latitude":58.8404276, "longitude":22.6842301, "population":38}, 
{"name":"Käina", "state":"Hiiu", "country":"Estonia", "latitude":58.8262632, "longitude":22.7774377, "population":667}, 
{"name":"Kalana", "state":"Hiiu", "country":"Estonia", "latitude":58.9300645, "longitude":22.0737832, "population":30}, 
{"name":"Kaleste", "state":"Hiiu", "country":"Estonia", "latitude":58.9057565, "longitude":22.1395189, "population":8}, 
{"name":"Kalgi", "state":"Hiiu", "country":"Estonia", "latitude":58.8514811, "longitude":22.914639, "population":15}, 
{"name":"Kanapeeksi", "state":"Hiiu", "country":"Estonia", "latitude":58.9600667, "longitude":22.6654967, "population":3}, 
{"name":"Kärdla", "state":"Hiiu", "country":"Estonia", "latitude":58.9949965, "longitude":22.7417924, "population":3046, "stateCapital":true}, 
{"name":"Kärdla-Nõmme", "state":"Hiiu", "country":"Estonia", "latitude":58.985619, "longitude":22.7157193, "population":35}, 
{"name":"Kassari", "state":"Hiiu", "country":"Estonia", "latitude":58.7781437, "longitude":22.8184637, "population":77}, 
{"name":"Kauste", "state":"Hiiu", "country":"Estonia", "latitude":59.0445078, "longitude":22.6038311, "population":9}, 
{"name":"Kerema", "state":"Hiiu", "country":"Estonia", "latitude":58.8959672, "longitude":22.954548, "population":19}, 
{"name":"Kidaste", "state":"Hiiu", "country":"Estonia", "latitude":58.9993047, "longitude":22.5925612, "population":31}, 
{"name":"Kiduspe", "state":"Hiiu", "country":"Estonia", "latitude":58.8955921, "longitude":22.2591017, "population":23}, 
{"name":"Kiivera", "state":"Hiiu", "country":"Estonia", "latitude":58.9044524, "longitude":22.4673928, "population":0}, 
{"name":"Kitsa", "state":"Hiiu", "country":"Estonia", "latitude":58.7858574, "longitude":22.4723194, "population":11}, 
{"name":"Kleemu", "state":"Hiiu", "country":"Estonia", "latitude":58.8118839, "longitude":22.6776161, "population":12}, 
{"name":"Kodeste", "state":"Hiiu", "country":"Estonia", "latitude":59.0257395, "longitude":22.6235215, "population":17}, 
{"name":"Kogri", "state":"Hiiu", "country":"Estonia", "latitude":58.8457601, "longitude":22.8157705, "population":27}, 
{"name":"Koidma", "state":"Hiiu", "country":"Estonia", "latitude":58.9640272, "longitude":22.6198898, "population":10}, 
{"name":"Kolga", "state":"Hiiu", "country":"Estonia", "latitude":58.8497435, "longitude":22.7307894, "population":28}, 
{"name":"Kõlunõmme", "state":"Hiiu", "country":"Estonia", "latitude":58.9734224, "longitude":22.8843872, "population":33}, 
{"name":"Kõmmusselja", "state":"Hiiu", "country":"Estonia", "latitude":58.7213317, "longitude":22.605104, "population":10}, 
{"name":"Kopa", "state":"Hiiu", "country":"Estonia", "latitude":58.9191798, "longitude":22.4076967, "population":9}, 
{"name":"Kõpu", "state":"Hiiu", "country":"Estonia", "latitude":58.9104293, "longitude":22.2258064, "population":34}, 
{"name":"Kõrgessaare", "state":"Hiiu", "country":"Estonia", "latitude":58.9817053, "longitude":22.4681312, "population":345}, 
{"name":"Kukka", "state":"Hiiu", "country":"Estonia", "latitude":58.9973337, "longitude":22.9046681, "population":20}, 
{"name":"Külaküla", "state":"Hiiu", "country":"Estonia", "latitude":58.7779896, "longitude":22.4869002, "population":21}, 
{"name":"Külama", "state":"Hiiu", "country":"Estonia", "latitude":58.7416334, "longitude":22.5262504, "population":17}, 
{"name":"Kuri", "state":"Hiiu", "country":"Estonia", "latitude":58.9635712, "longitude":22.9534309, "population":38}, 
{"name":"Kuriste", "state":"Hiiu", "country":"Estonia", "latitude":58.792993, "longitude":22.6336177, "population":15}, 
{"name":"Kurisu", "state":"Hiiu", "country":"Estonia", "latitude":58.9537564, "longitude":22.5682177, "population":28}, 
{"name":"Kuusiku", "state":"Hiiu", "country":"Estonia", "latitude":58.7949794, "longitude":22.543777, "population":13}, 
{"name":"Laartsa", "state":"Hiiu", "country":"Estonia", "latitude":58.7991844, "longitude":22.4777021, "population":10}, 
{"name":"Laasi", "state":"Hiiu", "country":"Estonia", "latitude":58.9017966, "longitude":22.3345301, "population":7}, 
{"name":"Laheküla", "state":"Hiiu", "country":"Estonia", "latitude":58.8235424, "longitude":22.8018168, "population":5}, 
{"name":"Lassi", "state":"Hiiu", "country":"Estonia", "latitude":58.7753466, "longitude":22.5276798, "population":27}, 
{"name":"Lauka", "state":"Hiiu", "country":"Estonia", "latitude":58.9607616, "longitude":22.5282366, "population":111}, 
{"name":"Leerimetsa", "state":"Hiiu", "country":"Estonia", "latitude":58.9235525, "longitude":22.861575, "population":0}, 
{"name":"Lehtma", "state":"Hiiu", "country":"Estonia", "latitude":59.0630365, "longitude":22.6520009, "population":3}, 
{"name":"Leigri", "state":"Hiiu", "country":"Estonia", "latitude":58.9001026, "longitude":22.5993298, "population":1}, 
{"name":"Leisu", "state":"Hiiu", "country":"Estonia", "latitude":58.7795755, "longitude":22.503968, "population":18}, 
{"name":"Lelu", "state":"Hiiu", "country":"Estonia", "latitude":58.8101527, "longitude":22.5862122, "population":30}, 
{"name":"Lepiku", "state":"Hiiu", "country":"Estonia", "latitude":58.6963327, "longitude":22.5447848, "population":17}, 
{"name":"Ligema", "state":"Hiiu", "country":"Estonia", "latitude":58.7854322, "longitude":22.6082918, "population":5}, 
{"name":"Lilbi", "state":"Hiiu", "country":"Estonia", "latitude":58.9271024, "longitude":22.5694111, "population":4}, 
{"name":"Linnumäe", "state":"Hiiu", "country":"Estonia", "latitude":58.9883655, "longitude":22.7634122, "population":28}, 
{"name":"Lõbembe", "state":"Hiiu", "country":"Estonia", "latitude":58.980885, "longitude":22.8468955, "population":3}, 
{"name":"Loja", "state":"Hiiu", "country":"Estonia", "latitude":58.9301526, "longitude":22.8211453, "population":12}, 
{"name":"Lõpe", "state":"Hiiu", "country":"Estonia", "latitude":58.956629, "longitude":22.813429, "population":144}, 
{"name":"Luguse", "state":"Hiiu", "country":"Estonia", "latitude":58.8147486, "longitude":22.7173653, "population":49}, 
{"name":"Luidja", "state":"Hiiu", "country":"Estonia", "latitude":58.9259226, "longitude":22.3752156, "population":51}, 
{"name":"Määvli", "state":"Hiiu", "country":"Estonia", "latitude":58.9323538, "longitude":22.7115754, "population":0}, 
{"name":"Mäeküla", "state":"Hiiu", "country":"Estonia", "latitude":58.8359545, "longitude":22.7772669, "population":7}, 
{"name":"Mäeltse", "state":"Hiiu", "country":"Estonia", "latitude":58.8506635, "longitude":22.7429349, "population":18}, 
{"name":"Mägipe", "state":"Hiiu", "country":"Estonia", "latitude":58.9258867, "longitude":22.2234481, "population":14}, 
{"name":"Malvaste", "state":"Hiiu", "country":"Estonia", "latitude":59.0205144, "longitude":22.6036723, "population":6}, 
{"name":"Mangu", "state":"Hiiu", "country":"Estonia", "latitude":59.0349399, "longitude":22.5792013, "population":4}, 
{"name":"Männamaa", "state":"Hiiu", "country":"Estonia", "latitude":58.8482262, "longitude":22.601542, "population":102}, 
{"name":"Mänspe", "state":"Hiiu", "country":"Estonia", "latitude":58.8245922, "longitude":22.5001502, "population":25}, 
{"name":"Mardihansu", "state":"Hiiu", "country":"Estonia", "latitude":58.8899477, "longitude":22.4110577, "population":1}, 
{"name":"Meelste", "state":"Hiiu", "country":"Estonia", "latitude":59.054529, "longitude":22.5981747, "population":4}, 
{"name":"Metsaküla", "state":"Hiiu", "country":"Estonia", "latitude":58.946916, "longitude":22.5975701, "population":3}, 
{"name":"Metsalauka", "state":"Hiiu", "country":"Estonia", "latitude":58.7256154, "longitude":22.5814066, "population":10}, 
{"name":"Metsapere", "state":"Hiiu", "country":"Estonia", "latitude":58.7963338, "longitude":22.5028566, "population":8}, 
{"name":"Moka", "state":"Hiiu", "country":"Estonia", "latitude":58.8389677, "longitude":22.7569474, "population":32}, 
{"name":"Muda", "state":"Hiiu", "country":"Estonia", "latitude":58.773936, "longitude":22.6227297, "population":24}, 
{"name":"Mudaste", "state":"Hiiu", "country":"Estonia", "latitude":59.0226506, "longitude":22.5524306, "population":11}, 
{"name":"Napi", "state":"Hiiu", "country":"Estonia", "latitude":58.9577181, "longitude":22.5103089, "population":4}, 
{"name":"Nasva", "state":"Hiiu", "country":"Estonia", "latitude":58.8108517, "longitude":22.7616156, "population":37}, 
{"name":"Niidiküla", "state":"Hiiu", "country":"Estonia", "latitude":58.8385138, "longitude":22.8427497, "population":16}, 
{"name":"Nõmba", "state":"Hiiu", "country":"Estonia", "latitude":58.9056473, "longitude":22.7538629, "population":44}, 
{"name":"Nõmme", "state":"Hiiu", "country":"Estonia", "latitude":58.8345609, "longitude":22.7411802, "population":61}, 
{"name":"Nõmmerga", "state":"Hiiu", "country":"Estonia", "latitude":58.8743768, "longitude":22.669208, "population":0}, 
{"name":"Nurste", "state":"Hiiu", "country":"Estonia", "latitude":58.7878247, "longitude":22.4922172, "population":47}, 
{"name":"Ogandi", "state":"Hiiu", "country":"Estonia", "latitude":59.010935, "longitude":22.5584951, "population":1}, 
{"name":"Ojaküla", "state":"Hiiu", "country":"Estonia", "latitude":58.9035484, "longitude":22.1882684, "population":7}, 
{"name":"Ole", "state":"Hiiu", "country":"Estonia", "latitude":58.7652906, "longitude":22.4947156, "population":4}, 
{"name":"Õngu", "state":"Hiiu", "country":"Estonia", "latitude":58.8635969, "longitude":22.4806726, "population":33}, 
{"name":"Orjaku", "state":"Hiiu", "country":"Estonia", "latitude":58.7872353, "longitude":22.7790069, "population":75}, 
{"name":"Otste", "state":"Hiiu", "country":"Estonia", "latitude":58.9684162, "longitude":22.5217949, "population":22}, 
{"name":"Palade", "state":"Hiiu", "country":"Estonia", "latitude":58.9684758, "longitude":22.8518427, "population":26}, 
{"name":"Palli", "state":"Hiiu", "country":"Estonia", "latitude":58.937029, "longitude":22.3028064, "population":0}, 
{"name":"Paluküla", "state":"Hiiu", "country":"Estonia", "latitude":58.9739031, "longitude":22.8004458, "population":68}, 
{"name":"Paope", "state":"Hiiu", "country":"Estonia", "latitude":58.9514609, "longitude":22.4334655, "population":53}, 
{"name":"Pärna", "state":"Hiiu", "country":"Estonia", "latitude":58.6981505, "longitude":22.5247585, "population":25}, 
{"name":"Pärnselja", "state":"Hiiu", "country":"Estonia", "latitude":58.8285683, "longitude":22.5980438, "population":4}, 
{"name":"Partsi", "state":"Hiiu", "country":"Estonia", "latitude":58.9491936, "longitude":22.8647372, "population":42}, 
{"name":"Pihla", "state":"Hiiu", "country":"Estonia", "latitude":58.9813154, "longitude":22.5168362, "population":19}, 
{"name":"Pilpaküla", "state":"Hiiu", "country":"Estonia", "latitude":58.9816425, "longitude":22.7194009, "population":34}, 
{"name":"Poama", "state":"Hiiu", "country":"Estonia", "latitude":58.9288465, "longitude":22.346674, "population":7}, 
{"name":"Prählamäe", "state":"Hiiu", "country":"Estonia", "latitude":58.9739802, "longitude":22.7337717, "population":12}, 
{"name":"Prähnu", "state":"Hiiu", "country":"Estonia", "latitude":58.7686495, "longitude":22.4932296, "population":6}, 
{"name":"Prassi", "state":"Hiiu", "country":"Estonia", "latitude":58.7183002, "longitude":22.6399505, "population":7}, 
{"name":"Pühalepa", "state":"Hiiu", "country":"Estonia", "latitude":58.8788931, "longitude":22.9612922, "population":6}, 
{"name":"Pühalepa-Harju", "state":"Hiiu", "country":"Estonia", "latitude":58.9530934, "longitude":22.8984574, "population":10}, 
{"name":"Puliste", "state":"Hiiu", "country":"Estonia", "latitude":58.9232515, "longitude":22.9616466, "population":13}, 
{"name":"Puski", "state":"Hiiu", "country":"Estonia", "latitude":58.9160587, "longitude":22.4266309, "population":10}, 
{"name":"Putkaste", "state":"Hiiu", "country":"Estonia", "latitude":58.8381954, "longitude":22.7999797, "population":105}, 
{"name":"Rannaküla", "state":"Hiiu", "country":"Estonia", "latitude":58.6944168, "longitude":22.5733907, "population":24}, 
{"name":"Reheselja", "state":"Hiiu", "country":"Estonia", "latitude":58.7097886, "longitude":22.5311529, "population":24}, 
{"name":"Reigi", "state":"Hiiu", "country":"Estonia", "latitude":59.0067193, "longitude":22.5253053, "population":34}, 
{"name":"Reigi-Nõmme", "state":"Hiiu", "country":"Estonia", "latitude":58.9004551, "longitude":22.3982088, "population":3}, 
{"name":"Reikama", "state":"Hiiu", "country":"Estonia", "latitude":58.9359404, "longitude":22.8908021, "population":17}, 
{"name":"Riidaküla", "state":"Hiiu", "country":"Estonia", "latitude":58.7126607, "longitude":22.5779917, "population":11}, 
{"name":"Risti", "state":"Hiiu", "country":"Estonia", "latitude":59.0087707, "longitude":22.6427148, "population":9}, 
{"name":"Ristivälja", "state":"Hiiu", "country":"Estonia", "latitude":58.866751, "longitude":22.7583327, "population":55}, 
{"name":"Rootsi", "state":"Hiiu", "country":"Estonia", "latitude":58.9987096, "longitude":22.5024314, "population":20}, 
{"name":"Sääre", "state":"Hiiu", "country":"Estonia", "latitude":58.9648173, "longitude":22.916204, "population":32}, 
{"name":"Sakla", "state":"Hiiu", "country":"Estonia", "latitude":58.9510994, "longitude":22.8305766, "population":30}, 
{"name":"Salinõmme", "state":"Hiiu", "country":"Estonia", "latitude":58.795912, "longitude":23.0533461, "population":20}, 
{"name":"Sarve", "state":"Hiiu", "country":"Estonia", "latitude":58.8313637, "longitude":23.0799869, "population":28}, 
{"name":"Selja", "state":"Hiiu", "country":"Estonia", "latitude":58.8295248, "longitude":22.7352507, "population":60}, 
{"name":"Sepaste", "state":"Hiiu", "country":"Estonia", "latitude":58.7208566, "longitude":22.5145969, "population":6}, 
{"name":"Sigala", "state":"Hiiu", "country":"Estonia", "latitude":59.0121827, "longitude":22.5355793, "population":3}, 
{"name":"Sinima", "state":"Hiiu", "country":"Estonia", "latitude":58.7579453, "longitude":22.5246352, "population":14}, 
{"name":"Soonlepa", "state":"Hiiu", "country":"Estonia", "latitude":58.8480526, "longitude":23.0155213, "population":32}, 
{"name":"Sõru", "state":"Hiiu", "country":"Estonia", "latitude":58.7029229, "longitude":22.5081395, "population":12}, 
{"name":"Sülluste", "state":"Hiiu", "country":"Estonia", "latitude":58.8978807, "longitude":22.5149427, "population":0}, 
{"name":"Suuremõisa", "state":"Hiiu", "country":"Estonia", "latitude":58.8806312, "longitude":22.9096812, "population":208}, 
{"name":"Suurepsi", "state":"Hiiu", "country":"Estonia", "latitude":58.9266109, "longitude":22.1790278, "population":6}, 
{"name":"Suureranna", "state":"Hiiu", "country":"Estonia", "latitude":58.8982524, "longitude":22.2951435, "population":23}, 
{"name":"Suuresadama", "state":"Hiiu", "country":"Estonia", "latitude":58.9782006, "longitude":22.9155837, "population":10}, 
{"name":"Taguküla", "state":"Hiiu", "country":"Estonia", "latitude":58.7910753, "longitude":22.8715122, "population":35}, 
{"name":"Tahkuna", "state":"Hiiu", "country":"Estonia", "latitude":59.0758211, "longitude":22.5961738, "population":6}, 
{"name":"Tammela", "state":"Hiiu", "country":"Estonia", "latitude":58.8982765, "longitude":22.8080741, "population":9}, 
{"name":"Tammistu", "state":"Hiiu", "country":"Estonia", "latitude":58.9000988, "longitude":22.3663633, "population":3}, 
{"name":"Tareste", "state":"Hiiu", "country":"Estonia", "latitude":59.0164587, "longitude":22.6851666, "population":12}, 
{"name":"Tärkma", "state":"Hiiu", "country":"Estonia", "latitude":58.6984904, "longitude":22.6078889, "population":22}, 
{"name":"Taterma", "state":"Hiiu", "country":"Estonia", "latitude":58.8005766, "longitude":22.6223867, "population":16}, 
{"name":"Tempa", "state":"Hiiu", "country":"Estonia", "latitude":58.9173839, "longitude":22.914527, "population":17}, 
{"name":"Tiharu", "state":"Hiiu", "country":"Estonia", "latitude":58.8883767, "longitude":22.2351669, "population":0}, 
{"name":"Tilga", "state":"Hiiu", "country":"Estonia", "latitude":58.7058853, "longitude":22.6299153, "population":27}, 
{"name":"Tohvri", "state":"Hiiu", "country":"Estonia", "latitude":58.7168438, "longitude":22.4798073, "population":0}, 
{"name":"Tubala", "state":"Hiiu", "country":"Estonia", "latitude":58.938083, "longitude":22.7372335, "population":61}, 
{"name":"Ühtri", "state":"Hiiu", "country":"Estonia", "latitude":58.8183655, "longitude":22.6416779, "population":27}, 
{"name":"Ülendi", "state":"Hiiu", "country":"Estonia", "latitude":58.8898169, "longitude":22.2012233, "population":17}, 
{"name":"Ulja", "state":"Hiiu", "country":"Estonia", "latitude":58.7608813, "longitude":22.6273288, "population":11}, 
{"name":"Undama", "state":"Hiiu", "country":"Estonia", "latitude":58.8965754, "longitude":22.8419906, "population":11}, 
{"name":"Utu", "state":"Hiiu", "country":"Estonia", "latitude":58.7999456, "longitude":22.7150054, "population":13}, 
{"name":"Vaemla", "state":"Hiiu", "country":"Estonia", "latitude":58.8298414, "longitude":22.8344751, "population":35}, 
{"name":"Vahtrepa", "state":"Hiiu", "country":"Estonia", "latitude":58.9082296, "longitude":23.045047, "population":40}, 
{"name":"Valgu", "state":"Hiiu", "country":"Estonia", "latitude":58.760315, "longitude":22.6593711, "population":42}, 
{"name":"Valipe", "state":"Hiiu", "country":"Estonia", "latitude":58.8587154, "longitude":22.9611704, "population":10}, 
{"name":"Vanamõisa", "state":"Hiiu", "country":"Estonia", "latitude":58.7473795, "longitude":22.4919676, "population":9}, 
{"name":"Värssu", "state":"Hiiu", "country":"Estonia", "latitude":58.9240585, "longitude":22.9529832, "population":16}, 
{"name":"Viilupi", "state":"Hiiu", "country":"Estonia", "latitude":58.8766646, "longitude":22.8940216, "population":31}, 
{"name":"Viiri", "state":"Hiiu", "country":"Estonia", "latitude":58.7098874, "longitude":22.5484972, "population":20}, 
{"name":"Viita", "state":"Hiiu", "country":"Estonia", "latitude":58.9049909, "longitude":22.3465461, "population":0}, 
{"name":"Viitasoo", "state":"Hiiu", "country":"Estonia", "latitude":58.9073056, "longitude":22.3635437, "population":0}, 
{"name":"Vilima", "state":"Hiiu", "country":"Estonia", "latitude":58.8974999, "longitude":22.2367816, "population":4}, 
{"name":"Vilivalla", "state":"Hiiu", "country":"Estonia", "latitude":58.9117025, "longitude":22.8513546, "population":19}, 
{"name":"Villamaa", "state":"Hiiu", "country":"Estonia", "latitude":58.9186528, "longitude":22.3906972, "population":13}, 
{"name":"Villemi", "state":"Hiiu", "country":"Estonia", "latitude":58.8656026, "longitude":22.7966957, "population":25}, 
{"name":"Aa", "state":"Ida-Viru", "country":"Estonia", "latitude":59.3992911, "longitude":27.1676798, "population":174}, 
{"name":"Agusalu", "state":"Ida-Viru", "country":"Estonia", "latitude":59.1006953, "longitude":27.6564955, "population":9}, 
{"name":"Aidu", "state":"Ida-Viru", "country":"Estonia", "latitude":59.315418, "longitude":27.070815, "population":0}, 
{"name":"Aidu-Liiva", "state":"Ida-Viru", "country":"Estonia", "latitude":59.346758, "longitude":27.09525, "population":6}, 
{"name":"Aidu-Nõmme", "state":"Ida-Viru", "country":"Estonia", "latitude":59.3259968, "longitude":27.1331975, "population":4}, 
{"name":"Aidu-Sooküla", "state":"Ida-Viru", "country":"Estonia", "latitude":59.3222927, "longitude":27.034799, "population":9}, 
{"name":"Alajõe", "state":"Ida-Viru", "country":"Estonia", "latitude":59.0317872, "longitude":27.426661, "population":101}, 
{"name":"Alliku", "state":"Ida-Viru", "country":"Estonia", "latitude":59.0690061, "longitude":27.2461094, "population":29}, 
{"name":"Altküla", "state":"Ida-Viru", "country":"Estonia", "latitude":59.4119209, "longitude":27.4879407, "population":74}, 
{"name":"Amula", "state":"Ida-Viru", "country":"Estonia", "latitude":59.4164932, "longitude":27.3453395, "population":24}, 
{"name":"Apandiku", "state":"Ida-Viru", "country":"Estonia", "latitude":59.2973271, "longitude":27.2445979, "population":24}, 
{"name":"Aruküla", "state":"Ida-Viru", "country":"Estonia", "latitude":59.2562843, "longitude":27.3064674, "population":10}, 
{"name":"Aruküla", "state":"Ida-Viru", "country":"Estonia", "latitude":59.2979285, "longitude":27.027076, "population":24}, 
{"name":"Arumäe", "state":"Ida-Viru", "country":"Estonia", "latitude":59.3499364, "longitude":28.0159727, "population":24}, 
{"name":"Arupäälse", "state":"Ida-Viru", "country":"Estonia", "latitude":59.3004653, "longitude":27.0094372, "population":3}, 
{"name":"Aruvälja", "state":"Ida-Viru", "country":"Estonia", "latitude":59.2926773, "longitude":26.988418, "population":16}, 
{"name":"Arvila", "state":"Ida-Viru", "country":"Estonia", "latitude":59.2375201, "longitude":27.2123592, "population":21}, 
{"name":"Atsalama", "state":"Ida-Viru", "country":"Estonia", "latitude":59.2296611, "longitude":27.3717156, "population":92}, 
{"name":"Auvere", "state":"Ida-Viru", "country":"Estonia", "latitude":59.3054756, "longitude":27.9254679, "population":27}, 
{"name":"Edise", "state":"Ida-Viru", "country":"Estonia", "latitude":59.3719657, "longitude":27.3779539, "population":187}, 
{"name":"Edivere", "state":"Ida-Viru", "country":"Estonia", "latitude":59.2383345, "longitude":27.5150512, "population":23}, 
{"name":"Ereda", "state":"Ida-Viru", "country":"Estonia", "latitude":59.3156285, "longitude":27.2592981, "population":56}, 
{"name":"Erra", "state":"Ida-Viru", "country":"Estonia", "latitude":59.3769168, "longitude":26.9919727, "population":135}, 
{"name":"Erra-Liiva", "state":"Ida-Viru", "country":"Estonia", "latitude":59.3632009, "longitude":27.0053876, "population":56}, 
{"name":"Hiiemetsa", "state":"Ida-Viru", "country":"Estonia", "latitude":59.3742687, "longitude":27.9517508, "population":12}, 
{"name":"Hirmuse", "state":"Ida-Viru", "country":"Estonia", "latitude":59.3329397, "longitude":26.9781696, "population":16}, 
{"name":"Hundinurga", "state":"Ida-Viru", "country":"Estonia", "latitude":59.3573824, "longitude":27.8683426, "population":21}, 
{"name":"Iisaku", "state":"Ida-Viru", "country":"Estonia", "latitude":59.0969171, "longitude":27.3087335, "population":707}, 
{"name":"Illuka", "state":"Ida-Viru", "country":"Estonia", "latitude":59.2376588, "longitude":27.4768119, "population":62}, 
{"name":"Ilmaste", "state":"Ida-Viru", "country":"Estonia", "latitude":59.3624169, "longitude":26.8659922, "population":3}, 
{"name":"Imatu", "state":"Ida-Viru", "country":"Estonia", "latitude":59.0987004, "longitude":27.4912661, "population":2}, 
{"name":"Irvala", "state":"Ida-Viru", "country":"Estonia", "latitude":59.3542429, "longitude":27.0272402, "population":21}, 
{"name":"Jaama", "state":"Ida-Viru", "country":"Estonia", "latitude":59.0422769, "longitude":27.6760411, "population":57}, 
{"name":"Jabara", "state":"Ida-Viru", "country":"Estonia", "latitude":59.4189116, "longitude":27.0549632, "population":38}, 
{"name":"Järve", "state":"Ida-Viru", "country":"Estonia", "latitude":59.406518, "longitude":27.3177781, "population":523}, 
{"name":"Jõetaguse", "state":"Ida-Viru", "country":"Estonia", "latitude":59.2829489, "longitude":27.398194, "population":19}, 
{"name":"Jõhvi", "state":"Ida-Viru", "country":"Estonia", "latitude":59.3532801, "longitude":27.3977529, "population":10482, "stateCapital":true}, 
{"name":"Jõhvi", "state":"Ida-Viru", "country":"Estonia", "latitude":59.3574142, "longitude":27.4238202, "population":376}, 
{"name":"Jõuga", "state":"Ida-Viru", "country":"Estonia", "latitude":59.1539438, "longitude":27.3765376, "population":37}, 
{"name":"Kaasikaia", "state":"Ida-Viru", "country":"Estonia", "latitude":59.4170142, "longitude":27.2921068, "population":24}, 
{"name":"Kaasikvälja", "state":"Ida-Viru", "country":"Estonia", "latitude":59.4233878, "longitude":27.3080615, "population":20}, 
{"name":"Kaatermu", "state":"Ida-Viru", "country":"Estonia", "latitude":59.1591861, "longitude":27.5410892, "population":7}, 
{"name":"Kabelimetsa", "state":"Ida-Viru", "country":"Estonia", "latitude":59.3782559, "longitude":27.3540128, "population":88}, 
{"name":"Kahula", "state":"Ida-Viru", "country":"Estonia", "latitude":59.3208164, "longitude":27.3216271, "population":150}, 
{"name":"Kaidma", "state":"Ida-Viru", "country":"Estonia", "latitude":59.1910692, "longitude":27.5047209, "population":20}, 
{"name":"Kalina", "state":"Ida-Viru", "country":"Estonia", "latitude":59.2776051, "longitude":27.3387894, "population":58}, 
{"name":"Kamarna", "state":"Ida-Viru", "country":"Estonia", "latitude":59.0920773, "longitude":27.5542546, "population":5}, 
{"name":"Karjamaa", "state":"Ida-Viru", "country":"Estonia", "latitude":59.0408649, "longitude":27.4828953, "population":32}, 
{"name":"Karoli", "state":"Ida-Viru", "country":"Estonia", "latitude":59.0481329, "longitude":27.7412416, "population":14}, 
{"name":"Kasevälja", "state":"Ida-Viru", "country":"Estonia", "latitude":59.0862695, "longitude":27.331721, "population":32}, 
{"name":"Katase", "state":"Ida-Viru", "country":"Estonia", "latitude":59.0267394, "longitude":27.3749666, "population":54}, 
{"name":"Kauksi", "state":"Ida-Viru", "country":"Estonia", "latitude":59.0159706, "longitude":27.2159718, "population":47}, 
{"name":"Kellassaare", "state":"Ida-Viru", "country":"Estonia", "latitude":59.066671, "longitude":26.9894058, "population":12}, 
{"name":"Kiikla", "state":"Ida-Viru", "country":"Estonia", "latitude":59.2755083, "longitude":27.1927907, "population":218}, 
{"name":"Kivinõmme", "state":"Ida-Viru", "country":"Estonia", "latitude":59.1575718, "longitude":27.5998818, "population":7}, 
{"name":"Kiviõli", "state":"Ida-Viru", "country":"Estonia", "latitude":59.3530528, "longitude":26.9699078, "population":4854}, 
{"name":"Kohtla", "state":"Ida-Viru", "country":"Estonia", "latitude":59.3524783, "longitude":27.2245094, "population":64}, 
{"name":"Kohtla-Järve", "state":"Ida-Viru", "country":"Estonia", "latitude":59.3581919, "longitude":27.3904862, "population":33499}, 
{"name":"Kohtla-Nõmme", "state":"Ida-Viru", "country":"Estonia", "latitude":59.3547786, "longitude":27.1960672, "population":886}, 
{"name":"Koldamäe", "state":"Ida-Viru", "country":"Estonia", "latitude":59.1265264, "longitude":27.3787399, "population":15}, 
{"name":"Koljala", "state":"Ida-Viru", "country":"Estonia", "latitude":59.38371, "longitude":26.9371412, "population":44}, 
{"name":"Konju", "state":"Ida-Viru", "country":"Estonia", "latitude":59.3369963, "longitude":27.6190236, "population":141}, 
{"name":"Konsu", "state":"Ida-Viru", "country":"Estonia", "latitude":59.2444888, "longitude":27.6129118, "population":25}, 
{"name":"Koolma", "state":"Ida-Viru", "country":"Estonia", "latitude":59.2027822, "longitude":26.9177561, "population":0}, 
{"name":"Kopli", "state":"Ida-Viru", "country":"Estonia", "latitude":59.3920534, "longitude":27.0379658, "population":16}, 
{"name":"Kose", "state":"Ida-Viru", "country":"Estonia", "latitude":59.3286011, "longitude":27.4883715, "population":96}, 
{"name":"Kotinuka", "state":"Ida-Viru", "country":"Estonia", "latitude":59.3862201, "longitude":27.4477629, "population":61}, 
{"name":"Kudruküla", "state":"Ida-Viru", "country":"Estonia", "latitude":59.4387186, "longitude":28.0973082, "population":89}, 
{"name":"Kukruse", "state":"Ida-Viru", "country":"Estonia", "latitude":59.3984078, "longitude":27.3875813, "population":48}, 
{"name":"Kulja", "state":"Ida-Viru", "country":"Estonia", "latitude":59.3086593, "longitude":26.9819589, "population":14}, 
{"name":"Kuningaküla", "state":"Ida-Viru", "country":"Estonia", "latitude":59.1634819, "longitude":27.7911735, "population":26}, 
{"name":"Kuremäe", "state":"Ida-Viru", "country":"Estonia", "latitude":59.2002326, "longitude":27.5420923, "population":248}, 
{"name":"Kurtna", "state":"Ida-Viru", "country":"Estonia", "latitude":59.2706594, "longitude":27.51092, "population":137}, 
{"name":"Kuru", "state":"Ida-Viru", "country":"Estonia", "latitude":59.0115252, "longitude":27.2942518, "population":55}, 
{"name":"Laagna", "state":"Ida-Viru", "country":"Estonia", "latitude":59.3843399, "longitude":27.9902055, "population":39}, 
{"name":"Lemmaku", "state":"Ida-Viru", "country":"Estonia", "latitude":59.0123988, "longitude":27.1196195, "population":35}, 
{"name":"Liimala", "state":"Ida-Viru", "country":"Estonia", "latitude":59.4285368, "longitude":26.975423, "population":54}, 
{"name":"Liivakünka", "state":"Ida-Viru", "country":"Estonia", "latitude":59.2396073, "longitude":27.3079603, "population":22}, 
{"name":"Linna", "state":"Ida-Viru", "country":"Estonia", "latitude":59.3607732, "longitude":27.4856781, "population":33}, 
{"name":"Lipniku", "state":"Ida-Viru", "country":"Estonia", "latitude":59.1079103, "longitude":27.3439783, "population":11}, 
{"name":"Lipu", "state":"Ida-Viru", "country":"Estonia", "latitude":59.2243939, "longitude":27.0785325, "population":0}, 
{"name":"Lohkuse", "state":"Ida-Viru", "country":"Estonia", "latitude":59.352756, "longitude":27.0482451, "population":7}, 
{"name":"Lõpe", "state":"Ida-Viru", "country":"Estonia", "latitude":59.1058687, "longitude":27.2520908, "population":4}, 
{"name":"Lüganuse", "state":"Ida-Viru", "country":"Estonia", "latitude":59.3781834, "longitude":27.0636368, "population":406}, 
{"name":"Lümatu", "state":"Ida-Viru", "country":"Estonia", "latitude":59.2523427, "longitude":26.915338, "population":3}, 
{"name":"Mäetaguse", "state":"Ida-Viru", "country":"Estonia", "latitude":59.2332619, "longitude":27.2742148, "population":544}, 
{"name":"Mäetaguse", "state":"Ida-Viru", "country":"Estonia", "latitude":59.2228596, "longitude":27.2991817, "population":39}, 
{"name":"Maidla", "state":"Ida-Viru", "country":"Estonia", "latitude":59.3376125, "longitude":27.0114139, "population":96}, 
{"name":"Martsa", "state":"Ida-Viru", "country":"Estonia", "latitude":59.4261195, "longitude":27.4689021, "population":43}, 
{"name":"Matka", "state":"Ida-Viru", "country":"Estonia", "latitude":59.3961606, "longitude":26.9834177, "population":46}, 
{"name":"Mehide", "state":"Ida-Viru", "country":"Estonia", "latitude":59.2816074, "longitude":27.0034416, "population":13}, 
{"name":"Meriküla", "state":"Ida-Viru", "country":"Estonia", "latitude":59.4034365, "longitude":27.9589497, "population":14}, 
{"name":"Metsamägara", "state":"Ida-Viru", "country":"Estonia", "latitude":59.3956889, "longitude":27.4845646, "population":9}, 
{"name":"Metsküla", "state":"Ida-Viru", "country":"Estonia", "latitude":59.1687832, "longitude":27.1844691, "population":14}, 
{"name":"Mõisamaa", "state":"Ida-Viru", "country":"Estonia", "latitude":59.3856099, "longitude":27.2697844, "population":4}, 
{"name":"Moldova", "state":"Ida-Viru", "country":"Estonia", "latitude":59.4259146, "longitude":27.1016665, "population":26}, 
{"name":"Mustanina", "state":"Ida-Viru", "country":"Estonia", "latitude":59.2941282, "longitude":27.7817289, "population":36}, 
{"name":"Mustmätta", "state":"Ida-Viru", "country":"Estonia", "latitude":59.393298, "longitude":27.0605413, "population":17}, 
{"name":"Narva", "state":"Ida-Viru", "country":"Estonia", "latitude":59.3695285, "longitude":28.1101662, "population":53955}, 
{"name":"Narva-Jõesuu", "state":"Ida-Viru", "country":"Estonia", "latitude":59.4412726, "longitude":28.0214229, "population":2536}, 
{"name":"Nüri", "state":"Ida-Viru", "country":"Estonia", "latitude":59.2935274, "longitude":26.8255051, "population":25}, 
{"name":"Oandu", "state":"Ida-Viru", "country":"Estonia", "latitude":59.2641571, "longitude":27.0155969, "population":9}, 
{"name":"Ohakvere", "state":"Ida-Viru", "country":"Estonia", "latitude":59.2211379, "longitude":27.4445045, "population":17}, 
{"name":"Ojamaa", "state":"Ida-Viru", "country":"Estonia", "latitude":59.2867355, "longitude":27.1019687, "population":3}, 
{"name":"Olgina", "state":"Ida-Viru", "country":"Estonia", "latitude":59.3968034, "longitude":28.1283534, "population":473}, 
{"name":"Ongassaare", "state":"Ida-Viru", "country":"Estonia", "latitude":59.1748584, "longitude":27.4498468, "population":4}, 
{"name":"Ontika", "state":"Ida-Viru", "country":"Estonia", "latitude":59.4293455, "longitude":27.2926554, "population":70}, 
{"name":"Oonurme", "state":"Ida-Viru", "country":"Estonia", "latitude":59.1195449, "longitude":26.9642019, "population":46}, 
{"name":"Paate", "state":"Ida-Viru", "country":"Estonia", "latitude":59.4086207, "longitude":27.3237779, "population":28}, 
{"name":"Pagari", "state":"Ida-Viru", "country":"Estonia", "latitude":59.2593268, "longitude":27.3860306, "population":122}, 
{"name":"Päite", "state":"Ida-Viru", "country":"Estonia", "latitude":59.3779163, "longitude":27.7034165, "population":16}, 
{"name":"Pajualuse", "state":"Ida-Viru", "country":"Estonia", "latitude":59.3187598, "longitude":27.3722541, "population":39}, 
{"name":"Pargitaguse", "state":"Ida-Viru", "country":"Estonia", "latitude":59.3467651, "longitude":27.4443453, "population":3}, 
{"name":"Pauliku", "state":"Ida-Viru", "country":"Estonia", "latitude":59.3470766, "longitude":27.37924, "population":90}, 
{"name":"Peeri", "state":"Ida-Viru", "country":"Estonia", "latitude":59.3815196, "longitude":27.3009538, "population":89}, 
{"name":"Peeterristi", "state":"Ida-Viru", "country":"Estonia", "latitude":59.4041989, "longitude":28.076077, "population":49}, 
{"name":"Peressaare", "state":"Ida-Viru", "country":"Estonia", "latitude":59.0794508, "longitude":26.8734221, "population":3}, 
{"name":"Perjatsi", "state":"Ida-Viru", "country":"Estonia", "latitude":59.3809124, "longitude":27.8154343, "population":36}, 
{"name":"Permisküla", "state":"Ida-Viru", "country":"Estonia", "latitude":59.0783251, "longitude":27.7441822, "population":33}, 
{"name":"Piilse", "state":"Ida-Viru", "country":"Estonia", "latitude":59.22816, "longitude":27.004025, "population":17}, 
{"name":"Pikati", "state":"Ida-Viru", "country":"Estonia", "latitude":59.0257895, "longitude":27.0065228, "population":21}, 
{"name":"Pimestiku", "state":"Ida-Viru", "country":"Estonia", "latitude":59.3912889, "longitude":27.8586124, "population":3}, 
{"name":"Pootsiku", "state":"Ida-Viru", "country":"Estonia", "latitude":59.0649935, "longitude":27.4086539, "population":8}, 
{"name":"Pühajõe", "state":"Ida-Viru", "country":"Estonia", "latitude":59.3811028, "longitude":27.526407, "population":186}, 
{"name":"Puhatu", "state":"Ida-Viru", "country":"Estonia", "latitude":59.174289, "longitude":27.6348532, "population":16}, 
{"name":"Puhkova", "state":"Ida-Viru", "country":"Estonia", "latitude":59.4204807, "longitude":28.0141524, "population":37}, 
{"name":"Purtse", "state":"Ida-Viru", "country":"Estonia", "latitude":59.4168346, "longitude":26.9962138, "population":231}, 
{"name":"Puru", "state":"Ida-Viru", "country":"Estonia", "latitude":59.3031831, "longitude":27.4363363, "population":59}, 
{"name":"Püssi", "state":"Ida-Viru", "country":"Estonia", "latitude":59.3599795, "longitude":27.0450648, "population":868}, 
{"name":"Rääsa", "state":"Ida-Viru", "country":"Estonia", "latitude":59.2633995, "longitude":27.0868158, "population":39}, 
{"name":"Rajaküla", "state":"Ida-Viru", "country":"Estonia", "latitude":59.2348801, "longitude":27.331319, "population":31}, 
{"name":"Rannapungerja", "state":"Ida-Viru", "country":"Estonia", "latitude":58.9875053, "longitude":27.1588793, "population":44}, 
{"name":"Ratva", "state":"Ida-Viru", "country":"Estonia", "latitude":59.2578443, "longitude":27.2193584, "population":17}, 
{"name":"Rausvere", "state":"Ida-Viru", "country":"Estonia", "latitude":59.3049716, "longitude":27.4969887, "population":45}, 
{"name":"Rebu", "state":"Ida-Viru", "country":"Estonia", "latitude":59.2813355, "longitude":27.0497823, "population":19}, 
{"name":"Remniku", "state":"Ida-Viru", "country":"Estonia", "latitude":59.0291884, "longitude":27.5294751, "population":49}, 
{"name":"Roodu", "state":"Ida-Viru", "country":"Estonia", "latitude":59.3598628, "longitude":27.1886548, "population":40}, 
{"name":"Roostoja", "state":"Ida-Viru", "country":"Estonia", "latitude":59.0769635, "longitude":27.1136919, "population":24}, 
{"name":"Sahargu", "state":"Ida-Viru", "country":"Estonia", "latitude":59.040422, "longitude":27.0410509, "population":9}, 
{"name":"Saka", "state":"Ida-Viru", "country":"Estonia", "latitude":59.4212923, "longitude":27.2127656, "population":106}, 
{"name":"Salaküla", "state":"Ida-Viru", "country":"Estonia", "latitude":59.3422518, "longitude":26.9368186, "population":17}, 
{"name":"Sälliku", "state":"Ida-Viru", "country":"Estonia", "latitude":59.0489934, "longitude":27.2766339, "population":29}, 
{"name":"Satsu", "state":"Ida-Viru", "country":"Estonia", "latitude":59.3742178, "longitude":26.85621, "population":6}, 
{"name":"Savala", "state":"Ida-Viru", "country":"Estonia", "latitude":59.3167591, "longitude":27.0081188, "population":134}, 
{"name":"Servaääre", "state":"Ida-Viru", "country":"Estonia", "latitude":59.3539923, "longitude":27.2592017, "population":12}, 
{"name":"Sillamäe", "state":"Ida-Viru", "country":"Estonia", "latitude":59.4034142, "longitude":27.7549021, "population":12439}, 
{"name":"Sinimäe", "state":"Ida-Viru", "country":"Estonia", "latitude":59.3769912, "longitude":27.8642581, "population":389}, 
{"name":"Sirgala", "state":"Ida-Viru", "country":"Estonia", "latitude":59.3200841, "longitude":27.7780366, "population":30}, 
{"name":"Sirtsi", "state":"Ida-Viru", "country":"Estonia", "latitude":59.2811557, "longitude":26.89241, "population":17}, 
{"name":"Smolnitsa", "state":"Ida-Viru", "country":"Estonia", "latitude":59.0302243, "longitude":27.5956631, "population":12}, 
{"name":"Soldina", "state":"Ida-Viru", "country":"Estonia", "latitude":59.3712874, "longitude":28.0821493, "population":71}, 
{"name":"Sompa", "state":"Ida-Viru", "country":"Estonia", "latitude":59.358942, "longitude":27.319778, "population":60}, 
{"name":"Sonda", "state":"Ida-Viru", "country":"Estonia", "latitude":59.3504278, "longitude":26.8308938, "population":386}, 
{"name":"Soonurme", "state":"Ida-Viru", "country":"Estonia", "latitude":59.3179038, "longitude":26.9454554, "population":85}, 
{"name":"Sõrumäe", "state":"Ida-Viru", "country":"Estonia", "latitude":59.1586808, "longitude":27.3360884, "population":14}, 
{"name":"Sõtke", "state":"Ida-Viru", "country":"Estonia", "latitude":59.365964, "longitude":27.7353633, "population":35}, 
{"name":"Tagajõe", "state":"Ida-Viru", "country":"Estonia", "latitude":59.0642148, "longitude":27.0696886, "population":9}, 
{"name":"Taga-Roostoja", "state":"Ida-Viru", "country":"Estonia", "latitude":59.0928525, "longitude":27.1952578, "population":13}, 
{"name":"Täkumetsa", "state":"Ida-Viru", "country":"Estonia", "latitude":59.3839835, "longitude":27.3396183, "population":21}, 
{"name":"Tammetaguse", "state":"Ida-Viru", "country":"Estonia", "latitude":59.1334566, "longitude":27.3119024, "population":14}, 
{"name":"Tammiku", "state":"Ida-Viru", "country":"Estonia", "latitude":59.3361089, "longitude":27.3717994, "population":314}, 
{"name":"Tarakuse", "state":"Ida-Viru", "country":"Estonia", "latitude":59.2598352, "longitude":27.4234371, "population":16}, 
{"name":"Tärivere", "state":"Ida-Viru", "country":"Estonia", "latitude":59.1179966, "longitude":27.3129693, "population":54}, 
{"name":"Tarumaa", "state":"Ida-Viru", "country":"Estonia", "latitude":59.1982035, "longitude":27.1482078, "population":3}, 
{"name":"Toila", "state":"Ida-Viru", "country":"Estonia", "latitude":59.4208989, "longitude":27.5178071, "population":803}, 
{"name":"Tõrvajõe", "state":"Ida-Viru", "country":"Estonia", "latitude":59.4054607, "longitude":28.1023657, "population":38}, 
{"name":"Tudulinna", "state":"Ida-Viru", "country":"Estonia", "latitude":59.0380259, "longitude":27.0808116, "population":193}, 
{"name":"Udria", "state":"Ida-Viru", "country":"Estonia", "latitude":59.391789, "longitude":27.9189634, "population":12}, 
{"name":"Uhe", "state":"Ida-Viru", "country":"Estonia", "latitude":59.2021647, "longitude":27.3194877, "population":29}, 
{"name":"Uikala", "state":"Ida-Viru", "country":"Estonia", "latitude":59.4217796, "longitude":27.4219803, "population":0}, 
{"name":"Uljaste", "state":"Ida-Viru", "country":"Estonia", "latitude":59.3811601, "longitude":26.7637167, "population":0}, 
{"name":"Uniküla", "state":"Ida-Viru", "country":"Estonia", "latitude":59.3113941, "longitude":27.0231364, "population":84}, 
{"name":"Uusküla", "state":"Ida-Viru", "country":"Estonia", "latitude":59.008743, "longitude":27.3181948, "population":34}, 
{"name":"Väike-Pungerja", "state":"Ida-Viru", "country":"Estonia", "latitude":59.1907966, "longitude":27.347074, "population":33}, 
{"name":"Vaikla", "state":"Ida-Viru", "country":"Estonia", "latitude":59.0712607, "longitude":27.3513121, "population":40}, 
{"name":"Vainu", "state":"Ida-Viru", "country":"Estonia", "latitude":59.387999, "longitude":26.9656924, "population":17}, 
{"name":"Vaivara", "state":"Ida-Viru", "country":"Estonia", "latitude":59.3699228, "longitude":27.7872705, "population":128}, 
{"name":"Vaivina", "state":"Ida-Viru", "country":"Estonia", "latitude":59.3775204, "longitude":27.6512579, "population":27}, 
{"name":"Valaste", "state":"Ida-Viru", "country":"Estonia", "latitude":59.4277407, "longitude":27.3907525, "population":106},