{"name":"Adilhan","state":"Çanakkale","country":"Turkey","latitude":40.6779684,"longitude":26.7633767,"population":493}, 
{"name":"Alçıtepe","state":"Çanakkale","country":"Turkey","latitude":40.094914,"longitude":26.2272995,"population":445}, 
{"name":"Bademli","state":"Çanakkale","country":"Turkey","latitude":40.2216848,"longitude":25.9080145,"population":68}, 
{"name":"Bayırköy","state":"Çanakkale","country":"Turkey","latitude":40.3541797,"longitude":26.5854422,"population":599}, 
{"name":"Bayramiç","state":"Çanakkale","country":"Turkey","latitude":40.702812,"longitude":26.909231,"population":601}, 
{"name":"Behramlı","state":"Çanakkale","country":"Turkey","latitude":40.1272104,"longitude":26.2911576,"population":432}, 
{"name":"Beşyol","state":"Çanakkale","country":"Turkey","latitude":40.327755,"longitude":26.345724,"population":191}, 
{"name":"Bigalı","state":"Çanakkale","country":"Turkey","latitude":40.235718,"longitude":26.359732,"population":119}, 
{"name":"Bolayır","state":"Çanakkale","country":"Turkey","latitude":40.5157329,"longitude":26.75738,"population":1085}, 
{"name":"Burhanlı","state":"Çanakkale","country":"Turkey","latitude":40.3086276,"longitude":26.5621865,"population":215}, 
{"name":"Büyükanafarta","state":"Çanakkale","country":"Turkey","latitude":40.281624,"longitude":26.329241,"population":195}, 
{"name":"Cevizli","state":"Çanakkale","country":"Turkey","latitude":40.3703243,"longitude":26.5830917,"population":102}, 
{"name":"Çokal","state":"Çanakkale","country":"Turkey","latitude":40.692477,"longitude":26.9972377,"population":166}, 
{"name":"Cumalı","state":"Çanakkale","country":"Turkey","latitude":40.3372276,"longitude":26.5652182,"population":77}, 
{"name":"Değirmendüzü","state":"Çanakkale","country":"Turkey","latitude":40.413876,"longitude":26.504475,"population":375}, 
{"name":"Demirtepe","state":"Çanakkale","country":"Turkey","latitude":40.5127691,"longitude":26.7897111,"population":216}, 
{"name":"Dereköy","state":"Çanakkale","country":"Turkey","latitude":40.1513784,"longitude":25.7709873,"population":339}, 
{"name":"Eceabat","state":"Çanakkale","country":"Turkey","latitude":40.1852143,"longitude":26.3590969,"population":5639}, 
{"name":"Eşelek","state":"Çanakkale","country":"Turkey","latitude":40.1481431,"longitude":25.9459867,"population":165}, 
{"name":"Evreşe","state":"Çanakkale","country":"Turkey","latitude":40.6652728,"longitude":26.8811674,"population":2153}, 
{"name":"Fındıklı","state":"Çanakkale","country":"Turkey","latitude":40.4342621,"longitude":26.5493162,"population":227}, 
{"name":"Gelibolu","state":"Çanakkale","country":"Turkey","latitude":40.4054063,"longitude":26.6722539,"population":30394}, 
{"name":"Gökçeada","state":"Çanakkale","country":"Turkey","latitude":40.2003874,"longitude":25.9084625,"population":6796}, 
{"name":"Güneyli","state":"Çanakkale","country":"Turkey","latitude":40.4943981,"longitude":26.6857211,"population":689}, 
{"name":"Ilgardere","state":"Çanakkale","country":"Turkey","latitude":40.3041485,"longitude":26.4782758,"population":253}, 
{"name":"Kalealtı","state":"Çanakkale","country":"Turkey","latitude":40.693687,"longitude":26.810007,"population":141}, 
{"name":"Kaleköy","state":"Çanakkale","country":"Turkey","latitude":40.2335474,"longitude":25.8985823,"population":127}, 
{"name":"Karainebeyli","state":"Çanakkale","country":"Turkey","latitude":40.3505167,"longitude":26.431935,"population":319}, 
{"name":"Kavakköy","state":"Çanakkale","country":"Turkey","latitude":40.6054355,"longitude":26.8851925,"population":2618}, 
{"name":"Kavaklı","state":"Çanakkale","country":"Turkey","latitude":40.437355,"longitude":26.612072,"population":129}, 
{"name":"Kilidülbahir","state":"Çanakkale","country":"Turkey","latitude":40.1467789,"longitude":26.3779734,"population":605}, 
{"name":"Kocaçeşme","state":"Çanakkale","country":"Turkey","latitude":40.6609765,"longitude":26.7989603,"population":164}, 
{"name":"Kocadere","state":"Çanakkale","country":"Turkey","latitude":40.231388,"longitude":26.326172,"population":62}, 
{"name":"Koruköy","state":"Çanakkale","country":"Turkey","latitude":40.5379628,"longitude":26.8039691,"population":418}, 
{"name":"Küçükanafarta","state":"Çanakkale","country":"Turkey","latitude":40.305908,"longitude":26.31926,"population":190}, 
{"name":"Kumköy","state":"Çanakkale","country":"Turkey","latitude":40.289757,"longitude":26.395788,"population":302}, 
{"name":"Ocaklı","state":"Çanakkale","country":"Turkey","latitude":40.4802921,"longitude":26.6412421,"population":127}, 
{"name":"Pazarlı","state":"Çanakkale","country":"Turkey","latitude":40.3153082,"longitude":26.4976817,"population":128}, 
{"name":"Şadıllı","state":"Çanakkale","country":"Turkey","latitude":40.696621,"longitude":26.839268,"population":225}, 
{"name":"Seddülbahir","state":"Çanakkale","country":"Turkey","latitude":40.0446676,"longitude":26.1889171,"population":264}, 
{"name":"Şirinköy","state":"Çanakkale","country":"Turkey","latitude":40.1268915,"longitude":25.7417264,"population":247}, 
{"name":"Süleymaniye","state":"Çanakkale","country":"Turkey","latitude":40.686645,"longitude":26.882254,"population":370}, 
{"name":"Sütlüce","state":"Çanakkale","country":"Turkey","latitude":40.344429,"longitude":26.6008953,"population":570}, 
{"name":"Tayfurköy","state":"Çanakkale","country":"Turkey","latitude":40.3974212,"longitude":26.4763516,"population":467}, 
{"name":"Tepeköy","state":"Çanakkale","country":"Turkey","latitude":40.1909067,"longitude":25.8332185,"population":158}, 
{"name":"Uğurlu","state":"Çanakkale","country":"Turkey","latitude":40.1237048,"longitude":25.7071743,"population":546}, 
{"name":"Yalova","state":"Çanakkale","country":"Turkey","latitude":40.261479,"longitude":26.414173,"population":231}, 
{"name":"Yenibademli","state":"Çanakkale","country":"Turkey","latitude":40.2286543,"longitude":25.9005,"population":854}, 
{"name":"Yeniköy","state":"Çanakkale","country":"Turkey","latitude":40.47134,"longitude":26.595077,"population":567}, 
{"name":"Yolağzı","state":"Çanakkale","country":"Turkey","latitude":40.317112,"longitude":26.404451,"population":109}, 
{"name":"Yülüce","state":"Çanakkale","country":"Turkey","latitude":40.6904862,"longitude":26.9663395,"population":458}, 
{"name":"Zeytinliköy","state":"Çanakkale","country":"Turkey","latitude":40.1900766,"longitude":25.8716122,"population":140}, 
{"name":"Abalar","state":"Edirne","country":"Turkey","latitude":41.5450885,"longitude":26.7436038,"population":1046}, 
{"name":"Abdurrahim","state":"Edirne","country":"Turkey","latitude":40.641602,"longitude":26.256338,"population":268}, 
{"name":"Adasarhanlı","state":"Edirne","country":"Turkey","latitude":41.0838821,"longitude":26.3569231,"population":877}, 
{"name":"Ahı","state":"Edirne","country":"Turkey","latitude":41.778023,"longitude":26.407351,"population":137}, 
{"name":"Akardere","state":"Edirne","country":"Turkey","latitude":41.6811988,"longitude":26.9301459,"population":406}, 
{"name":"Akçadam","state":"Edirne","country":"Turkey","latitude":41.305119,"longitude":26.5308523,"population":504}, 
{"name":"Akçeşme","state":"Edirne","country":"Turkey","latitude":40.8499986,"longitude":26.4907468,"population":129}, 
{"name":"Akhoca","state":"Edirne","country":"Turkey","latitude":40.7192137,"longitude":26.4033882,"population":480}, 
{"name":"Akıncılar","state":"Edirne","country":"Turkey","latitude":41.1923781,"longitude":26.5182078,"population":122}, 
{"name":"Alibey","state":"Edirne","country":"Turkey","latitude":41.2451089,"longitude":26.3551725,"population":210}, 
{"name":"Alıç","state":"Edirne","country":"Turkey","latitude":41.0615351,"longitude":26.6510176,"population":245}, 
{"name":"Aliçopehlivan","state":"Edirne","country":"Turkey","latitude":40.8409044,"longitude":26.4398252,"population":1862}, 
{"name":"Altıntaş","state":"Edirne","country":"Turkey","latitude":41.0097965,"longitude":26.7039454,"population":400}, 
{"name":"Altınyazı","state":"Edirne","country":"Turkey","latitude":41.07336,"longitude":26.5766577,"population":324}, 
{"name":"Arpaç","state":"Edirne","country":"Turkey","latitude":41.690365,"longitude":26.8818127,"population":289}, 
{"name":"Aslıhan","state":"Edirne","country":"Turkey","latitude":41.4128,"longitude":26.7954983,"population":514}, 
{"name":"Avarız","state":"Edirne","country":"Turkey","latitude":41.746808,"longitude":26.545759,"population":324}, 
{"name":"Azatlı","state":"Edirne","country":"Turkey","latitude":41.501034,"longitude":26.702332,"population":686}, 
{"name":"Bahçeköy","state":"Edirne","country":"Turkey","latitude":40.7857685,"longitude":26.677575,"population":502}, 
{"name":"Bakışlar","state":"Edirne","country":"Turkey","latitude":41.4582124,"longitude":26.8308066,"population":215}, 
{"name":"Balaban","state":"Edirne","country":"Turkey","latitude":41.088898,"longitude":26.5480607,"population":344}, 
{"name":"Balabancık","state":"Edirne","country":"Turkey","latitude":41.033474,"longitude":26.405064,"population":429}, 
{"name":"Balabankoru","state":"Edirne","country":"Turkey","latitude":41.1110601,"longitude":26.5153111,"population":382}, 
{"name":"Barağı","state":"Edirne","country":"Turkey","latitude":40.7082739,"longitude":26.4298938,"population":118}, 
{"name":"Başağıl","state":"Edirne","country":"Turkey","latitude":41.2645128,"longitude":26.797079,"population":326}, 
{"name":"Bayramlı","state":"Edirne","country":"Turkey","latitude":41.306777,"longitude":26.8261259,"population":354}, 
{"name":"Beğendik","state":"Edirne","country":"Turkey","latitude":40.9289308,"longitude":26.5756538,"population":3167}, 
{"name":"Beykonak","state":"Edirne","country":"Turkey","latitude":41.1737246,"longitude":26.7919419,"population":118}, 
{"name":"Beyköy","state":"Edirne","country":"Turkey","latitude":40.6675313,"longitude":26.5113993,"population":145}, 
{"name":"Bıldır","state":"Edirne","country":"Turkey","latitude":41.2879572,"longitude":26.8927029,"population":150}, 
{"name":"Bosna","state":"Edirne","country":"Turkey","latitude":41.624668,"longitude":26.565666,"population":71}, 
{"name":"Bostanlı","state":"Edirne","country":"Turkey","latitude":41.6108441,"longitude":26.970305,"population":152}, 
{"name":"Boztepe","state":"Edirne","country":"Turkey","latitude":40.8430468,"longitude":26.5187969,"population":340}, 
{"name":"Budakdoğanca","state":"Edirne","country":"Turkey","latitude":41.7611252,"longitude":26.3418658,"population":161}, 
{"name":"Büyük Gerdelli","state":"Edirne","country":"Turkey","latitude":41.7355319,"longitude":26.9511114,"population":775}, 
{"name":"Büyükaltıağaç","state":"Edirne","country":"Turkey","latitude":41.112457,"longitude":26.406725,"population":609}, 
{"name":"Büyükdoğanca","state":"Edirne","country":"Turkey","latitude":40.7717466,"longitude":26.5844483,"population":149}, 
{"name":"Büyükdöllük","state":"Edirne","country":"Turkey","latitude":41.7582835,"longitude":26.6010876,"population":635}, 
{"name":"Büyükevren","state":"Edirne","country":"Turkey","latitude":40.652046,"longitude":26.228537,"population":766}, 
{"name":"Büyükismailçe","state":"Edirne","country":"Turkey","latitude":41.815296,"longitude":26.468807,"population":180}, 
{"name":"Büyünlü","state":"Edirne","country":"Turkey","latitude":41.8918097,"longitude":26.7332686,"population":210}, 
{"name":"Çakmak","state":"Edirne","country":"Turkey","latitude":41.3754815,"longitude":26.6651101,"population":276}, 
{"name":"Çalı","state":"Edirne","country":"Turkey","latitude":41.2870726,"longitude":26.5952968,"population":254}, 
{"name":"Çallıdere","state":"Edirne","country":"Turkey","latitude":41.9403335,"longitude":26.7241461,"population":78}, 
{"name":"Çamlıca","state":"Edirne","country":"Turkey","latitude":40.7626402,"longitude":26.6725314,"population":710}, 
{"name":"Çandır","state":"Edirne","country":"Turkey","latitude":40.7292586,"longitude":26.2665503,"population":13}, 
{"name":"Çatma","state":"Edirne","country":"Turkey","latitude":41.8838002,"longitude":26.638493,"population":44}, 
{"name":"Çavuşköy","state":"Edirne","country":"Turkey","latitude":40.6878001,"longitude":26.1711204,"population":393}, 
{"name":"Çavuşlu","state":"Edirne","country":"Turkey","latitude":41.0810349,"longitude":26.7770507,"population":359}, 
{"name":"Çelebi","state":"Edirne","country":"Turkey","latitude":40.679687,"longitude":26.3484989,"population":89}, 
{"name":"Çeltik","state":"Edirne","country":"Turkey","latitude":40.6845554,"longitude":26.5591373,"population":278}, 
{"name":"Çeribaşı","state":"Edirne","country":"Turkey","latitude":40.66531,"longitude":26.254362,"population":204}, 
{"name":"Çiftlik","state":"Edirne","country":"Turkey","latitude":41.248219,"longitude":26.615332,"population":180}, 
{"name":"Çobançeşmesi","state":"Edirne","country":"Turkey","latitude":40.9596534,"longitude":26.668888,"population":375}, 
{"name":"Çobanpınar","state":"Edirne","country":"Turkey","latitude":41.1782441,"longitude":26.5670902,"population":75}, 
{"name":"Çömlek","state":"Edirne","country":"Turkey","latitude":41.8429948,"longitude":26.6094623,"population":125}, 
{"name":"Çömlekakpınar","state":"Edirne","country":"Turkey","latitude":41.8379272,"longitude":26.645501,"population":472}, 
{"name":"Çöpköy","state":"Edirne","country":"Turkey","latitude":41.2194443,"longitude":26.8245114,"population":1063}, 
{"name":"Çukurköy","state":"Edirne","country":"Turkey","latitude":41.4683993,"longitude":26.8199663,"population":303}, 
{"name":"Danişment","state":"Edirne","country":"Turkey","latitude":40.6200859,"longitude":26.4266794,"population":140}, 
{"name":"Danişment","state":"Edirne","country":"Turkey","latitude":41.3052878,"longitude":26.9023447,"population":282}, 
{"name":"Değirmenci","state":"Edirne","country":"Turkey","latitude":41.30732,"longitude":26.6895117,"population":292}, 
{"name":"Değirmenyeni","state":"Edirne","country":"Turkey","latitude":41.7625029,"longitude":26.5534367,"population":434}, 
{"name":"Demirhanlı","state":"Edirne","country":"Turkey","latitude":41.69767,"longitude":26.738035,"population":358}, 
{"name":"Demirköy","state":"Edirne","country":"Turkey","latitude":41.9152768,"longitude":26.6714085,"population":242}, 
{"name":"Dereköy","state":"Edirne","country":"Turkey","latitude":41.160126,"longitude":26.7084727,"population":687}, 
{"name":"Dişbudak","state":"Edirne","country":"Turkey","latitude":40.7195831,"longitude":26.5749085,"population":101}, 
{"name":"Doğanköy","state":"Edirne","country":"Turkey","latitude":41.9275652,"longitude":26.7007398,"population":104}, 
{"name":"Dombay","state":"Edirne","country":"Turkey","latitude":41.9027336,"longitude":26.6329383,"population":142}, 
{"name":"Domurcalı","state":"Edirne","country":"Turkey","latitude":41.8161079,"longitude":26.8198654,"population":222}, 
{"name":"Doyran","state":"Edirne","country":"Turkey","latitude":41.4838682,"longitude":26.6044781,"population":636}, 
{"name":"Edirne","state":"Edirne","country":"Turkey","latitude":41.6759327,"longitude":26.5587225,"population":172802,"stateCapital":true}, 
{"name":"Ekmekçi","state":"Edirne","country":"Turkey","latitude":41.7402939,"longitude":26.4622783,"population":89}, 
{"name":"Elçili","state":"Edirne","country":"Turkey","latitude":41.4518063,"longitude":26.6209517,"population":318}, 
{"name":"Elmalı","state":"Edirne","country":"Turkey","latitude":41.1781697,"longitude":26.891115,"population":746}, 
{"name":"Enez","state":"Edirne","country":"Turkey","latitude":40.725028,"longitude":26.0845648,"population":4164}, 
{"name":"Erikli","state":"Edirne","country":"Turkey","latitude":40.6400986,"longitude":26.4561644,"population":399}, 
{"name":"Esetçe","state":"Edirne","country":"Turkey","latitude":40.8709433,"longitude":26.4426128,"population":2194}, 
{"name":"Eskikadın","state":"Edirne","country":"Turkey","latitude":41.7071432,"longitude":26.457615,"population":400}, 
{"name":"Eskiköy","state":"Edirne","country":"Turkey","latitude":41.3278245,"longitude":26.6446371,"population":405}, 
{"name":"Gazimehmet","state":"Edirne","country":"Turkey","latitude":41.2014707,"longitude":26.9154695,"population":272}, 
{"name":"Geçkinli","state":"Edirne","country":"Turkey","latitude":41.731018,"longitude":26.849077,"population":466}, 
{"name":"Gemici","state":"Edirne","country":"Turkey","latitude":41.3146214,"longitude":26.557959,"population":167}, 
{"name":"Gökçetepe","state":"Edirne","country":"Turkey","latitude":40.6645313,"longitude":26.6307042,"population":428}, 
{"name":"Gülçavuş","state":"Edirne","country":"Turkey","latitude":40.622383,"longitude":26.169113,"population":297}, 
{"name":"Gündüzler","state":"Edirne","country":"Turkey","latitude":40.7830278,"longitude":26.462673,"population":100}, 
{"name":"Habiller","state":"Edirne","country":"Turkey","latitude":41.6694112,"longitude":26.7952022,"population":240}, 
{"name":"Hacı","state":"Edirne","country":"Turkey","latitude":40.980194,"longitude":26.549271,"population":1141}, 
{"name":"Hacıdanişment","state":"Edirne","country":"Turkey","latitude":41.9099076,"longitude":26.8218794,"population":345}, 
{"name":"Hacılar","state":"Edirne","country":"Turkey","latitude":41.9424925,"longitude":26.7829584,"population":57}, 
{"name":"Hacıumur","state":"Edirne","country":"Turkey","latitude":41.718132,"longitude":26.787434,"population":260}, 
{"name":"Hamidiye","state":"Edirne","country":"Turkey","latitude":41.1516463,"longitude":26.6662092,"population":269}, 
{"name":"Hamitli","state":"Edirne","country":"Turkey","latitude":41.335571,"longitude":26.6952435,"population":328}, 
{"name":"Hamzabeyli","state":"Edirne","country":"Turkey","latitude":41.9650154,"longitude":26.6429565,"population":189}, 
{"name":"Hanlıyenice","state":"Edirne","country":"Turkey","latitude":41.8702728,"longitude":26.6944835,"population":251}, 
{"name":"Harmanlı","state":"Edirne","country":"Turkey","latitude":41.0995954,"longitude":26.7473975,"population":971}, 
{"name":"Hasanağa","state":"Edirne","country":"Turkey","latitude":41.7255055,"longitude":26.6250053,"population":169}, 
{"name":"Hasanpınar","state":"Edirne","country":"Turkey","latitude":41.1723781,"longitude":26.7523262,"population":449}, 
{"name":"Hasırcıarnavutköy","state":"Edirne","country":"Turkey","latitude":41.2729663,"longitude":26.4606584,"population":375}, 
{"name":"Hasköy","state":"Edirne","country":"Turkey","latitude":40.669708,"longitude":26.310488,"population":262}, 
{"name":"Hasköy","state":"Edirne","country":"Turkey","latitude":41.639212,"longitude":26.857925,"population":623}, 
{"name":"Hatip","state":"Edirne","country":"Turkey","latitude":41.8169984,"longitude":26.5660954,"population":131}, 
{"name":"Havsa","state":"Edirne","country":"Turkey","latitude":41.5493038,"longitude":26.8205643,"population":8598}, 
{"name":"Hıdırağa","state":"Edirne","country":"Turkey","latitude":41.737617,"longitude":26.659552,"population":206}, 
{"name":"Hıdırköy","state":"Edirne","country":"Turkey","latitude":40.914467,"longitude":26.46228,"population":222}, 
{"name":"Hisarlı","state":"Edirne","country":"Turkey","latitude":40.7207924,"longitude":26.2114267,"population":160}, 
{"name":"Hüseyinpınar","state":"Edirne","country":"Turkey","latitude":41.8996652,"longitude":26.5951143,"population":40}, 
{"name":"İbriktepe","state":"Edirne","country":"Turkey","latitude":41.0114138,"longitude":26.5035944,"population":1169}, 
{"name":"İpsala","state":"Edirne","country":"Turkey","latitude":40.9217064,"longitude":26.3839845,"population":8783}, 
{"name":"Işıklı","state":"Edirne","country":"Turkey","latitude":40.7172595,"longitude":26.308376,"population":303}, 
{"name":"İskender","state":"Edirne","country":"Turkey","latitude":41.629376,"longitude":26.672529,"population":566}, 
{"name":"Kabaağaç","state":"Edirne","country":"Turkey","latitude":41.4805761,"longitude":26.8655062,"population":202}, 
{"name":"Kadıağılı","state":"Edirne","country":"Turkey","latitude":41.057537,"longitude":26.6861637,"population":169}, 
{"name":"Kadıdondurma","state":"Edirne","country":"Turkey","latitude":41.173256,"longitude":26.354118,"population":674}, 
{"name":"Kadıköy","state":"Edirne","country":"Turkey","latitude":40.7804615,"longitude":26.7728996,"population":444}, 
{"name":"Kadıköy","state":"Edirne","country":"Turkey","latitude":41.086833,"longitude":26.6763241,"population":192}, 
{"name":"Kalkansöğüt","state":"Edirne","country":"Turkey","latitude":41.9711374,"longitude":26.8129074,"population":81}, 
{"name":"Karaağaç","state":"Edirne","country":"Turkey","latitude":41.061031,"longitude":26.52993,"population":220}, 
{"name":"Karabulut","state":"Edirne","country":"Turkey","latitude":41.768646,"longitude":26.436403,"population":152}, 
{"name":"Karabürçek","state":"Edirne","country":"Turkey","latitude":41.1476205,"longitude":26.8412449,"population":346}, 
{"name":"Karacaali","state":"Edirne","country":"Turkey","latitude":40.9986407,"longitude":26.663237,"population":262}, 
{"name":"Karahamza","state":"Edirne","country":"Turkey","latitude":41.269157,"longitude":26.5386353,"population":115}, 
{"name":"Karahisar","state":"Edirne","country":"Turkey","latitude":40.7649535,"longitude":26.5043774,"population":218}, 
{"name":"Karaincirli","state":"Edirne","country":"Turkey","latitude":40.6272629,"longitude":26.2974519,"population":601}, 
{"name":"Karakasım","state":"Edirne","country":"Turkey","latitude":41.5168135,"longitude":26.644151,"population":475}, 
{"name":"Karapınar","state":"Edirne","country":"Turkey","latitude":41.116119,"longitude":26.6338817,"population":442}, 
{"name":"Karasatı","state":"Edirne","country":"Turkey","latitude":40.9636158,"longitude":26.6940588,"population":134}, 
{"name":"Karayayla","state":"Edirne","country":"Turkey","latitude":41.2503555,"longitude":26.5804364,"population":186}, 
{"name":"Karayusuf","state":"Edirne","country":"Turkey","latitude":41.7317897,"longitude":26.6949146,"population":147}, 
{"name":"Karayusuflu","state":"Edirne","country":"Turkey","latitude":41.2631926,"longitude":26.4332998,"population":274}, 
{"name":"Karlı","state":"Edirne","country":"Turkey","latitude":40.7438548,"longitude":26.5480649,"population":376}, 
{"name":"Kavacık","state":"Edirne","country":"Turkey","latitude":41.185341,"longitude":26.6689185,"population":692}, 
{"name":"Kavakayazma","state":"Edirne","country":"Turkey","latitude":41.1357424,"longitude":26.5290225,"population":171}, 
{"name":"Kavaklı","state":"Edirne","country":"Turkey","latitude":41.7942004,"longitude":26.7528033,"population":71}, 
{"name":"Kavaklı","state":"Edirne","country":"Turkey","latitude":41.2339756,"longitude":26.5224565,"population":366}, 
{"name":"Kayapa","state":"Edirne","country":"Turkey","latitude":41.7749284,"longitude":26.6886318,"population":114}, 
{"name":"Kemal","state":"Edirne","country":"Turkey","latitude":41.7354037,"longitude":26.3950257,"population":933}, 
{"name":"Keramettin","state":"Edirne","country":"Turkey","latitude":41.787293,"longitude":26.976229,"population":326}, 
{"name":"Keşan","state":"Edirne","country":"Turkey","latitude":40.8548793,"longitude":26.6303057,"population":63828}, 
{"name":"Kılıçköy","state":"Edirne","country":"Turkey","latitude":40.784286,"longitude":26.5529326,"population":396}, 
{"name":"Kırcasalih","state":"Edirne","country":"Turkey","latitude":41.394275,"longitude":26.8013093,"population":2723}, 
{"name":"Kiremitçisalih","state":"Edirne","country":"Turkey","latitude":41.3110483,"longitude":26.6151573,"population":391}, 
{"name":"Kırkkavak","state":"Edirne","country":"Turkey","latitude":41.212202,"longitude":26.7449677,"population":463}, 
{"name":"Kırköy","state":"Edirne","country":"Turkey","latitude":41.1072861,"longitude":26.7218334,"population":270}, 
{"name":"Kızkapan","state":"Edirne","country":"Turkey","latitude":40.7410263,"longitude":26.4870396,"population":185}, 
{"name":"Kocaali","state":"Edirne","country":"Turkey","latitude":40.6656,"longitude":26.344624,"population":191}, 
{"name":"Kocahıdır","state":"Edirne","country":"Turkey","latitude":40.8096773,"longitude":26.4051966,"population":999}, 
{"name":"Korucu","state":"Edirne","country":"Turkey","latitude":41.7921585,"longitude":26.656305,"population":190}, 
{"name":"Korucu","state":"Edirne","country":"Turkey","latitude":40.898306,"longitude":26.4964505,"population":384}, 
{"name":"Koruklu","state":"Edirne","country":"Turkey","latitude":40.6533637,"longitude":26.4240087,"population":116}, 
{"name":"Köşençiftliği","state":"Edirne","country":"Turkey","latitude":41.656952,"longitude":26.684008,"population":257}, 
{"name":"Köseömer","state":"Edirne","country":"Turkey","latitude":41.5874326,"longitude":26.9033217,"population":308}, 
{"name":"Koyuntepe","state":"Edirne","country":"Turkey","latitude":40.7672682,"longitude":26.344163,"population":1022}, 
{"name":"Kozköy","state":"Edirne","country":"Turkey","latitude":41.0208845,"longitude":26.6097908,"population":407}, 
{"name":"Küçükaltıağaç","state":"Edirne","country":"Turkey","latitude":41.120293,"longitude":26.426661,"population":274}, 
{"name":"Küçükdoğanca","state":"Edirne","country":"Turkey","latitude":40.807182,"longitude":26.4286,"population":100}, 
{"name":"Küçükdoğanca","state":"Edirne","country":"Turkey","latitude":40.9384864,"longitude":26.7113303,"population":304}, 
{"name":"Küçükdöllük","state":"Edirne","country":"Turkey","latitude":41.7557498,"longitude":26.6679502,"population":139}, 
{"name":"Küçükevren","state":"Edirne","country":"Turkey","latitude":40.6480317,"longitude":26.1820613,"population":202}, 
{"name":"Küçünlü","state":"Edirne","country":"Turkey","latitude":41.9347185,"longitude":26.7666554,"population":194}, 
{"name":"Küküler","state":"Edirne","country":"Turkey","latitude":41.715859,"longitude":26.895571,"population":176}, 
{"name":"Kulubalık","state":"Edirne","country":"Turkey","latitude":41.471341,"longitude":26.8269605,"population":200}, 
{"name":"Kumdere","state":"Edirne","country":"Turkey","latitude":40.866039,"longitude":26.367104,"population":878}, 
{"name":"Küpdere","state":"Edirne","country":"Turkey","latitude":41.222385,"longitude":26.4660997,"population":122}, 
{"name":"Küplü","state":"Edirne","country":"Turkey","latitude":41.1082168,"longitude":26.3509161,"population":2317}, 
{"name":"Kurdu","state":"Edirne","country":"Turkey","latitude":41.3046265,"longitude":26.5720054,"population":215}, 
{"name":"Kurtbey","state":"Edirne","country":"Turkey","latitude":41.1471672,"longitude":26.5786112,"population":1225}, 
{"name":"Kurttepe","state":"Edirne","country":"Turkey","latitude":41.370403,"longitude":26.7011687,"population":91}, 
{"name":"Kuzucu","state":"Edirne","country":"Turkey","latitude":41.506558,"longitude":26.812239,"population":302}, 
{"name":"Lalacık","state":"Edirne","country":"Turkey","latitude":40.9731608,"longitude":26.6051402,"population":224}, 
{"name":"Lalapaşa","state":"Edirne","country":"Turkey","latitude":41.8399008,"longitude":26.7345285,"population":1671}, 
{"name":"Mahmutköy","state":"Edirne","country":"Turkey","latitude":40.759468,"longitude":26.7443485,"population":449}, 
{"name":"Maksutlu","state":"Edirne","country":"Turkey","latitude":41.1195384,"longitude":26.6936701,"population":483}, 
{"name":"Malkoç","state":"Edirne","country":"Turkey","latitude":41.2740525,"longitude":26.7671241,"population":359}, 
{"name":"Maltepe","state":"Edirne","country":"Turkey","latitude":40.9875694,"longitude":26.6402979,"population":307}, 
{"name":"Mecidiye","state":"Edirne","country":"Turkey","latitude":40.6425331,"longitude":26.5390817,"population":811}, 
{"name":"Menekşesofular","state":"Edirne","country":"Turkey","latitude":41.7631604,"longitude":26.6406296,"population":197}, 
{"name":"Mercan","state":"Edirne","country":"Turkey","latitude":40.7477251,"longitude":26.6033579,"population":91}, 
{"name":"Meriç","state":"Edirne","country":"Turkey","latitude":41.1913411,"longitude":26.42008,"population":2953}, 
{"name":"Meşeli","state":"Edirne","country":"Turkey","latitude":41.3890625,"longitude":26.7264042,"population":100}, 
{"name":"Muhacırkadı","state":"Edirne","country":"Turkey","latitude":41.3316551,"longitude":26.8769162,"population":272}, 
{"name":"Muratçalı","state":"Edirne","country":"Turkey","latitude":41.8045916,"longitude":26.6163167,"population":154}, 
{"name":"Musabeyli","state":"Edirne","country":"Turkey","latitude":41.697121,"longitude":26.661238,"population":380}, 
{"name":"Musulca","state":"Edirne","country":"Turkey","latitude":41.6742534,"longitude":26.8636883,"population":286}, 
{"name":"Naipyusuf","state":"Edirne","country":"Turkey","latitude":41.4839143,"longitude":26.9046998,"population":467}, 
{"name":"Nasuhbey","state":"Edirne","country":"Turkey","latitude":41.215674,"longitude":26.3454736,"population":262}, 
{"name":"Necatiye","state":"Edirne","country":"Turkey","latitude":41.5006445,"longitude":26.9005173,"population":565}, 
{"name":"Oğulpaşa","state":"Edirne","country":"Turkey","latitude":41.6011466,"longitude":26.7495262,"population":851}, 
{"name":"Olacak","state":"Edirne","country":"Turkey","latitude":41.2153835,"longitude":26.4742625,"population":159}, 
{"name":"Ömerbey","state":"Edirne","country":"Turkey","latitude":41.2671528,"longitude":26.8371825,"population":201}, 
{"name":"Ömeroba","state":"Edirne","country":"Turkey","latitude":41.9234269,"longitude":26.9291393,"population":241}, 
{"name":"Orhaniye","state":"Edirne","country":"Turkey","latitude":41.514778,"longitude":26.652922,"population":570}, 
{"name":"Orhaniye","state":"Edirne","country":"Turkey","latitude":40.7324088,"longitude":26.4326783,"population":328}, 
{"name":"Ortakçı","state":"Edirne","country":"Turkey","latitude":41.785013,"longitude":26.7356784,"population":282}, 
{"name":"Osmanlı","state":"Edirne","country":"Turkey","latitude":41.58865,"longitude":26.8359387,"population":994}, 
{"name":"Paşaköy","state":"Edirne","country":"Turkey","latitude":40.849365,"longitude":26.320835,"population":987}, 
{"name":"Paşayenice","state":"Edirne","country":"Turkey","latitude":41.1983683,"longitude":26.554879,"population":87}, 
{"name":"Paşayiğit","state":"Edirne","country":"Turkey","latitude":40.9598042,"longitude":26.6353111,"population":1342}, 
{"name":"Pazardere","state":"Edirne","country":"Turkey","latitude":40.97942,"longitude":26.580414,"population":444}, 
{"name":"Pırnar","state":"Edirne","country":"Turkey","latitude":40.7078628,"longitude":26.6380922,"population":375}, 
{"name":"Rahmanca","state":"Edirne","country":"Turkey","latitude":41.283546,"longitude":26.48962,"population":246}, 
{"name":"Saatağacı","state":"Edirne","country":"Turkey","latitude":41.1659887,"longitude":26.5085519,"population":136}, 
{"name":"Şabanmera","state":"Edirne","country":"Turkey","latitude":40.6792493,"longitude":26.4079493,"population":228}, 
{"name":"Saçlımüsellim","state":"Edirne","country":"Turkey","latitude":41.4230339,"longitude":26.6313434,"population":91}, 
{"name":"Saksağan","state":"Edirne","country":"Turkey","latitude":41.8768019,"longitude":26.6045915,"population":29}, 
{"name":"Salarlı","state":"Edirne","country":"Turkey","latitude":41.2265014,"longitude":26.6285719,"population":723}, 
{"name":"Sarayakpınar","state":"Edirne","country":"Turkey","latitude":41.7794043,"longitude":26.4802027,"population":237}, 
{"name":"Sarıcaali","state":"Edirne","country":"Turkey","latitude":40.985455,"longitude":26.383383,"population":606}, 
{"name":"Sarıdanişment","state":"Edirne","country":"Turkey","latitude":41.8660278,"longitude":26.8288254,"population":253}, 
{"name":"Sarpdere","state":"Edirne","country":"Turkey","latitude":40.88673,"longitude":26.4321511,"population":427}, 
{"name":"Sazlıdere","state":"Edirne","country":"Turkey","latitude":41.610169,"longitude":26.679438,"population":547}, 
{"name":"Sazlıdere","state":"Edirne","country":"Turkey","latitude":40.6595669,"longitude":26.6853827,"population":224}, 
{"name":"Sazlımalkoç","state":"Edirne","country":"Turkey","latitude":41.3580929,"longitude":26.8781628,"population":340}, 
{"name":"Şehitler","state":"Edirne","country":"Turkey","latitude":40.690861,"longitude":26.292047,"population":256}, 
{"name":"Şerbettar","state":"Edirne","country":"Turkey","latitude":41.4600779,"longitude":26.7573126,"population":761}, 
{"name":"Serem","state":"Edirne","country":"Turkey","latitude":41.3136675,"longitude":26.5148268,"population":294}, 
{"name":"Seydiköy","state":"Edirne","country":"Turkey","latitude":40.7898724,"longitude":26.7336817,"population":188}, 
{"name":"Siğilli","state":"Edirne","country":"Turkey","latitude":40.8146008,"longitude":26.5962162,"population":821}, 
{"name":"Sığırcılı","state":"Edirne","country":"Turkey","latitude":41.406261,"longitude":26.6411867,"population":221}, 
{"name":"Sinanköy","state":"Edirne","country":"Turkey","latitude":41.8159591,"longitude":26.6988876,"population":364}, 
{"name":"Sipahi","state":"Edirne","country":"Turkey","latitude":41.2283623,"longitude":26.8917587,"population":300}, 
{"name":"Söğütlüdere","state":"Edirne","country":"Turkey","latitude":41.6359202,"longitude":26.8054306,"population":203}, 
{"name":"Suakacağı","state":"Edirne","country":"Turkey","latitude":41.8407474,"longitude":26.5865363,"population":80}, 
{"name":"Subaşı","state":"Edirne","country":"Turkey","latitude":41.1432301,"longitude":26.3748377,"population":1952}, 
{"name":"Şükrüköy","state":"Edirne","country":"Turkey","latitude":40.7886289,"longitude":26.7171489,"population":192}, 
{"name":"Sülecik","state":"Edirne","country":"Turkey","latitude":41.8148759,"longitude":26.8502134,"population":165}, 
{"name":"Süleymandanişment","state":"Edirne","country":"Turkey","latitude":41.8969797,"longitude":26.8895824,"population":229}, 
{"name":"Süleymaniye","state":"Edirne","country":"Turkey","latitude":41.1211684,"longitude":26.8041135,"population":477}, 
{"name":"Süloğlu","state":"Edirne","country":"Turkey","latitude":41.7656982,"longitude":26.9080072,"population":3912}, 
{"name":"Sultan","state":"Edirne","country":"Turkey","latitude":41.025162,"longitude":26.453489,"population":1216}, 
{"name":"Sultaniçe","state":"Edirne","country":"Turkey","latitude":40.625454,"longitude":26.153734,"population":981}, 
{"name":"Sultanşah","state":"Edirne","country":"Turkey","latitude":41.2501854,"longitude":26.8870166,"population":248}, 
{"name":"Suluca","state":"Edirne","country":"Turkey","latitude":40.6886107,"longitude":26.4638315,"population":368}, 
{"name":"Sütçüler","state":"Edirne","country":"Turkey","latitude":40.711473,"longitude":26.3191665,"population":179}, 
{"name":"Tahal","state":"Edirne","country":"Turkey","latitude":41.4258894,"longitude":26.8562753,"population":208}, 
{"name":"Taptık","state":"Edirne","country":"Turkey","latitude":41.543251,"longitude":26.911213,"population":487}, 
{"name":"Taşlımüsellim","state":"Edirne","country":"Turkey","latitude":41.8234669,"longitude":26.7703754,"population":234}, 
{"name":"Taşlısekban","state":"Edirne","country":"Turkey","latitude":41.803295,"longitude":26.877626,"population":266}, 
{"name":"Tatarlar","state":"Edirne","country":"Turkey","latitude":41.835865,"longitude":26.886011,"population":331}, 
{"name":"Tayakadın","state":"Edirne","country":"Turkey","latitude":41.575623,"longitude":26.660427,"population":1536}, 
{"name":"Tevfikiye","state":"Edirne","country":"Turkey","latitude":41.0636385,"longitude":26.4938268,"population":178}, 
{"name":"Tuğlalık","state":"Edirne","country":"Turkey","latitude":41.9245138,"longitude":26.6154847,"population":70}, 
{"name":"Türkmen","state":"Edirne","country":"Turkey","latitude":40.8062855,"longitude":26.505064,"population":989}, 
{"name":"Türkobası","state":"Edirne","country":"Turkey","latitude":41.0933345,"longitude":26.6096793,"population":220}, 
{"name":"Turnacı","state":"Edirne","country":"Turkey","latitude":41.2527882,"longitude":26.9250389,"population":252}, 
{"name":"Turpçular","state":"Edirne","country":"Turkey","latitude":40.941803,"longitude":26.43816,"population":563}, 
{"name":"Umurbey","state":"Edirne","country":"Turkey","latitude":40.6697117,"longitude":26.2352938,"population":57}, 
{"name":"Umurca","state":"Edirne","country":"Turkey","latitude":41.2004188,"longitude":26.3583482,"population":268}, 
{"name":"Üyüklütatar","state":"Edirne","country":"Turkey","latitude":41.544365,"longitude":26.610935,"population":595}, 
{"name":"Uzgaç","state":"Edirne","country":"Turkey","latitude":41.7924572,"longitude":26.4366667,"population":104}, 
{"name":"Uzunbayır","state":"Edirne","country":"Turkey","latitude":41.9273315,"longitude":26.5920017,"population":91}, 
{"name":"Uzunköprü","state":"Edirne","country":"Turkey","latitude":41.2626058,"longitude":26.6855961,"population":39753}, 
{"name":"Vakıf","state":"Edirne","country":"Turkey","latitude":40.616291,"longitude":26.257708,"population":366}, 
{"name":"Vaysal","state":"Edirne","country":"Turkey","latitude":41.9420655,"longitude":26.8717184,"population":403}, 
{"name":"Yağcılı","state":"Edirne","country":"Turkey","latitude":41.7837392,"longitude":26.8289237,"population":242}, 
{"name":"Yağmurca","state":"Edirne","country":"Turkey","latitude":41.1686262,"longitude":26.8638825,"population":702}, 
{"name":"Yakupbey","state":"Edirne","country":"Turkey","latitude":41.239536,"longitude":26.554531,"population":132}, 
{"name":"Yapıldak","state":"Edirne","country":"Turkey","latitude":40.7929118,"longitude":26.4428258,"population":358}, 
{"name":"Yaylaköy","state":"Edirne","country":"Turkey","latitude":40.6301713,"longitude":26.3907117,"population":544}, 
{"name":"Yazır","state":"Edirne","country":"Turkey","latitude":40.696858,"longitude":26.233908,"population":121}, 
{"name":"Yenice","state":"Edirne","country":"Turkey","latitude":40.7002882,"longitude":26.1492201,"population":799}, 
{"name":"Yeniceçiftlik","state":"Edirne","country":"Turkey","latitude":40.8743457,"longitude":26.5717418,"population":227}, 
{"name":"Yenicegörüce","state":"Edirne","country":"Turkey","latitude":41.1310847,"longitude":26.4677754,"population":353}, 
{"name":"Yenikadın","state":"Edirne","country":"Turkey","latitude":41.698437,"longitude":26.437388,"population":427}, 
{"name":"Yenikarpuzlu","state":"Edirne","country":"Turkey","latitude":40.8307567,"longitude":26.2944164,"population":3064}, 
{"name":"Yeniköy","state":"Edirne","country":"Turkey","latitude":41.3427692,"longitude":26.7660443,"population":794}, 
{"name":"Yenimuhacir","state":"Edirne","country":"Turkey","latitude":40.8584203,"longitude":26.6951873,"population":2027}, 
{"name":"Yerlisu","state":"Edirne","country":"Turkey","latitude":40.7256862,"longitude":26.7288691,"population":137}, 
{"name":"Yeşilköy","state":"Edirne","country":"Turkey","latitude":40.7097865,"longitude":26.5181925,"population":123}, 
{"name":"Yolageldi","state":"Edirne","country":"Turkey","latitude":41.520561,"longitude":26.949383,"population":662}, 
{"name":"Yolüstü","state":"Edirne","country":"Turkey","latitude":41.79646,"longitude":26.558074,"population":297}, 
{"name":"Yünlüce","state":"Edirne","country":"Turkey","latitude":41.8531776,"longitude":26.6334586,"population":78}, 
{"name":"Akalan","state":"İstanbul","country":"Turkey","latitude":41.257679,"longitude":28.419617,"population":1052}, 
{"name":"Akören","state":"İstanbul","country":"Turkey","latitude":41.1961748,"longitude":28.3362078,"population":1312}, 
{"name":"Arnavutköy","state":"İstanbul","country":"Turkey","latitude":41.184471,"longitude":28.7412446,"population":272868}, 
{"name":"Aydınlar","state":"İstanbul","country":"Turkey","latitude":41.3750651,"longitude":28.2055315,"population":826}, 
{"name":"Baklalı","state":"İstanbul","country":"Turkey","latitude":41.258862,"longitude":28.652605,"population":881}, 
{"name":"Balaban","state":"İstanbul","country":"Turkey","latitude":41.3098086,"longitude":28.6137897,"population":460}, 
{"name":"Başak","state":"İstanbul","country":"Turkey","latitude":41.332951,"longitude":28.445322,"population":368}, 
{"name":"Bekirli","state":"İstanbul","country":"Turkey","latitude":41.2268861,"longitude":28.2992806,"population":197}, 
{"name":"Belgrat","state":"İstanbul","country":"Turkey","latitude":41.3784267,"longitude":28.3840477,"population":360}, 
{"name":"Beyciler","state":"İstanbul","country":"Turkey","latitude":41.235941,"longitude":28.115909,"population":1381}, 
{"name":"Binkılıç","state":"İstanbul","country":"Turkey","latitude":41.413624,"longitude":28.1855366,"population":2487}, 
{"name":"Boğazköy","state":"İstanbul","country":"Turkey","latitude":41.1816651,"longitude":28.7738364,"population":35852}, 
{"name":"Bolluca","state":"İstanbul","country":"Turkey","latitude":41.2222213,"longitude":28.7785056,"population":18705}, 
{"name":"Boyalık","state":"İstanbul","country":"Turkey","latitude":41.2634653,"longitude":28.6293234,"population":697}, 
{"name":"Büyük Kılıçlı","state":"İstanbul","country":"Turkey","latitude":41.163228,"longitude":28.190187,"population":1160}, 
{"name":"Büyük Sinekli","state":"İstanbul","country":"Turkey","latitude":41.2246766,"longitude":28.2107625,"population":407}, 
{"name":"Büyükçavuşlu","state":"İstanbul","country":"Turkey","latitude":41.2251004,"longitude":28.0467837,"population":3292}, 
{"name":"Çanakça","state":"İstanbul","country":"Turkey","latitude":41.245892,"longitude":28.49407,"population":2600}, 
{"name":"Çanta","state":"İstanbul","country":"Turkey","latitude":41.080669,"longitude":28.082397,"population":9101}, 
{"name":"Çatalca","state":"İstanbul","country":"Turkey","latitude":41.1436804,"longitude":28.4605154,"population":47162}, 
{"name":"Çayırdere","state":"İstanbul","country":"Turkey","latitude":41.281857,"longitude":28.144777,"population":1238}, 
{"name":"Celepköy","state":"İstanbul","country":"Turkey","latitude":41.3654071,"longitude":28.4997591,"population":273}, 
{"name":"Çeltik","state":"İstanbul","country":"Turkey","latitude":41.1100776,"longitude":28.1191803,"population":937}, 
{"name":"Çiftlik","state":"İstanbul","country":"Turkey","latitude":41.0678014,"longitude":28.4813261,"population":1915}, 
{"name":"Dağyenice","state":"İstanbul","country":"Turkey","latitude":41.273354,"longitude":28.482552,"population":740}, 
{"name":"Danamandıra","state":"İstanbul","country":"Turkey","latitude":41.307926,"longitude":28.242407,"population":1072}, 
{"name":"Değirmen","state":"İstanbul","country":"Turkey","latitude":41.2186004,"longitude":28.0972189,"population":6260}, 
{"name":"Durusu","state":"İstanbul","country":"Turkey","latitude":41.300846,"longitude":28.6774858,"population":1655}, 
{"name":"Elbasan","state":"İstanbul","country":"Turkey","latitude":41.139164,"longitude":28.415209,"population":587}, 
{"name":"Fener","state":"İstanbul","country":"Turkey","latitude":41.1504819,"longitude":28.236966,"population":1472}, 
{"name":"Gökçeali","state":"İstanbul","country":"Turkey","latitude":41.2011203,"longitude":28.4435209,"population":1858}, 
{"name":"Gümüşpınar","state":"İstanbul","country":"Turkey","latitude":41.314438,"longitude":28.285694,"population":889}, 
{"name":"Gümüşyaka","state":"İstanbul","country":"Turkey","latitude":41.0599474,"longitude":28.02374,"population":8089}, 
{"name":"Hacımaşlı","state":"İstanbul","country":"Turkey","latitude":41.155584,"longitude":28.7145992,"population":631}, 
{"name":"Hadımköy","state":"İstanbul","country":"Turkey","latitude":41.1585587,"longitude":28.6212692,"population":48645}, 
{"name":"Hadımköy","state":"İstanbul","country":"Turkey","latitude":41.1872859,"longitude":28.5561065,"population":845}, 
{"name":"Hallaçlı","state":"İstanbul","country":"Turkey","latitude":41.3204276,"longitude":28.1000039,"population":1509}, 
{"name":"Haraççı","state":"İstanbul","country":"Turkey","latitude":41.1763646,"longitude":28.7024285,"population":17979}, 
{"name":"Hisarbeyli","state":"İstanbul","country":"Turkey","latitude":41.368565,"longitude":28.474049,"population":352}, 
{"name":"İhsaniye","state":"İstanbul","country":"Turkey","latitude":41.2544762,"longitude":28.3585871,"population":1660}, 
{"name":"İnceğiz","state":"İstanbul","country":"Turkey","latitude":41.1859009,"longitude":28.4035095,"population":832}, 
{"name":"İstanbul","state":"İstanbul","country":"Turkey","latitude":41.006381,"longitude":28.9758715,"population":14825719,"stateCapital":true}, 
{"name":"Kabakça","state":"İstanbul","country":"Turkey","latitude":41.2284603,"longitude":28.3695911,"population":1666}, 
{"name":"Kalfa","state":"İstanbul","country":"Turkey","latitude":41.289814,"longitude":28.437193,"population":785}, 
{"name":"Karaburun","state":"İstanbul","country":"Turkey","latitude":41.3458809,"longitude":28.6820201,"population":1630}, 
{"name":"Karacaköy","state":"İstanbul","country":"Turkey","latitude":41.4022498,"longitude":28.3816684,"population":2471}, 
{"name":"Karamandere","state":"İstanbul","country":"Turkey","latitude":41.376106,"longitude":28.3065,"population":663}, 
{"name":"Kavaklı","state":"İstanbul","country":"Turkey","latitude":41.092394,"longitude":28.3356266,"population":3792}, 
{"name":"Kestanelik","state":"İstanbul","country":"Turkey","latitude":41.235188,"longitude":28.495035,"population":2287}, 
{"name":"Kızılcaali","state":"İstanbul","country":"Turkey","latitude":41.2362303,"longitude":28.5594042,"population":209}, 
{"name":"Küçük Sinekli","state":"İstanbul","country":"Turkey","latitude":41.2291727,"longitude":28.1915768,"population":166}, 
{"name":"Kurfallı","state":"İstanbul","country":"Turkey","latitude":41.2008973,"longitude":28.261278,"population":485}, 
{"name":"Muratbey","state":"İstanbul","country":"Turkey","latitude":41.0956974,"longitude":28.4930268,"population":1399}, 
{"name":"Oklalı","state":"İstanbul","country":"Turkey","latitude":41.224525,"longitude":28.475758,"population":1367}, 
{"name":"Örcünlü","state":"İstanbul","country":"Turkey","latitude":41.223648,"longitude":28.523932,"population":501}, 
{"name":"Örencik","state":"İstanbul","country":"Turkey","latitude":41.329559,"longitude":28.482586,"population":905}, 
{"name":"Ormanlı","state":"İstanbul","country":"Turkey","latitude":41.392712,"longitude":28.453407,"population":1033}, 
{"name":"Ortaköy","state":"İstanbul","country":"Turkey","latitude":41.1018136,"longitude":28.3751315,"population":5356}, 
{"name":"Sayalar","state":"İstanbul","country":"Turkey","latitude":41.3165679,"longitude":28.1741723,"population":823}, 
{"name":"Selimpaşa","state":"İstanbul","country":"Turkey","latitude":41.0548272,"longitude":28.3668,"population":20337}, 
{"name":"Seymen","state":"İstanbul","country":"Turkey","latitude":41.1564501,"longitude":28.1704539,"population":1033}, 
{"name":"Silivri","state":"İstanbul","country":"Turkey","latitude":41.0742476,"longitude":28.2481709,"population":181997}, 
{"name":"Subaşı","state":"İstanbul","country":"Turkey","latitude":41.2267723,"longitude":28.458469,"population":1377}, 
{"name":"Taşoluk","state":"İstanbul","country":"Turkey","latitude":41.1960582,"longitude":28.7167959,"population":25437}, 
{"name":"Tayakadın","state":"İstanbul","country":"Turkey","latitude":41.269504,"longitude":28.689606,"population":3385}, 
{"name":"Yalıköy","state":"İstanbul","country":"Turkey","latitude":41.477085,"longitude":28.296103,"population":1453}, 
{"name":"Yassıören","state":"İstanbul","country":"Turkey","latitude":41.234817,"longitude":28.595838,"population":551}, 
{"name":"Yaylacık","state":"İstanbul","country":"Turkey","latitude":41.3571169,"longitude":28.2198949,"population":59}, 
{"name":"Yazlık","state":"İstanbul","country":"Turkey","latitude":41.293289,"longitude":28.518435,"population":345}, 
{"name":"Yeniköy","state":"İstanbul","country":"Turkey","latitude":41.3178498,"longitude":28.7231106,"population":1385}, 
{"name":"Ağayeri","state":"Kırklareli","country":"Turkey","latitude":41.4600983,"longitude":26.9260475,"population":305}, 
{"name":"Ahlatlı","state":"Kırklareli","country":"Turkey","latitude":42.0842493,"longitude":27.237267,"population":53}, 
{"name":"Ahmetbey","state":"Kırklareli","country":"Turkey","latitude":41.4406007,"longitude":27.5854865,"population":3832}, 
{"name":"Ahmetçe","state":"Kırklareli","country":"Turkey","latitude":41.790863,"longitude":27.236738,"population":101}, 
{"name":"Ahmetler","state":"Kırklareli","country":"Turkey","latitude":42.0331014,"longitude":27.2249873,"population":125}, 
{"name":"Akarca","state":"Kırklareli","country":"Turkey","latitude":41.3323823,"longitude":26.9365078,"population":353}, 
{"name":"Akçaköy","state":"Kırklareli","country":"Turkey","latitude":41.3663311,"longitude":27.5639802,"population":289}, 
{"name":"Akıncılar","state":"Kırklareli","country":"Turkey","latitude":41.4590435,"longitude":27.6451779,"population":369}, 
{"name":"Akören","state":"Kırklareli","country":"Turkey","latitude":41.70229,"longitude":27.5603608,"population":65}, 
{"name":"Akpınar","state":"Kırklareli","country":"Turkey","latitude":41.57486,"longitude":27.840561,"population":357}, 
{"name":"Aksicim","state":"Kırklareli","country":"Turkey","latitude":41.6132656,"longitude":28.0251763,"population":271}, 
{"name":"Alacaoğlu","state":"Kırklareli","country":"Turkey","latitude":41.2838433,"longitude":27.3141382,"population":565}, 
{"name":"Alpullu","state":"Kırklareli","country":"Turkey","latitude":41.3707689,"longitude":27.1402266,"population":2134}, 
{"name":"Armağan","state":"Kırklareli","country":"Turkey","latitude":41.8660685,"longitude":27.4254488,"population":395}, 
{"name":"Armutveren","state":"Kırklareli","country":"Turkey","latitude":41.9011745,"longitude":27.5458805,"population":106}, 
{"name":"Aşağıkanara","state":"Kırklareli","country":"Turkey","latitude":42.0135486,"longitude":27.0410269,"population":28}, 
{"name":"Asılbeyli","state":"Kırklareli","country":"Turkey","latitude":41.670837,"longitude":27.239334,"population":372}, 
{"name":"Ataköy","state":"Kırklareli","country":"Turkey","latitude":41.587894,"longitude":27.442915,"population":557}, 
{"name":"Avcılar","state":"Kırklareli","country":"Turkey","latitude":41.9003821,"longitude":27.8508079,"population":157}, 
{"name":"Ayvalı","state":"Kırklareli","country":"Turkey","latitude":41.4421808,"longitude":27.3018958,"population":590}, 
{"name":"Azizbaba","state":"Kırklareli","country":"Turkey","latitude":41.617249,"longitude":26.920828,"population":126}, 
{"name":"Babaeski","state":"Kırklareli","country":"Turkey","latitude":41.4302616,"longitude":27.0917789,"population":29569}, 
{"name":"Balaban","state":"Kırklareli","country":"Turkey","latitude":41.8374575,"longitude":27.6754284,"population":386}, 
{"name":"Balkaya","state":"Kırklareli","country":"Turkey","latitude":41.6134186,"longitude":27.9592579,"population":314}, 
{"name":"Bayramdere","state":"Kırklareli","country":"Turkey","latitude":41.6408382,"longitude":27.3453614,"population":345}, 
{"name":"Beğendik","state":"Kırklareli","country":"Turkey","latitude":41.962566,"longitude":28.022011,"population":262}, 
{"name":"Beyci","state":"Kırklareli","country":"Turkey","latitude":42.0485247,"longitude":27.0742251,"population":56}, 
{"name":"Beypınar","state":"Kırklareli","country":"Turkey","latitude":41.8008407,"longitude":27.5064201,"population":133}, 
{"name":"Boztaş","state":"Kırklareli","country":"Turkey","latitude":41.9141932,"longitude":27.6467218,"population":298}, 
{"name":"Büyükkarıştıran","state":"Kırklareli","country":"Turkey","latitude":41.3003348,"longitude":27.5429886,"population":5868}, 
{"name":"Büyükmandıra","state":"Kırklareli","country":"Turkey","latitude":41.3508436,"longitude":27.0962852,"population":3337}, 
{"name":"Çağalayık","state":"Kırklareli","country":"Turkey","latitude":42.033118,"longitude":27.3436064,"population":94}, 
{"name":"Çakıllı","state":"Kırklareli","country":"Turkey","latitude":41.513222,"longitude":27.87359,"population":1991}, 
{"name":"Çavuşköy","state":"Kırklareli","country":"Turkey","latitude":41.488174,"longitude":27.178593,"population":178}, 
{"name":"Çavuşköy","state":"Kırklareli","country":"Turkey","latitude":41.578796,"longitude":27.712774,"population":265}, 
{"name":"Çayırdere","state":"Kırklareli","country":"Turkey","latitude":41.700092,"longitude":27.51343,"population":227}, 
{"name":"Çayırlı","state":"Kırklareli","country":"Turkey","latitude":41.876991,"longitude":27.051722,"population":64}, 
{"name":"Celaliye","state":"Kırklareli","country":"Turkey","latitude":41.5282061,"longitude":27.3660305,"population":1278}, 
{"name":"Çengelli","state":"Kırklareli","country":"Turkey","latitude":41.2466226,"longitude":27.3725781,"population":193}, 
{"name":"Çengerli","state":"Kırklareli","country":"Turkey","latitude":41.4285192,"longitude":26.9710864,"population":192}, 
{"name":"Çeşmekolu","state":"Kırklareli","country":"Turkey","latitude":41.5301671,"longitude":27.2779543,"population":241}, 
{"name":"Çeşmeköy","state":"Kırklareli","country":"Turkey","latitude":41.870758,"longitude":26.992784,"population":194}, 
{"name":"Cevizköy","state":"Kırklareli","country":"Turkey","latitude":41.5473118,"longitude":27.5935818,"population":743}, 
{"name":"Ceylanköy","state":"Kırklareli","country":"Turkey","latitude":41.552002,"longitude":27.432344,"population":416}, 
{"name":"Çiftlikköy","state":"Kırklareli","country":"Turkey","latitude":41.2882269,"longitude":27.4715869,"population":912}, 
{"name":"Çiğdemli","state":"Kırklareli","country":"Turkey","latitude":41.385326,"longitude":27.05307,"population":405}, 
{"name":"Çukurpınar","state":"Kırklareli","country":"Turkey","latitude":41.8363565,"longitude":27.4695698,"population":315}, 
{"name":"Çüvenli","state":"Kırklareli","country":"Turkey","latitude":41.487953,"longitude":27.694551,"population":307}, 
{"name":"Davutlu","state":"Kırklareli","country":"Turkey","latitude":41.2323825,"longitude":27.4193357,"population":102}, 
{"name":"Değirmencik","state":"Kırklareli","country":"Turkey","latitude":41.602898,"longitude":27.208706,"population":407}, 
{"name":"Demircihalil","state":"Kırklareli","country":"Turkey","latitude":41.8048651,"longitude":27.3036077,"population":114}, 
{"name":"Demirköy","state":"Kırklareli","country":"Turkey","latitude":41.8241512,"longitude":27.7651465,"population":3375}, 
{"name":"Dereköy Bucak Merkezi","state":"Kırklareli","country":"Turkey","latitude":41.9329647,"longitude":27.3652591,"population":510}, 
{"name":"Deveçatağı","state":"Kırklareli","country":"Turkey","latitude":41.584373,"longitude":27.311258,"population":356}, 
{"name":"Develi","state":"Kırklareli","country":"Turkey","latitude":41.5701187,"longitude":27.7232723,"population":156}, 
{"name":"Devletliağaç","state":"Kırklareli","country":"Turkey","latitude":41.980148,"longitude":27.011566,"population":166}, 
{"name":"Doğanca","state":"Kırklareli","country":"Turkey","latitude":41.3876928,"longitude":26.9925157,"population":350}, 
{"name":"Doğanca","state":"Kırklareli","country":"Turkey","latitude":41.581467,"longitude":27.615549,"population":421}, 
{"name":"Dokuzhüyük","state":"Kırklareli","country":"Turkey","latitude":41.638939,"longitude":27.061295,"population":457}, 
{"name":"Dolhan","state":"Kırklareli","country":"Turkey","latitude":41.7502342,"longitude":27.0247131,"population":659}, 
{"name":"Düğüncübaşı","state":"Kırklareli","country":"Turkey","latitude":41.3331393,"longitude":27.2788851,"population":1000}, 
{"name":"Düğüncülü","state":"Kırklareli","country":"Turkey","latitude":41.370308,"longitude":27.169079,"population":499}, 
{"name":"Düzorman","state":"Kırklareli","country":"Turkey","latitude":41.8494224,"longitude":27.3666237,"population":86}, 
{"name":"Düzova","state":"Kırklareli","country":"Turkey","latitude":41.5159891,"longitude":27.7793459,"population":327}, 
{"name":"Elmacık","state":"Kırklareli","country":"Turkey","latitude":41.897106,"longitude":27.177683,"population":239}, 
{"name":"Emirali","state":"Kırklareli","country":"Turkey","latitude":41.446461,"longitude":27.546792,"population":708}, 
{"name":"Erenler","state":"Kırklareli","country":"Turkey","latitude":41.628193,"longitude":27.569931,"population":177}, 
{"name":"Erikler","state":"Kırklareli","country":"Turkey","latitude":41.8782812,"longitude":27.1309792,"population":424}, 
{"name":"Erikleryurdu","state":"Kırklareli","country":"Turkey","latitude":41.5724678,"longitude":27.2228732,"population":281}, 
{"name":"Eriklice","state":"Kırklareli","country":"Turkey","latitude":41.7497742,"longitude":27.182074,"population":168}, 
{"name":"Ertuğrul","state":"Kırklareli","country":"Turkey","latitude":41.535023,"longitude":27.505968,"population":421}, 
{"name":"Ertuğrulköy","state":"Kırklareli","country":"Turkey","latitude":41.4475987,"longitude":26.9973491,"population":238}, 
{"name":"Eskibedir","state":"Kırklareli","country":"Turkey","latitude":41.3503655,"longitude":27.3924029,"population":88}, 
{"name":"Eskitaşlı","state":"Kırklareli","country":"Turkey","latitude":41.4901468,"longitude":27.4032669,"population":748}, 
{"name":"Evciler","state":"Kırklareli","country":"Turkey","latitude":41.7370214,"longitude":27.594544,"population":264}, 
{"name":"Evrencik","state":"Kırklareli","country":"Turkey","latitude":41.650497,"longitude":27.712696,"population":611}, 
{"name":"Evrenli","state":"Kırklareli","country":"Turkey","latitude":41.5358814,"longitude":27.8561263,"population":874}, 
{"name":"Evrensekiz","state":"Kırklareli","country":"Turkey","latitude":41.3734472,"longitude":27.4925497,"population":2835}, 
{"name":"Geçitağzı","state":"Kırklareli","country":"Turkey","latitude":41.9403139,"longitude":27.3150575,"population":210}, 
{"name":"Gökyaka","state":"Kırklareli","country":"Turkey","latitude":41.884377,"longitude":27.624641,"population":71}, 
{"name":"Hacıfakılı","state":"Kırklareli","country":"Turkey","latitude":41.7246897,"longitude":27.4660606,"population":103}, 
{"name":"Hamdibey","state":"Kırklareli","country":"Turkey","latitude":41.864674,"longitude":27.764809,"population":329}, 
{"name":"Hamidiye","state":"Kırklareli","country":"Turkey","latitude":41.6646448,"longitude":27.9780848,"population":51}, 
{"name":"Hamitabat","state":"Kırklareli","country":"Turkey","latitude":41.50662,"longitude":27.2842653,"population":1156}, 
{"name":"Hamzabey","state":"Kırklareli","country":"Turkey","latitude":41.5292867,"longitude":27.4205613,"population":334}, 
{"name":"Hasbuğa","state":"Kırklareli","country":"Turkey","latitude":41.5163371,"longitude":27.7400662,"population":539}, 
{"name":"Hazinedar","state":"Kırklareli","country":"Turkey","latitude":41.5626323,"longitude":27.0036631,"population":461}, 
{"name":"Hıdırca","state":"Kırklareli","country":"Turkey","latitude":41.3793304,"longitude":26.9098051,"population":202}, 
{"name":"İğneada","state":"Kırklareli","country":"Turkey","latitude":41.8773668,"longitude":27.9872803,"population":2492}, 
{"name":"İmampazarı","state":"Kırklareli","country":"Turkey","latitude":41.4103227,"longitude":26.9338854,"population":61}, 
{"name":"İncesırt","state":"Kırklareli","country":"Turkey","latitude":41.9054797,"longitude":27.5814899,"population":37}, 
{"name":"İnece","state":"Kırklareli","country":"Turkey","latitude":41.6745388,"longitude":27.0685228,"population":1750}, 
{"name":"İslambeyli","state":"Kırklareli","country":"Turkey","latitude":41.702381,"longitude":27.621025,"population":256}, 
{"name":"Kadıköy","state":"Kırklareli","country":"Turkey","latitude":41.854652,"longitude":27.207743,"population":199}, 
{"name":"Kadıköy","state":"Kırklareli","country":"Turkey","latitude":41.48867,"longitude":27.060913,"population":207}, 
{"name":"Kapaklı","state":"Kırklareli","country":"Turkey","latitude":41.8975756,"longitude":27.3496396,"population":203}, 
{"name":"Karaabalar","state":"Kırklareli","country":"Turkey","latitude":42.0703206,"longitude":27.2872485,"population":91}, 
{"name":"Karaağaç","state":"Kırklareli","country":"Turkey","latitude":41.512108,"longitude":27.476837,"population":659}, 
{"name":"Karabayır","state":"Kırklareli","country":"Turkey","latitude":41.5797262,"longitude":27.1928145,"population":150}, 
{"name":"Karacadağ","state":"Kırklareli","country":"Turkey","latitude":41.953793,"longitude":27.678089,"population":52}, 
{"name":"Karacaoğlan","state":"Kırklareli","country":"Turkey","latitude":41.534084,"longitude":27.076494,"population":188}, 
{"name":"Karadere","state":"Kırklareli","country":"Turkey","latitude":41.9229999,"longitude":27.4403091,"population":90}, 
{"name":"Karahalil","state":"Kırklareli","country":"Turkey","latitude":41.5996304,"longitude":27.0452793,"population":1435}, 
{"name":"Karahamza","state":"Kırklareli","country":"Turkey","latitude":41.870903,"longitude":27.014248,"population":313}, 
{"name":"Karakoç","state":"Kırklareli","country":"Turkey","latitude":41.775642,"longitude":27.225922,"population":4138}, 
{"name":"Karamesutlu","state":"Kırklareli","country":"Turkey","latitude":41.489582,"longitude":27.109758,"population":362}, 
{"name":"Karamusul","state":"Kırklareli","country":"Turkey","latitude":41.304773,"longitude":27.4491251,"population":468}, 
{"name":"Karıncak","state":"Kırklareli","country":"Turkey","latitude":41.6703068,"longitude":27.3909603,"population":186}, 
{"name":"Katranca","state":"Kırklareli","country":"Turkey","latitude":41.354309,"longitude":27.053228,"population":673}, 
{"name":"Kavakdere","state":"Kırklareli","country":"Turkey","latitude":41.601951,"longitude":27.2679556,"population":383}, 
{"name":"Kavaklı","state":"Kırklareli","country":"Turkey","latitude":41.6555717,"longitude":27.1719382,"population":4779}, 
{"name":"Kayabeyli","state":"Kırklareli","country":"Turkey","latitude":41.3005451,"longitude":27.428761,"population":350}, 
{"name":"Kayalı","state":"Kırklareli","country":"Turkey","latitude":41.779064,"longitude":27.098459,"population":709}, 
{"name":"Kaynarca","state":"Kırklareli","country":"Turkey","latitude":41.659158,"longitude":27.4702754,"population":2101}, 
{"name":"Kırıkköy","state":"Kırklareli","country":"Turkey","latitude":41.466045,"longitude":27.247854,"population":1664}, 
{"name":"Kırklareli","state":"Kırklareli","country":"Turkey","latitude":41.7370223,"longitude":27.2235523,"population":79038,"stateCapital":true}, 
{"name":"Kışlacık","state":"Kırklareli","country":"Turkey","latitude":41.6961119,"longitude":27.9420706,"population":646}, 
{"name":"Kıyıköy","state":"Kırklareli","country":"Turkey","latitude":41.6347531,"longitude":28.0957289,"population":2183}, 
{"name":"Kızılağaç","state":"Kırklareli","country":"Turkey","latitude":41.6988866,"longitude":27.8832988,"population":544}, 
{"name":"Kızılcıkdere","state":"Kırklareli","country":"Turkey","latitude":41.6916749,"longitude":27.310979,"population":946}, 
{"name":"Kocahıdır","state":"Kırklareli","country":"Turkey","latitude":41.650356,"longitude":26.917515,"population":162}, 
{"name":"Kocatarla","state":"Kırklareli","country":"Turkey","latitude":41.946411,"longitude":27.049618,"population":92}, 
{"name":"Kocayazı","state":"Kırklareli","country":"Turkey","latitude":41.965584,"longitude":27.204521,"population":225}, 
{"name":"Kofçaz","state":"Kırklareli","country":"Turkey","latitude":41.9449622,"longitude":27.1578543,"population":604}, 
{"name":"Kömürköy","state":"Kırklareli","country":"Turkey","latitude":41.633099,"longitude":27.881214,"population":419}, 
{"name":"Koruköy","state":"Kırklareli","country":"Turkey","latitude":41.8584893,"longitude":27.3233796,"population":165}, 
{"name":"Koyunbaba","state":"Kırklareli","country":"Turkey","latitude":41.722332,"longitude":27.09955,"population":369}, 
{"name":"Küçükyayla","state":"Kırklareli","country":"Turkey","latitude":41.6350959,"longitude":27.8272688,"population":401}, 
{"name":"Kula","state":"Kırklareli","country":"Turkey","latitude":42.0043809,"longitude":27.294607,"population":71}, 
{"name":"Kuleli","state":"Kırklareli","country":"Turkey","latitude":41.4927241,"longitude":26.9426819,"population":631}, 
{"name":"Kumköy","state":"Kırklareli","country":"Turkey","latitude":41.4049693,"longitude":26.9235369,"population":135}, 
{"name":"Kumrular","state":"Kırklareli","country":"Turkey","latitude":41.506426,"longitude":27.2237109,"population":150}, 
{"name":"Kurudere","state":"Kırklareli","country":"Turkey","latitude":41.7530927,"longitude":27.5473751,"population":323}, 
{"name":"Kuştepe","state":"Kırklareli","country":"Turkey","latitude":41.3718427,"longitude":26.9620778,"population":363}, 
{"name":"Kuzuçardağı","state":"Kırklareli","country":"Turkey","latitude":41.542168,"longitude":27.076122,"population":157}, 
{"name":"Kuzulu","state":"Kırklareli","country":"Turkey","latitude":41.869884,"longitude":27.271616,"population":232}, 
{"name":"Limanköy","state":"Kırklareli","country":"Turkey","latitude":41.884831,"longitude":28.0487689,"population":356}, 
{"name":"Lüleburgaz","state":"Kırklareli","country":"Turkey","latitude":41.4041358,"longitude":27.3554651,"population":119460}, 
{"name":"Malkoçlar","state":"Kırklareli","country":"Turkey","latitude":42.0408566,"longitude":27.018753,"population":90}, 
{"name":"Minnetler","state":"Kırklareli","country":"Turkey","latitude":41.436695,"longitude":27.012751,"population":284}, 
{"name":"Müsellim","state":"Kırklareli","country":"Turkey","latitude":41.456726,"longitude":27.20261,"population":303}, 
{"name":"Müsellim","state":"Kırklareli","country":"Turkey","latitude":41.3410578,"longitude":27.3703658,"population":196}, 
{"name":"Müsellim","state":"Kırklareli","country":"Turkey","latitude":41.4876948,"longitude":27.7535598,"population":289}, 
{"name":"Mutlu","state":"Kırklareli","country":"Turkey","latitude":41.507549,"longitude":27.002806,"population":400}, 
{"name":"Nacak","state":"Kırklareli","country":"Turkey","latitude":41.559643,"longitude":27.162161,"population":155}, 
{"name":"Nadırlı","state":"Kırklareli","country":"Turkey","latitude":41.393246,"longitude":27.075136,"population":939}, 
{"name":"Okçular","state":"Kırklareli","country":"Turkey","latitude":41.5523404,"longitude":27.8257289,"population":352}, 
{"name":"Oklalı","state":"Kırklareli","country":"Turkey","latitude":41.3498083,"longitude":27.2320936,"population":222}, 
{"name":"Oruçlu","state":"Kırklareli","country":"Turkey","latitude":41.51022,"longitude":27.068789,"population":336}, 
{"name":"Osmancık","state":"Kırklareli","country":"Turkey","latitude":41.570877,"longitude":27.377941,"population":367}, 
{"name":"Osmaniye","state":"Kırklareli","country":"Turkey","latitude":41.456375,"longitude":27.139118,"population":179}, 
{"name":"Ovacık","state":"Kırklareli","country":"Turkey","latitude":41.3225823,"longitude":27.3990893,"population":579}, 
{"name":"Pancarköy","state":"Kırklareli","country":"Turkey","latitude":41.402325,"longitude":27.162994,"population":747}, 
{"name":"Paşayeri","state":"Kırklareli","country":"Turkey","latitude":41.7220359,"longitude":27.0145732,"population":410}, 
{"name":"Pazarlı","state":"Kırklareli","country":"Turkey","latitude":41.6002599,"longitude":27.7018682,"population":200}, 
{"name":"Pehlivanköy","state":"Kırklareli","country":"Turkey","latitude":41.3470399,"longitude":26.9202484,"population":1606}, 
{"name":"Pınarhisar","state":"Kırklareli","country":"Turkey","latitude":41.6254954,"longitude":27.5157753,"population":11088}, 
{"name":"Poyralı","state":"Kırklareli","country":"Turkey","latitude":41.6260399,"longitude":27.5961629,"population":373}, 
{"name":"Sakızköy","state":"Kırklareli","country":"Turkey","latitude":41.4382866,"longitude":27.4719644,"population":1128}, 
{"name":"Sarıcaali","state":"Kırklareli","country":"Turkey","latitude":41.3918356,"longitude":27.2470053,"population":507}, 
{"name":"Sarpdere","state":"Kırklareli","country":"Turkey","latitude":41.8662742,"longitude":27.5878614,"population":75}, 
{"name":"Sergen","state":"Kırklareli","country":"Turkey","latitude":41.7060867,"longitude":27.7071503,"population":1201}, 
{"name":"Seyitler","state":"Kırklareli","country":"Turkey","latitude":41.251907,"longitude":27.45056,"population":81}, 
{"name":"Sinanlı","state":"Kırklareli","country":"Turkey","latitude":41.3473996,"longitude":27.1461655,"population":1173}, 
{"name":"Sislioba","state":"Kırklareli","country":"Turkey","latitude":41.96719,"longitude":27.913525,"population":90}, 
{"name":"Sivriler","state":"Kırklareli","country":"Turkey","latitude":41.7846713,"longitude":27.8661389,"population":509}, 
{"name":"Sofuhalil","state":"Kırklareli","country":"Turkey","latitude":41.445126,"longitude":27.163841,"population":383}, 
{"name":"Sofular","state":"Kırklareli","country":"Turkey","latitude":41.642666,"longitude":27.717638,"population":79}, 
{"name":"Soğucak","state":"Kırklareli","country":"Turkey","latitude":41.640854,"longitude":27.656534,"population":386}, 
{"name":"Şükrüpaşa","state":"Kırklareli","country":"Turkey","latitude":41.9343384,"longitude":27.5126207,"population":66}, 
{"name":"Sütlüce","state":"Kırklareli","country":"Turkey","latitude":41.5058594,"longitude":27.5789935,"population":621}, 
{"name":"Taşağıl Bucak Merkezi","state":"Kırklareli","country":"Turkey","latitude":41.5216828,"longitude":27.1238073,"population":549}, 
{"name":"Taşköprü","state":"Kırklareli","country":"Turkey","latitude":41.464371,"longitude":27.01676,"population":300}, 
{"name":"Tastepe","state":"Kırklareli","country":"Turkey","latitude":41.964218,"longitude":27.137867,"population":81}, 
{"name":"Tatarköy","state":"Kırklareli","country":"Turkey","latitude":41.4887456,"longitude":27.3501624,"population":778}, 
{"name":"Tatlıpınar","state":"Kırklareli","country":"Turkey","latitude":42.0559424,"longitude":27.1045258,"population":59}, 
{"name":"Terzidere","state":"Kırklareli","country":"Turkey","latitude":41.995922,"longitude":27.130711,"population":203}, 
{"name":"Terzili","state":"Kırklareli","country":"Turkey","latitude":41.528397,"longitude":27.037531,"population":123}, 
{"name":"Topçuköy","state":"Kırklareli","country":"Turkey","latitude":41.5145594,"longitude":27.686754,"population":426}, 
{"name":"Topçular","state":"Kırklareli","country":"Turkey","latitude":42.040892,"longitude":27.1366365,"population":72}, 
{"name":"Tozaklı","state":"Kırklareli","country":"Turkey","latitude":41.585995,"longitude":27.570093,"population":636}, 
{"name":"Turgutbey","state":"Kırklareli","country":"Turkey","latitude":41.459149,"longitude":27.388763,"population":986}, 
{"name":"Umurca","state":"Kırklareli","country":"Turkey","latitude":41.4287106,"longitude":27.4348469,"population":239}, 
{"name":"Ürünlü","state":"Kırklareli","country":"Turkey","latitude":41.673992,"longitude":26.987009,"population":389}, 
{"name":"Üsküp","state":"Kırklareli","country":"Turkey","latitude":41.7355462,"longitude":27.4040703,"population":2213}, 
{"name":"Üsküpdere","state":"Kırklareli","country":"Turkey","latitude":41.68721,"longitude":27.3627455,"population":141}, 
{"name":"Vize","state":"Kırklareli","country":"Turkey","latitude":41.5728684,"longitude":27.7670379,"population":14562}, 
{"name":"Yenibedir","state":"Kırklareli","country":"Turkey","latitude":41.3597897,"longitude":27.4237393,"population":217}, 
{"name":"Yenice","state":"Kırklareli","country":"Turkey","latitude":41.736244,"longitude":27.63822,"population":555}, 
{"name":"Yeniköy","state":"Kırklareli","country":"Turkey","latitude":41.538849,"longitude":27.163633,"population":336}, 
{"name":"Yenimahalle","state":"Kırklareli","country":"Turkey","latitude":41.58387,"longitude":27.106222,"population":185}, 
{"name":"Yenitaşlı","state":"Kırklareli","country":"Turkey","latitude":41.4861825,"longitude":27.3884769,"population":74}, 
{"name":"Yeşilce","state":"Kırklareli","country":"Turkey","latitude":41.905136,"longitude":27.698017,"population":213}, 
{"name":"Yeşilova","state":"Kırklareli","country":"Turkey","latitude":41.4303889,"longitude":26.913344,"population":354}, 
{"name":"Yeşilpınar","state":"Kırklareli","country":"Turkey","latitude":41.368961,"longitude":27.004131,"population":81}, 
{"name":"Yiğitbaşı","state":"Kırklareli","country":"Turkey","latitude":41.94339,"longitude":27.652214,"population":48}, 
{"name":"Yoğuntaş Bucak Merkezi","state":"Kırklareli","country":"Turkey","latitude":41.8304112,"longitude":27.0691582,"population":366}, 
{"name":"Yukarıkanara","state":"Kırklareli","country":"Turkey","latitude":42.018598,"longitude":27.0796026,"population":53}, 
{"name":"Yündalan","state":"Kırklareli","country":"Turkey","latitude":41.728149,"longitude":27.339436,"population":219}, 
{"name":"Yürükbayırı","state":"Kırklareli","country":"Turkey","latitude":41.8281133,"longitude":27.3397359,"population":46}, 
{"name":"Ahievren","state":"Tekirdağ","country":"Turkey","latitude":40.8833771,"longitude":27.0708947,"population":313}, 
{"name":"Ahimehmet","state":"Tekirdağ","country":"Turkey","latitude":41.321137,"longitude":27.676058,"population":621}, 
{"name":"Ahmetpaşa","state":"Tekirdağ","country":"Turkey","latitude":40.904297,"longitude":26.823521,"population":182}, 
{"name":"Aksakal","state":"Tekirdağ","country":"Turkey","latitude":40.8030445,"longitude":27.0715405,"population":180}, 
{"name":"Alaybey","state":"Tekirdağ","country":"Turkey","latitude":40.8608802,"longitude":26.9968181,"population":378}, 
{"name":"Allıışık","state":"Tekirdağ","country":"Turkey","latitude":40.810589,"longitude":26.886511,"population":170}, 
{"name":"Arzulu","state":"Tekirdağ","country":"Turkey","latitude":41.213486,"longitude":27.425142,"population":321}, 
{"name":"Aşağıkalamış","state":"Tekirdağ","country":"Turkey","latitude":40.6516599,"longitude":27.2080601,"population":217}, 
{"name":"Aşağısevindikli","state":"Tekirdağ","country":"Turkey","latitude":41.2175323,"longitude":27.546375,"population":1106}, 
{"name":"Ataköy","state":"Tekirdağ","country":"Turkey","latitude":41.1785207,"longitude":27.0393119,"population":210}, 
{"name":"Avluobası","state":"Tekirdağ","country":"Turkey","latitude":41.3044927,"longitude":27.2320767,"population":134}, 
{"name":"Aydınköy","state":"Tekirdağ","country":"Turkey","latitude":41.128155,"longitude":27.438675,"population":209}, 
{"name":"Aydınlar","state":"Tekirdağ","country":"Turkey","latitude":41.1755974,"longitude":26.968457,"population":369}, 
{"name":"Ayvacık","state":"Tekirdağ","country":"Turkey","latitude":41.503047,"longitude":27.9439284,"population":340}, 
{"name":"Bağpınarı","state":"Tekirdağ","country":"Turkey","latitude":41.0602548,"longitude":26.8670493,"population":245}, 
{"name":"Bahçeağıl","state":"Tekirdağ","country":"Turkey","latitude":41.3483012,"longitude":27.8849195,"population":513}, 
{"name":"Bahçedere","state":"Tekirdağ","country":"Turkey","latitude":41.366642,"longitude":27.750191,"population":118}, 
{"name":"Bahçeköy","state":"Tekirdağ","country":"Turkey","latitude":41.5463278,"longitude":28.048439,"population":431}, 
{"name":"Bakırca","state":"Tekirdağ","country":"Turkey","latitude":41.3112913,"longitude":27.7862477,"population":560}, 
{"name":"Balabancık","state":"Tekirdağ","country":"Turkey","latitude":40.8169819,"longitude":27.0019165,"population":1025}, 
{"name":"Balabanlı","state":"Tekirdağ","country":"Turkey","latitude":41.1182107,"longitude":27.6045813,"population":276}, 
{"name":"Ballı","state":"Tekirdağ","country":"Turkey","latitude":40.8332711,"longitude":27.057045,"population":526}, 
{"name":"Ballıhoca","state":"Tekirdağ","country":"Turkey","latitude":41.2162436,"longitude":27.5060765,"population":502}, 
{"name":"Ballısüle","state":"Tekirdağ","country":"Turkey","latitude":40.8492518,"longitude":27.1778546,"population":100}, 
{"name":"Batkın","state":"Tekirdağ","country":"Turkey","latitude":40.9689625,"longitude":26.9036218,"population":214}, 
{"name":"Bayramşah","state":"Tekirdağ","country":"Turkey","latitude":41.137485,"longitude":27.197126,"population":93}, 
{"name":"Bayramtepe","state":"Tekirdağ","country":"Turkey","latitude":41.0478748,"longitude":26.7171205,"population":205}, 
{"name":"Beyazköy","state":"Tekirdağ","country":"Turkey","latitude":41.347358,"longitude":27.703002,"population":1171}, 
{"name":"Beyoğlu","state":"Tekirdağ","country":"Turkey","latitude":40.8022606,"longitude":27.1863305,"population":178}, 
{"name":"Bulgur","state":"Tekirdağ","country":"Turkey","latitude":40.743275,"longitude":27.140707,"population":138}, 
{"name":"Büyükkarakarlı","state":"Tekirdağ","country":"Turkey","latitude":41.26247,"longitude":27.237192,"population":400}, 
{"name":"Büyükyoncalı","state":"Tekirdağ","country":"Turkey","latitude":41.3770247,"longitude":27.9256694,"population":10265}, 
{"name":"Buzağcı","state":"Tekirdağ","country":"Turkey","latitude":41.2447817,"longitude":27.1775974,"population":175}, 
{"name":"Cambazdere","state":"Tekirdağ","country":"Turkey","latitude":41.0814956,"longitude":26.93996,"population":206}, 
{"name":"Canhıdır","state":"Tekirdağ","country":"Turkey","latitude":41.1316623,"longitude":27.1462654,"population":125}, 
{"name":"Çavuşköy","state":"Tekirdağ","country":"Turkey","latitude":40.874962,"longitude":26.965176,"population":367}, 
{"name":"Çayla","state":"Tekirdağ","country":"Turkey","latitude":41.3993747,"longitude":27.886049,"population":411}, 
{"name":"Çene","state":"Tekirdağ","country":"Turkey","latitude":41.190941,"longitude":27.1971367,"population":284}, 
{"name":"Çengelli","state":"Tekirdağ","country":"Turkey","latitude":40.6797037,"longitude":27.1561547,"population":127}, 
{"name":"Çerkezköy","state":"Tekirdağ","country":"Turkey","latitude":41.2862482,"longitude":27.999468,"population":125472}, 
{"name":"Çerkezmüsellim","state":"Tekirdağ","country":"Turkey","latitude":41.2753488,"longitude":27.0253108,"population":2435}, 
{"name":"Çeşmeli","state":"Tekirdağ","country":"Turkey","latitude":41.0486407,"longitude":27.8298057,"population":539}, 
{"name":"Çevrimkaya","state":"Tekirdağ","country":"Turkey","latitude":41.09234,"longitude":27.6062631,"population":85}, 
{"name":"Çıkrıkçı","state":"Tekirdağ","country":"Turkey","latitude":41.2485815,"longitude":27.1020439,"population":311}, 
{"name":"Çimendere","state":"Tekirdağ","country":"Turkey","latitude":40.784897,"longitude":27.027641,"population":276}, 
{"name":"Çınaraltı","state":"Tekirdağ","country":"Turkey","latitude":41.0673848,"longitude":26.9271899,"population":669}, 
{"name":"Çınarlı","state":"Tekirdağ","country":"Turkey","latitude":40.6931715,"longitude":27.2506388,"population":482}, 
{"name":"Çınarlıdere","state":"Tekirdağ","country":"Turkey","latitude":40.775631,"longitude":27.086893,"population":261}, 
{"name":"Çorlu","state":"Tekirdağ","country":"Turkey","latitude":41.1590875,"longitude":27.8041066,"population":262348}, 
{"name":"Çukuryurt","state":"Tekirdağ","country":"Turkey","latitude":41.4265226,"longitude":27.882868,"population":1715}, 
{"name":"Dambaslar","state":"Tekirdağ","country":"Turkey","latitude":41.2250071,"longitude":27.2473698,"population":325}, 
{"name":"Danişment","state":"Tekirdağ","country":"Turkey","latitude":41.3033049,"longitude":26.9538338,"population":327}, 
{"name":"Danişment","state":"Tekirdağ","country":"Turkey","latitude":40.8739759,"longitude":26.7404232,"population":260}, 
{"name":"Davuteli","state":"Tekirdağ","country":"Turkey","latitude":41.0558006,"longitude":26.7376053,"population":220}, 
{"name":"Delibedir","state":"Tekirdağ","country":"Turkey","latitude":41.102318,"longitude":27.1239467,"population":214}, 
{"name":"Deliller","state":"Tekirdağ","country":"Turkey","latitude":40.850952,"longitude":27.1335847,"population":151}, 
{"name":"Demircili","state":"Tekirdağ","country":"Turkey","latitude":40.9969818,"longitude":26.7683078,"population":104}, 
{"name":"Demirler","state":"Tekirdağ","country":"Turkey","latitude":41.433937,"longitude":27.757439,"population":165}, 
{"name":"Deregündüzlü","state":"Tekirdağ","country":"Turkey","latitude":41.097607,"longitude":27.668302,"population":126}, 
{"name":"Dereköy","state":"Tekirdağ","country":"Turkey","latitude":40.8938426,"longitude":27.1470159,"population":128}, 
{"name":"Deveci","state":"Tekirdağ","country":"Turkey","latitude":40.8181752,"longitude":26.84206,"population":428}, 
{"name":"Develi","state":"Tekirdağ","country":"Turkey","latitude":40.926811,"longitude":27.129089,"population":117}, 
{"name":"Doğanköy","state":"Tekirdağ","country":"Turkey","latitude":41.0753379,"longitude":26.8381931,"population":332}, 
{"name":"Dolu","state":"Tekirdağ","country":"Turkey","latitude":41.0421505,"longitude":26.7873036,"population":401}, 
{"name":"Duğcalı","state":"Tekirdağ","country":"Turkey","latitude":41.2903017,"longitude":27.1792962,"population":63}, 
{"name":"Edirköy","state":"Tekirdağ","country":"Turkey","latitude":41.4766661,"longitude":27.8702517,"population":353}, 
{"name":"Elmalı","state":"Tekirdağ","country":"Turkey","latitude":40.775707,"longitude":26.949707,"population":300}, 
{"name":"Emirali","state":"Tekirdağ","country":"Turkey","latitude":40.779873,"longitude":27.05636,"population":127}, 
{"name":"Emiryakup","state":"Tekirdağ","country":"Turkey","latitude":41.06419,"longitude":27.1885237,"population":286}, 
{"name":"Ergene","state":"Tekirdağ","country":"Turkey","latitude":41.1877355,"longitude":27.7677796,"population":37069}, 
{"name":"Eriklice","state":"Tekirdağ","country":"Turkey","latitude":40.636814,"longitude":27.183289,"population":1010}, 
{"name":"Esendik","state":"Tekirdağ","country":"Turkey","latitude":40.783199,"longitude":27.165195,"population":67}, 
{"name":"Esenler","state":"Tekirdağ","country":"Turkey","latitude":41.2240646,"longitude":27.6462537,"population":807}, 
{"name":"Evrenbey","state":"Tekirdağ","country":"Turkey","latitude":40.9549792,"longitude":27.0264658,"population":423}, 
{"name":"Fahrioğlu","state":"Tekirdağ","country":"Turkey","latitude":41.132916,"longitude":27.265183,"population":56}, 
{"name":"Gaziköy","state":"Tekirdağ","country":"Turkey","latitude":40.7467106,"longitude":27.3322013,"population":412}, 
{"name":"Göçerler","state":"Tekirdağ","country":"Turkey","latitude":41.3346545,"longitude":27.7442288,"population":742}, 
{"name":"Gölcük","state":"Tekirdağ","country":"Turkey","latitude":40.683849,"longitude":27.0951167,"population":362}, 
{"name":"Gönence","state":"Tekirdağ","country":"Turkey","latitude":40.9223603,"longitude":26.9265795,"population":331}, 
{"name":"Gözsüz","state":"Tekirdağ","country":"Turkey","latitude":40.826523,"longitude":26.918055,"population":658}, 
{"name":"Güneşli","state":"Tekirdağ","country":"Turkey","latitude":41.0250258,"longitude":26.9083834,"population":93}, 
{"name":"Güngörmez","state":"Tekirdağ","country":"Turkey","latitude":41.4941799,"longitude":27.9835502,"population":1384}, 
{"name":"Güzelköy","state":"Tekirdağ","country":"Turkey","latitude":40.7448904,"longitude":27.2942308,"population":203}, 
{"name":"Hacıllı","state":"Tekirdağ","country":"Turkey","latitude":41.0821618,"longitude":27.1238707,"population":39}, 
{"name":"Hacısungur","state":"Tekirdağ","country":"Turkey","latitude":41.010048,"longitude":27.034618,"population":316}, 
{"name":"Halıç","state":"Tekirdağ","country":"Turkey","latitude":40.8663279,"longitude":26.7859555,"population":301}, 
{"name":"Hanoğlu","state":"Tekirdağ","country":"Turkey","latitude":41.2026617,"longitude":27.3656949,"population":120}, 
{"name":"Hasköy","state":"Tekirdağ","country":"Turkey","latitude":41.1196415,"longitude":26.9636246,"population":289}, 
{"name":"Hasköy","state":"Tekirdağ","country":"Turkey","latitude":40.9334872,"longitude":26.8220418,"population":269}, 
{"name":"Hayrabolu","state":"Tekirdağ","country":"Turkey","latitude":41.2146709,"longitude":27.1081765,"population":18388}, 
{"name":"Hedeyli","state":"Tekirdağ","country":"Turkey","latitude":41.330421,"longitude":27.026903,"population":291}, 
{"name":"Hemit","state":"Tekirdağ","country":"Turkey","latitude":40.9972121,"longitude":26.7955632,"population":464}, 
{"name":"Hereke","state":"Tekirdağ","country":"Turkey","latitude":40.908127,"longitude":27.095015,"population":302}, 
{"name":"Hoşköy","state":"Tekirdağ","country":"Turkey","latitude":40.7138377,"longitude":27.3139738,"population":1521}, 
{"name":"İbribey","state":"Tekirdağ","country":"Turkey","latitude":40.964416,"longitude":27.106461,"population":415}, 
{"name":"İbrice","state":"Tekirdağ","country":"Turkey","latitude":40.9671997,"longitude":26.8733351,"population":174}, 
{"name":"İğdebağları","state":"Tekirdağ","country":"Turkey","latitude":40.6495094,"longitude":27.1452589,"population":383}, 
{"name":"İğneler","state":"Tekirdağ","country":"Turkey","latitude":41.346802,"longitude":27.608591,"population":379}, 
{"name":"İnanlı","state":"Tekirdağ","country":"Turkey","latitude":41.202923,"longitude":27.472742,"population":481}, 
{"name":"İshakça","state":"Tekirdağ","country":"Turkey","latitude":40.9073171,"longitude":26.945964,"population":175}, 
{"name":"İshaklı","state":"Tekirdağ","country":"Turkey","latitude":40.7435808,"longitude":27.0938042,"population":99}, 
{"name":"İsmailli","state":"Tekirdağ","country":"Turkey","latitude":41.0364,"longitude":27.1605577,"population":90}, 
{"name":"Izgar","state":"Tekirdağ","country":"Turkey","latitude":40.860105,"longitude":26.8047023,"population":383}, 
{"name":"Kabahöyük","state":"Tekirdağ","country":"Turkey","latitude":41.2188292,"longitude":26.9808603,"population":337}, 
{"name":"Kadıköy","state":"Tekirdağ","country":"Turkey","latitude":40.8583668,"longitude":26.8348182,"population":319}, 
{"name":"Kadıköy","state":"Tekirdağ","country":"Turkey","latitude":41.4393858,"longitude":27.6993124,"population":311}, 
{"name":"Kadriye","state":"Tekirdağ","country":"Turkey","latitude":41.34782,"longitude":27.002136,"population":301}, 
{"name":"Kalaycı","state":"Tekirdağ","country":"Turkey","latitude":40.7976878,"longitude":27.1256867,"population":66}, 
{"name":"Kandamış","state":"Tekirdağ","country":"Turkey","latitude":41.1443375,"longitude":27.2437813,"population":153}, 
{"name":"Kapaklı","state":"Tekirdağ","country":"Turkey","latitude":41.3270598,"longitude":27.9761873,"population":101898}, 
{"name":"Karaağaç","state":"Tekirdağ","country":"Turkey","latitude":41.2970116,"longitude":27.9455648,"population":4405}, 
{"name":"Karababa","state":"Tekirdağ","country":"Turkey","latitude":41.1263235,"longitude":27.0010897,"population":165}, 
{"name":"Karabürçek","state":"Tekirdağ","country":"Turkey","latitude":41.2341018,"longitude":26.9937961,"population":158}, 
{"name":"Karabürçek","state":"Tekirdağ","country":"Turkey","latitude":41.463657,"longitude":27.807373,"population":152}, 
{"name":"Karacagür","state":"Tekirdağ","country":"Turkey","latitude":41.0489417,"longitude":26.9702749,"population":237}, 
{"name":"Karacahalil","state":"Tekirdağ","country":"Turkey","latitude":40.811523,"longitude":26.935476,"population":418}, 
{"name":"Karaiğdemir","state":"Tekirdağ","country":"Turkey","latitude":40.941933,"longitude":27.00489,"population":199}, 
{"name":"Karakavak","state":"Tekirdağ","country":"Turkey","latitude":41.3266211,"longitude":27.0702206,"population":228}, 
{"name":"Karamehmet","state":"Tekirdağ","country":"Turkey","latitude":41.3050554,"longitude":27.7876723,"population":908}, 
{"name":"Karamurat","state":"Tekirdağ","country":"Turkey","latitude":40.952477,"longitude":27.086107,"population":281}, 
{"name":"Karayahşi","state":"Tekirdağ","country":"Turkey","latitude":41.1926208,"longitude":27.237058,"population":147}, 
{"name":"Karlı","state":"Tekirdağ","country":"Turkey","latitude":41.36974,"longitude":27.8657687,"population":395}, 
{"name":"Kavacık","state":"Tekirdağ","country":"Turkey","latitude":41.4842905,"longitude":27.901228,"population":237}, 
{"name":"Kavakçeşme","state":"Tekirdağ","country":"Turkey","latitude":40.8516822,"longitude":27.0282718,"population":176}, 
{"name":"Kemallar","state":"Tekirdağ","country":"Turkey","latitude":41.1591699,"longitude":27.303771,"population":205}, 
{"name":"Kepenekli","state":"Tekirdağ","country":"Turkey","latitude":41.1084237,"longitude":27.5468504,"population":98}, 
{"name":"Kermeyan","state":"Tekirdağ","country":"Turkey","latitude":40.9272688,"longitude":27.1051632,"population":211}, 
{"name":"Kılıçlar","state":"Tekirdağ","country":"Turkey","latitude":41.242497,"longitude":27.295185,"population":233}, 
{"name":"Kirazlı","state":"Tekirdağ","country":"Turkey","latitude":40.7024078,"longitude":27.2639032,"population":284}, 
{"name":"Kiremitlik","state":"Tekirdağ","country":"Turkey","latitude":40.9767972,"longitude":26.9128354,"population":189}, 
{"name":"Kırıkali","state":"Tekirdağ","country":"Turkey","latitude":40.951263,"longitude":27.067013,"population":158}, 
{"name":"Kırkgöz","state":"Tekirdağ","country":"Turkey","latitude":41.2371864,"longitude":27.6777821,"population":1256}, 
{"name":"Kırkkepenekli","state":"Tekirdağ","country":"Turkey","latitude":41.1706529,"longitude":27.5874064,"population":637}, 
{"name":"Kızılcaterzi","state":"Tekirdağ","country":"Turkey","latitude":40.5876825,"longitude":26.9834296,"population":559}, 
{"name":"Kızılpınar","state":"Tekirdağ","country":"Turkey","latitude":41.2684897,"longitude":27.9649508,"population":40433}, 
{"name":"Kocaali","state":"Tekirdağ","country":"Turkey","latitude":40.6078731,"longitude":27.0003973,"population":269}, 
{"name":"Kozyörük","state":"Tekirdağ","country":"Turkey","latitude":41.0172953,"longitude":26.9441987,"population":1273}, 
{"name":"Küçükhıdır","state":"Tekirdağ","country":"Turkey","latitude":40.8865885,"longitude":27.0443473,"population":210}, 
{"name":"Küçükkarakarlı","state":"Tekirdağ","country":"Turkey","latitude":41.320057,"longitude":27.1956757,"population":106}, 
{"name":"Küçükyoncalı","state":"Tekirdağ","country":"Turkey","latitude":41.4085223,"longitude":27.9700312,"population":1829}, 
{"name":"Kurtdere","state":"Tekirdağ","country":"Turkey","latitude":41.0430805,"longitude":27.0940858,"population":153}, 
{"name":"Kurtdere","state":"Tekirdağ","country":"Turkey","latitude":41.404533,"longitude":27.798685,"population":595}, 
{"name":"Kürtüllü","state":"Tekirdağ","country":"Turkey","latitude":40.975296,"longitude":26.8227247,"population":380}, 
{"name":"Kutlugün","state":"Tekirdağ","country":"Turkey","latitude":41.0919505,"longitude":26.9844949,"population":271}, 
{"name":"Kuyucu","state":"Tekirdağ","country":"Turkey","latitude":40.88199,"longitude":27.0267843,"population":52}, 
{"name":"Lahna","state":"Tekirdağ","country":"Turkey","latitude":41.2924634,"longitude":27.1306681,"population":674}, 
{"name":"Maksutlu","state":"Tekirdağ","country":"Turkey","latitude":41.0778105,"longitude":27.6594574,"population":73}, 
{"name":"Malkara","state":"Tekirdağ","country":"Turkey","latitude":40.8930819,"longitude":26.9023798,"population":30109}, 
{"name":"Marmaracık","state":"Tekirdağ","country":"Turkey","latitude":41.2074859,"longitude":27.753389,"population":10716}, 
{"name":"Marmaraereğlisi","state":"Tekirdağ","country":"Turkey","latitude":40.9693702,"longitude":27.9550008,"population":12814}, 
{"name":"Mestanlar","state":"Tekirdağ","country":"Turkey","latitude":41.0995661,"longitude":26.8423672,"population":204}, 
{"name":"Misinli","state":"Tekirdağ","country":"Turkey","latitude":41.310528,"longitude":27.605608,"population":1319}, 
{"name":"Muratlı","state":"Tekirdağ","country":"Turkey","latitude":41.1722934,"longitude":27.5015106,"population":23585}, 
{"name":"Mürefte","state":"Tekirdağ","country":"Turkey","latitude":40.6687106,"longitude":27.2430903,"population":2537}, 
{"name":"Mursallı","state":"Tekirdağ","country":"Turkey","latitude":40.7257376,"longitude":27.2351971,"population":328}, 
{"name":"Müsellim","state":"Tekirdağ","country":"Turkey","latitude":41.120636,"longitude":27.542919,"population":81}, 
{"name":"Müstecep","state":"Tekirdağ","country":"Turkey","latitude":40.8235286,"longitude":27.1241964,"population":245}, 
{"name":"Muzruplu","state":"Tekirdağ","country":"Turkey","latitude":41.219902,"longitude":27.327141,"population":110}, 
{"name":"Önerler","state":"Tekirdağ","country":"Turkey","latitude":41.158119,"longitude":27.87808,"population":3896}, 
{"name":"Örey","state":"Tekirdağ","country":"Turkey","latitude":41.1510311,"longitude":27.0057195,"population":130}, 
{"name":"Osmanlı","state":"Tekirdağ","country":"Turkey","latitude":41.3846736,"longitude":27.682824,"population":233}, 
{"name":"Övenler","state":"Tekirdağ","country":"Turkey","latitude":41.2841404,"longitude":26.9416475,"population":148}, 
{"name":"Palamut","state":"Tekirdağ","country":"Turkey","latitude":40.757751,"longitude":27.157158,"population":42}, 
{"name":"Parmaksız","state":"Tekirdağ","country":"Turkey","latitude":41.092808,"longitude":27.1729747,"population":107}, 
{"name":"Paşaköy","state":"Tekirdağ","country":"Turkey","latitude":41.389629,"longitude":27.616371,"population":190}, 
{"name":"Pınarbaşı","state":"Tekirdağ","country":"Turkey","latitude":41.384899,"longitude":27.620602,"population":776}, 
{"name":"Pınarca","state":"Tekirdağ","country":"Turkey","latitude":41.3381661,"longitude":28.0190937,"population":1864}, 
{"name":"Pirinççeşme","state":"Tekirdağ","country":"Turkey","latitude":40.9962153,"longitude":26.8483215,"population":193}, 
{"name":"Sağlamtaş","state":"Tekirdağ","country":"Turkey","latitude":40.7811479,"longitude":27.1079439,"population":1976}, 
{"name":"Şahin","state":"Tekirdağ","country":"Turkey","latitude":41.0221854,"longitude":26.841152,"population":273}, 
{"name":"Şahpaz","state":"Tekirdağ","country":"Turkey","latitude":41.084114,"longitude":27.883078,"population":492}, 
{"name":"Şalgamlı","state":"Tekirdağ","country":"Turkey","latitude":41.0541102,"longitude":27.0061886,"population":1349}, 
{"name":"Saray","state":"Tekirdağ","country":"Turkey","latitude":41.4426795,"longitude":27.9213992,"population":27204}, 
{"name":"Sarılar","state":"Tekirdağ","country":"Turkey","latitude":41.144119,"longitude":27.663752,"population":385}, 
{"name":"Sarıpolat","state":"Tekirdağ","country":"Turkey","latitude":40.844044,"longitude":26.772055,"population":175}, 
{"name":"Sarıyar","state":"Tekirdağ","country":"Turkey","latitude":41.0000325,"longitude":26.8865944,"population":215}, 
{"name":"Şarköy","state":"Tekirdağ","country":"Turkey","latitude":40.6148728,"longitude":27.1121862,"population":20374}, 
{"name":"Sarnıç","state":"Tekirdağ","country":"Turkey","latitude":40.967857,"longitude":26.928726,"population":457}, 
{"name":"Sefaalan","state":"Tekirdağ","country":"Turkey","latitude":41.4274628,"longitude":28.100096,"population":1210}, 
{"name":"Şenköy","state":"Tekirdağ","country":"Turkey","latitude":40.608025,"longitude":27.029545,"population":191}, 
{"name":"Seymen","state":"Tekirdağ","country":"Turkey","latitude":41.093895,"longitude":27.947189,"population":1000}, 
{"name":"Sinanlı","state":"Tekirdağ","country":"Turkey","latitude":41.3901532,"longitude":27.769629,"population":181}, 
{"name":"Sırtbey","state":"Tekirdağ","country":"Turkey","latitude":40.8216749,"longitude":27.1736067,"population":104}, 
{"name":"Sofuköy","state":"Tekirdağ","country":"Turkey","latitude":40.6615184,"longitude":27.0111891,"population":76}, 
{"name":"Sofular","state":"Tekirdağ","country":"Turkey","latitude":41.4131299,"longitude":27.6551766,"population":227}, 
{"name":"Soylu","state":"Tekirdağ","country":"Turkey","latitude":41.0125338,"longitude":27.0871034,"population":440}, 
{"name":"Subaşı","state":"Tekirdağ","country":"Turkey","latitude":41.1099166,"longitude":26.8995086,"population":378}, 
{"name":"Sultanköy","state":"Tekirdağ","country":"Turkey","latitude":41.019478,"longitude":27.988998,"population":2403}, 
{"name":"Susuzmüsellim","state":"Tekirdağ","country":"Turkey","latitude":41.0992978,"longitude":27.065419,"population":233}, 
{"name":"Tatarlı","state":"Tekirdağ","country":"Turkey","latitude":41.1444544,"longitude":27.0637004,"population":216}, 
{"name":"Tekirdağ","state":"Tekirdağ","country":"Turkey","latitude":40.9781214,"longitude":27.5107799,"population":174685,"stateCapital":true}, 
{"name":"Tekkeköy","state":"Tekirdağ","country":"Turkey","latitude":41.0431537,"longitude":26.8700829,"population":141}, 
{"name":"Temrezli","state":"Tekirdağ","country":"Turkey","latitude":41.309921,"longitude":27.086374,"population":288}, 
{"name":"Tepeköy","state":"Tekirdağ","country":"Turkey","latitude":40.676041,"longitude":27.188827,"population":329}, 
{"name":"Teteköy","state":"Tekirdağ","country":"Turkey","latitude":40.792229,"longitude":26.80047,"population":279}, 
{"name":"Türkgücü","state":"Tekirdağ","country":"Turkey","latitude":41.0941944,"longitude":27.8193344,"population":989}, 
{"name":"Türkmenli","state":"Tekirdağ","country":"Turkey","latitude":41.0450157,"longitude":27.8521217,"population":343}, 
{"name":"Uçmakdere","state":"Tekirdağ","country":"Turkey","latitude":40.7981046,"longitude":27.3650733,"population":186}, 
{"name":"Ulaman","state":"Tekirdağ","country":"Turkey","latitude":40.717094,"longitude":27.078846,"population":283}, 
{"name":"Ulaş","state":"Tekirdağ","country":"Turkey","latitude":41.2358053,"longitude":27.7102288,"population":6694}, 
{"name":"Umurbey","state":"Tekirdağ","country":"Turkey","latitude":41.0585555,"longitude":27.053024,"population":174}, 
{"name":"Umurçu","state":"Tekirdağ","country":"Turkey","latitude":41.1470761,"longitude":26.9327978,"population":118}, 
{"name":"Uzunhacı","state":"Tekirdağ","country":"Turkey","latitude":41.344208,"longitude":27.833809,"population":353}, 
{"name":"Vakıfiğdemir","state":"Tekirdağ","country":"Turkey","latitude":40.8686102,"longitude":27.1437148,"population":182}, 
{"name":"Vakıflar","state":"Tekirdağ","country":"Turkey","latitude":41.2620415,"longitude":27.6456415,"population":2308}, 
{"name":"Veliköy","state":"Tekirdağ","country":"Turkey","latitude":41.2595355,"longitude":27.936262,"population":8624}, 
{"name":"Velimeşe","state":"Tekirdağ","country":"Turkey","latitude":41.2547902,"longitude":27.8780664,"population":10287}, 
{"name":"Yakuplu","state":"Tekirdağ","country":"Turkey","latitude":41.0807869,"longitude":27.9031653,"population":260}, 
{"name":"Yanıkağıl","state":"Tekirdağ","country":"Turkey","latitude":41.290455,"longitude":27.90324,"population":1496}, 
{"name":"Yavaşça","state":"Tekirdağ","country":"Turkey","latitude":41.17318,"longitude":27.350925,"population":116}, 
{"name":"Yayaağaç","state":"Tekirdağ","country":"Turkey","latitude":40.709557,"longitude":27.046898,"population":314}, 
{"name":"Yayaköy","state":"Tekirdağ","country":"Turkey","latitude":40.7146714,"longitude":27.2001329,"population":212}, 
{"name":"Yaylagöne","state":"Tekirdağ","country":"Turkey","latitude":40.901016,"longitude":26.756281,"population":553}, 
{"name":"Yaylaköy","state":"Tekirdağ","country":"Turkey","latitude":40.909916,"longitude":26.804514,"population":166}, 
{"name":"Yenice","state":"Tekirdağ","country":"Turkey","latitude":41.107163,"longitude":27.697931,"population":1635}, 
{"name":"Yenice","state":"Tekirdağ","country":"Turkey","latitude":40.9128672,"longitude":27.1333326,"population":132}, 
{"name":"Yeniçiftlik","state":"Tekirdağ","country":"Turkey","latitude":41.0133849,"longitude":27.8520289,"population":9648}, 
{"name":"Yenidibek","state":"Tekirdağ","country":"Turkey","latitude":40.77161,"longitude":26.832575,"population":185}, 
{"name":"Yeniköy","state":"Tekirdağ","country":"Turkey","latitude":40.6469872,"longitude":26.9993888,"population":655}, 
{"name":"Yeşilsırt","state":"Tekirdağ","country":"Turkey","latitude":41.1182407,"longitude":27.4723655,"population":737}, 
{"name":"Yılanlı","state":"Tekirdağ","country":"Turkey","latitude":40.965111,"longitude":26.7427052,"population":174}, 
{"name":"Yörgüç","state":"Tekirdağ","country":"Turkey","latitude":41.0426401,"longitude":27.0507446,"population":218},