{"name":"Prishtinë","state":"Prishtinës","country":"Kosovo","latitude":42.6638771,"longitude":21.1640849,"population":145149,"stateCapital":true,"nationalCapital":true}, 
{"name":"Prizren","state":"Prizrenit","country":"Kosovo","latitude":42.2130151,"longitude":20.7363339,"population":85119,"stateCapital":true}, 
{"name":"Gjilan","state":"Gjilanit","country":"Kosovo","latitude":42.463515,"longitude":21.4693599,"population":54239,"stateCapital":true}, 
{"name":"Pejë","state":"Pejës","country":"Kosovo","latitude":42.6593986,"longitude":20.2885757,"population":48962,"stateCapital":true}, 
{"name":"Mitrovicë","state":"Mitrovicës","country":"Kosovo","latitude":42.8790424,"longitude":20.8657862,"population":46230,"stateCapital":true}, 
{"name":"Ferizaj","state":"Ferizajt","country":"Kosovo","latitude":42.3682168,"longitude":21.1532848,"population":42628,"stateCapital":true}, 
{"name":"Gjakovë","state":"Gjakovës","country":"Kosovo","latitude":42.3798793,"longitude":20.4316226,"population":40827,"stateCapital":true}, 
{"name":"Vushtrri","state":"Mitrovicës","country":"Kosovo","latitude":42.8223701,"longitude":20.9659955,"population":26964}, 
{"name":"Podujevë","state":"Prishtinës","country":"Kosovo","latitude":42.90761,"longitude":21.19281,"population":23453}, 
{"name":"Rahovec","state":"Gjakovës","country":"Kosovo","latitude":42.3998736,"longitude":20.6527389,"population":15892}, 
{"name":"Matiçan","state":"Prishtinës","country":"Kosovo","latitude":42.6434469,"longitude":21.1904432,"population":13876}, 
{"name":"Fushë Kosovë","state":"Prishtinës","country":"Kosovo","latitude":42.6374117,"longitude":21.093132,"population":12919}, 
{"name":"Suharekë","state":"Prizrenit","country":"Kosovo","latitude":42.3621996,"longitude":20.8315238,"population":10422}, 
{"name":"Kaçanik","state":"Ferizajt","country":"Kosovo","latitude":42.2280602,"longitude":21.2579777,"population":10393}, 
{"name":"Dushanovë","state":"Prizrenit","country":"Kosovo","latitude":42.23465,"longitude":20.709093,"population":9398}, 
{"name":"Zhabar i Poshtëm","state":"Mitrovicës","country":"Kosovo","latitude":42.8710147,"longitude":20.8416518,"population":7394}, 
{"name":"Hajvali","state":"Prishtinës","country":"Kosovo","latitude":42.620842,"longitude":21.181556,"population":7391}, 
{"name":"Kamenicë","state":"Gjilanit","country":"Kosovo","latitude":42.5783818,"longitude":21.5796877,"population":7331}, 
{"name":"Shtime","state":"Ferizajt","country":"Kosovo","latitude":42.4341803,"longitude":21.0363448,"population":7255}, 
{"name":"Lipjan","state":"Prishtinës","country":"Kosovo","latitude":42.5213395,"longitude":21.122598,"population":6870}, 
{"name":"Obiliq","state":"Prishtinës","country":"Kosovo","latitude":42.6861684,"longitude":21.0694943,"population":6864}, 
{"name":"Skenderaj","state":"Mitrovicës","country":"Kosovo","latitude":42.747569,"longitude":20.7891645,"population":6612}, 
{"name":"Drenas","state":"Prishtinës","country":"Kosovo","latitude":42.6252526,"longitude":20.8957543,"population":6143}, 
{"name":"Junik","state":"Gjakovës","country":"Kosovo","latitude":42.4761209,"longitude":20.2773737,"population":6053}, 
{"name":"Lubizhdë","state":"Prizrenit","country":"Kosovo","latitude":42.2384995,"longitude":20.7681195,"population":5982}, 
{"name":"Zhur","state":"Prizrenit","country":"Kosovo","latitude":42.1632539,"longitude":20.6188323,"population":5909}, 
{"name":"Bresje","state":"Prishtinës","country":"Kosovo","latitude":42.6263949,"longitude":21.0873824,"population":5596}, 
{"name":"Klinë","state":"Pejës","country":"Kosovo","latitude":42.6179925,"longitude":20.57611,"population":5542}, 
{"name":"Mamushë","state":"Prizrenit","country":"Kosovo","latitude":42.3312708,"longitude":20.7269066,"population":5507}, 
{"name":"Vitomiricë","state":"Pejës","country":"Kosovo","latitude":42.7009541,"longitude":20.346482,"population":5409}, 
{"name":"Korishë","state":"Prizrenit","country":"Kosovo","latitude":42.2581527,"longitude":20.796186,"population":5279}, 
{"name":"Damjan","state":"Gjakovës","country":"Kosovo","latitude":42.2970623,"longitude":20.5188064,"population":5133}, 
{"name":"Istog","state":"Pejës","country":"Kosovo","latitude":42.7816777,"longitude":20.4882544,"population":5115}, 
{"name":"Viti","state":"Gjilanit","country":"Kosovo","latitude":42.3187997,"longitude":21.3571197,"population":4924}, 
{"name":"Mejë","state":"Gjakovës","country":"Kosovo","latitude":42.3866591,"longitude":20.3875025,"population":4888}, 
{"name":"Shipol","state":"Mitrovicës","country":"Kosovo","latitude":42.8637561,"longitude":20.8492158,"population":4834}, 
{"name":"Gjonaj","state":"Prizrenit","country":"Kosovo","latitude":42.2539155,"longitude":20.6238559,"population":4818}, 
{"name":"Restelicë","state":"Prizrenit","country":"Kosovo","latitude":41.9434475,"longitude":20.669966,"population":4698}, 
{"name":"Pleshinë","state":"Ferizajt","country":"Kosovo","latitude":42.3455154,"longitude":21.1036914,"population":4506}, 
{"name":"Krushë e Madhe","state":"Gjakovës","country":"Kosovo","latitude":42.3189132,"longitude":20.6356723,"population":4473}, 
{"name":"Greme","state":"Ferizajt","country":"Kosovo","latitude":42.3380327,"longitude":21.151677,"population":4421}, 
{"name":"Komogllavë","state":"Ferizajt","country":"Kosovo","latitude":42.3360947,"longitude":21.2264803,"population":4404}, 
{"name":"Komoran","state":"Prishtinës","country":"Kosovo","latitude":42.5757319,"longitude":20.9032959,"population":4393}, 
{"name":"Pozharan","state":"Gjilanit","country":"Kosovo","latitude":42.3644525,"longitude":21.3411742,"population":4247}, 
{"name":"Çagllavicë","state":"Prishtinës","country":"Kosovo","latitude":42.6277151,"longitude":21.1497689,"population":4233}, 
{"name":"Rogovë","state":"Gjakovës","country":"Kosovo","latitude":42.3309578,"longitude":20.5778998,"population":4115}, 
{"name":"Tërstenik","state":"Prishtinës","country":"Kosovo","latitude":42.6544482,"longitude":20.8456714,"population":3903}, 
{"name":"Smirë","state":"Gjilanit","country":"Kosovo","latitude":42.2980797,"longitude":21.3209582,"population":3872}, 
{"name":"Isniq","state":"Gjakovës","country":"Kosovo","latitude":42.5577363,"longitude":20.3024329,"population":3871}, 
{"name":"Deçan","state":"Gjakovës","country":"Kosovo","latitude":42.5402236,"longitude":20.2882204,"population":3803}, 
{"name":"Gllamnik","state":"Prishtinës","country":"Kosovo","latitude":42.87057,"longitude":21.18275,"population":3794}, 
{"name":"Ratkoc","state":"Gjakovës","country":"Kosovo","latitude":42.4111224,"longitude":20.5385172,"population":3791}, 
{"name":"Nekodim","state":"Ferizajt","country":"Kosovo","latitude":42.3489688,"longitude":21.1732734,"population":3718}, 
{"name":"Leposaviq","state":"Mitrovicës","country":"Kosovo","latitude":43.1019523,"longitude":20.8010532,"population":3702}, 
{"name":"Banjë","state":"Prizrenit","country":"Kosovo","latitude":42.4650703,"longitude":20.7803247,"population":3639}, 
{"name":"Llashkadrenoc","state":"Prizrenit","country":"Kosovo","latitude":42.5329995,"longitude":20.7469255,"population":3573}, 
{"name":"Livoç i Ulët","state":"Gjilanit","country":"Kosovo","latitude":42.4311111,"longitude":21.4530556,"population":3497}, 
{"name":"Koretin","state":"Gjilanit","country":"Kosovo","latitude":42.5578276,"longitude":21.5949564,"population":3476}, 
{"name":"Llapushnik","state":"Prishtinës","country":"Kosovo","latitude":42.5768353,"longitude":20.8603797,"population":3433}, 
{"name":"Talinoc i Jerlive","state":"Ferizajt","country":"Kosovo","latitude":42.3859025,"longitude":21.1516219,"population":3428}, 
{"name":"Sllovi","state":"Prishtinës","country":"Kosovo","latitude":42.522503,"longitude":21.2214878,"population":3428}, 
{"name":"Kçiq i Madh","state":"Mitrovicës","country":"Kosovo","latitude":42.8622206,"longitude":20.9268354,"population":3412}, 
{"name":"Hoçë e Qytetit","state":"Prizrenit","country":"Kosovo","latitude":42.1746809,"longitude":20.6910698,"population":3410}, 
{"name":"Malishevë","state":"Prizrenit","country":"Kosovo","latitude":42.4838388,"longitude":20.7430294,"population":3395}, 
{"name":"Mushtishtë","state":"Prizrenit","country":"Kosovo","latitude":42.2989286,"longitude":20.8900745,"population":3394}, 
{"name":"Bllacë","state":"Prizrenit","country":"Kosovo","latitude":42.4228631,"longitude":20.8650053,"population":3357}, 
{"name":"Strellc i Epërm","state":"Gjakovës","country":"Kosovo","latitude":42.5785418,"longitude":20.292938,"population":3347}, 
{"name":"Gadime e Ulët","state":"Prishtinës","country":"Kosovo","latitude":42.4766428,"longitude":21.2078735,"population":3337}, 
{"name":"Zhegër","state":"Gjilanit","country":"Kosovo","latitude":42.3609974,"longitude":21.4905856,"population":3327}, 
{"name":"Studençan","state":"Prizrenit","country":"Kosovo","latitude":42.3576887,"longitude":20.76051,"population":3311}, 
{"name":"Samadrexhë","state":"Prizrenit","country":"Kosovo","latitude":42.3641934,"longitude":20.7402752,"population":3249}, 
{"name":"Xërxë","state":"Gjakovës","country":"Kosovo","latitude":42.3497838,"longitude":20.5694367,"population":3184}, 
{"name":"Malishevë","state":"Gjilanit","country":"Kosovo","latitude":42.4528638,"longitude":21.5061453,"population":3165}, 
{"name":"Arllat","state":"Prishtinës","country":"Kosovo","latitude":42.5649856,"longitude":20.833699,"population":3134}, 
{"name":"Nekoc","state":"Prishtinës","country":"Kosovo","latitude":42.5371517,"longitude":20.9003122,"population":3118}, 
{"name":"Obrançë","state":"Prishtinës","country":"Kosovo","latitude":42.9145,"longitude":21.17064,"population":3092}, 
{"name":"Sopi","state":"Prizrenit","country":"Kosovo","latitude":42.3362091,"longitude":20.8443379,"population":3017}, 
{"name":"Dumnicë e Poshtme","state":"Prishtinës","country":"Kosovo","latitude":42.98372,"longitude":21.21511,"population":2975}, 
{"name":"Brekoc","state":"Gjakovës","country":"Kosovo","latitude":42.3590857,"longitude":20.4059148,"population":2948}, 
{"name":"Mazgit","state":"Prishtinës","country":"Kosovo","latitude":42.6972257,"longitude":21.0970512,"population":2886}, 
{"name":"Brodosanë","state":"Prizrenit","country":"Kosovo","latitude":42.111545,"longitude":20.7242239,"population":2839}, 
{"name":"Bresalc","state":"Gjilanit","country":"Kosovo","latitude":42.4889921,"longitude":21.4077959,"population":2823}, 
{"name":"Bardh i Madh","state":"Prishtinës","country":"Kosovo","latitude":42.6328976,"longitude":21.0224019,"population":2750}, 
{"name":"Romajë","state":"Prizrenit","country":"Kosovo","latitude":42.2903807,"longitude":20.5939735,"population":2747}, 
{"name":"Llaushë","state":"Mitrovicës","country":"Kosovo","latitude":42.7337756,"longitude":20.7686678,"population":2744}, 
{"name":"Lubizhdë e Hasit","state":"Prizrenit","country":"Kosovo","latitude":42.2635748,"longitude":20.5709149,"population":2719}, 
{"name":"Polac","state":"Mitrovicës","country":"Kosovo","latitude":42.7320402,"longitude":20.8222196,"population":2701}, 
{"name":"Llapashticë e Poshtme","state":"Prishtinës","country":"Kosovo","latitude":42.88639,"longitude":21.17436,"population":2701}, 
{"name":"Graçanicë","state":"Prishtinës","country":"Kosovo","latitude":42.5999713,"longitude":21.1922853,"population":2686}, 
{"name":"Rogaçicë","state":"Gjilanit","country":"Kosovo","latitude":42.557109,"longitude":21.6830424,"population":2668}, 
{"name":"Dobërçan","state":"Gjilanit","country":"Kosovo","latitude":42.473074,"longitude":21.5688126,"population":2659}, 
{"name":"Gadime e Epërme","state":"Prishtinës","country":"Kosovo","latitude":42.4904054,"longitude":21.2253707,"population":2641}, 
{"name":"Vrellë","state":"Pejës","country":"Kosovo","latitude":42.7696202,"longitude":20.4054523,"population":2641}, 
{"name":"Bradash","state":"Prishtinës","country":"Kosovo","latitude":42.94023,"longitude":21.13849,"population":2567}, 
{"name":"Livoç i Epërm","state":"Gjilanit","country":"Kosovo","latitude":42.4567178,"longitude":21.4317154,"population":2551}, 
{"name":"Kolovicë","state":"Prishtinës","country":"Kosovo","latitude":42.6849504,"longitude":21.1960438,"population":2545}, 
{"name":"Petrovë","state":"Ferizajt","country":"Kosovo","latitude":42.406444,"longitude":21.0339419,"population":2543}, 
{"name":"Greikoc","state":"Prizrenit","country":"Kosovo","latitude":42.2856244,"longitude":20.8319694,"population":2534}, 
{"name":"Han i Elezit","state":"Ferizajt","country":"Kosovo","latitude":42.1509653,"longitude":21.2980912,"population":2533}, 
{"name":"Shalë","state":"Prishtinës","country":"Kosovo","latitude":42.5038589,"longitude":20.9181454,"population":2517}, 
{"name":"Stanoc i Epërm","state":"Mitrovicës","country":"Kosovo","latitude":42.750638,"longitude":21.0487445,"population":2501}, 
{"name":"Gjylekar","state":"Gjilanit","country":"Kosovo","latitude":42.3489268,"longitude":21.4236875,"population":2499}, 
{"name":"Varosh","state":"Ferizajt","country":"Kosovo","latitude":42.3417996,"longitude":21.1750543,"population":2483}, 
{"name":"Sferkë","state":"Pejës","country":"Kosovo","latitude":42.5441558,"longitude":20.6145605,"population":2448}, 
{"name":"Hodanoc","state":"Gjilanit","country":"Kosovo","latitude":42.5377318,"longitude":21.6795245,"population":2446}, 
{"name":"Piranë","state":"Prizrenit","country":"Kosovo","latitude":42.2926751,"longitude":20.6736504,"population":2417}, 
{"name":"Gaçkë","state":"Ferizajt","country":"Kosovo","latitude":42.3031215,"longitude":21.1549329,"population":2368}, 
{"name":"Llapashticë e Epërme","state":"Prishtinës","country":"Kosovo","latitude":42.89747,"longitude":21.13812,"population":2363}, 
{"name":"Bajçinë","state":"Prishtinës","country":"Kosovo","latitude":42.9511198,"longitude":21.1565565,"population":2358}, 
{"name":"Radostë","state":"Gjakovës","country":"Kosovo","latitude":42.3893176,"longitude":20.5369458,"population":2346}, 
{"name":"Batllavë","state":"Prishtinës","country":"Kosovo","latitude":42.83671,"longitude":21.25294,"population":2334}, 
{"name":"Kabash","state":"Gjilanit","country":"Kosovo","latitude":42.3043867,"longitude":21.3552868,"population":2324}, 
{"name":"Sllatinë e Epërme","state":"Gjilanit","country":"Kosovo","latitude":42.3605714,"longitude":21.295987,"population":2317}, 
{"name":"Baicë","state":"Prishtinës","country":"Kosovo","latitude":42.6294821,"longitude":20.8414687,"population":2307}, 
{"name":"Bellacërkë","state":"Gjakovës","country":"Kosovo","latitude":42.3577696,"longitude":20.5934112,"population":2270}, 
{"name":"Raushiq","state":"Pejës","country":"Kosovo","latitude":42.6149368,"longitude":20.3119559,"population":2260}, 
{"name":"Skivjan","state":"Gjakovës","country":"Kosovo","latitude":42.4306201,"longitude":20.3821807,"population":2254}, 
{"name":"Seçishtë","state":"Ferizajt","country":"Kosovo","latitude":42.143896,"longitude":21.2935123,"population":2252}, 
{"name":"Nëntë Jugoviq","state":"Prishtinës","country":"Kosovo","latitude":42.7207888,"longitude":21.1346529,"population":2229}, 
{"name":"Carrallukë","state":"Prizrenit","country":"Kosovo","latitude":42.5129932,"longitude":20.7698658,"population":2226}, 
{"name":"Dobrajë e Madhe","state":"Prishtinës","country":"Kosovo","latitude":42.542876,"longitude":21.0458361,"population":2224}, 
{"name":"Gjinoc","state":"Prizrenit","country":"Kosovo","latitude":42.3189223,"longitude":20.8192426,"population":2221}, 
{"name":"Barilevë","state":"Prishtinës","country":"Kosovo","latitude":42.7551373,"longitude":21.1215401,"population":2212}, 
{"name":"Gjurakoc","state":"Pejës","country":"Kosovo","latitude":42.725361,"longitude":20.4719055,"population":2209}, 
{"name":"Bellanicë","state":"Prizrenit","country":"Kosovo","latitude":42.4582486,"longitude":20.8173586,"population":2207}, 
{"name":"Ribar i Madh","state":"Prishtinës","country":"Kosovo","latitude":42.507788,"longitude":21.042248,"population":2200}, 
{"name":"Astrazup","state":"Prizrenit","country":"Kosovo","latitude":42.4480728,"longitude":20.6997349,"population":2192}, 
{"name":"Prugoc","state":"Prishtinës","country":"Kosovo","latitude":42.7410441,"longitude":21.1220899,"population":2168}, 
{"name":"Prilep","state":"Gjakovës","country":"Kosovo","latitude":42.5070836,"longitude":20.3173383,"population":2165}, 
{"name":"Peqan","state":"Prizrenit","country":"Kosovo","latitude":42.3838475,"longitude":20.8233806,"population":2151}, 
{"name":"Janjevë","state":"Prishtinës","country":"Kosovo","latitude":42.5728721,"longitude":21.24677,"population":2137}, 
{"name":"Beguncë","state":"Gjilanit","country":"Kosovo","latitude":42.3039162,"longitude":21.3889991,"population":2133}, 
{"name":"Balloc","state":"Prishtinës","country":"Kosovo","latitude":42.89034,"longitude":21.23011,"population":2131}, 
{"name":"Prekaz i Epërm","state":"Mitrovicës","country":"Kosovo","latitude":42.7798304,"longitude":20.8301318,"population":2126}, 
{"name":"Begracë","state":"Ferizajt","country":"Kosovo","latitude":42.3153265,"longitude":21.2478186,"population":2116}, 
{"name":"Strellc i Ulët","state":"Gjakovës","country":"Kosovo","latitude":42.5762117,"longitude":20.3136622,"population":2114}, 
{"name":"Lupq i Poshtëm","state":"Prishtinës","country":"Kosovo","latitude":42.79997,"longitude":21.15482,"population":2113}, 
{"name":"Kushnin","state":"Prizrenit","country":"Kosovo","latitude":42.2745092,"longitude":20.5364957,"population":2110}, 
{"name":"Tankosiq","state":"Ferizajt","country":"Kosovo","latitude":42.3792634,"longitude":21.2886848,"population":2096}, 
{"name":"Letanc","state":"Prishtinës","country":"Kosovo","latitude":42.9314,"longitude":21.18506,"population":2080}, 
{"name":"Kosharë","state":"Ferizajt","country":"Kosovo","latitude":42.4216667,"longitude":21.0933333,"population":2077}, 
{"name":"Lloshkobarë","state":"Ferizajt","country":"Kosovo","latitude":42.394858,"longitude":21.1207504,"population":2075}, 
{"name":"Topanicë","state":"Gjilanit","country":"Kosovo","latitude":42.5313031,"longitude":21.6256466,"population":2061}, 
{"name":"Carrabreg i Ulët","state":"Gjakovës","country":"Kosovo","latitude":42.5299979,"longitude":20.2977469,"population":2059}, 
{"name":"Vraniq","state":"Prizrenit","country":"Kosovo","latitude":42.3260717,"longitude":20.9196735,"population":2051}, 
{"name":"Maxhunaj","state":"Mitrovicës","country":"Kosovo","latitude":42.7832927,"longitude":21.0199627,"population":2035}, 
{"name":"Çikatovë e Re","state":"Prishtinës","country":"Kosovo","latitude":42.6294763,"longitude":20.8806405,"population":2026}, 
{"name":"Vërban","state":"Gjilanit","country":"Kosovo","latitude":42.3029191,"longitude":21.2792162,"population":2008}, 
{"name":"Vaganicë","state":"Mitrovicës","country":"Kosovo","latitude":42.8454766,"longitude":20.8544192,"population":2000}, 
{"name":"Breznë","state":"Prizrenit","country":"Kosovo","latitude":42.1216616,"longitude":20.6343807,"population":1990}, 
{"name":"Poklek","state":"Prishtinës","country":"Kosovo","latitude":42.6245694,"longitude":20.913751,"population":1967}, 
{"name":"Cërnicë","state":"Gjilanit","country":"Kosovo","latitude":42.4218236,"longitude":21.4197771,"population":1963}, 
{"name":"Talinoc i Muhaxherëve","state":"Ferizajt","country":"Kosovo","latitude":42.3895819,"longitude":21.1759328,"population":1961}, 
{"name":"Treboviq","state":"Pejës","country":"Kosovo","latitude":42.6743014,"longitude":20.3538348,"population":1950}, 
{"name":"Përlepnicë","state":"Gjilanit","country":"Kosovo","latitude":42.5113148,"longitude":21.5193692,"population":1944}, 
{"name":"Kaçanik i Vjetër","state":"Ferizajt","country":"Kosovo","latitude":42.2984962,"longitude":21.2280286,"population":1940}, 
{"name":"Klinë e Poshtme","state":"Mitrovicës","country":"Kosovo","latitude":42.7600642,"longitude":20.7911051,"population":1927}, 
{"name":"Lubinjë e Epërme","state":"Prizrenit","country":"Kosovo","latitude":42.1446814,"longitude":20.8629396,"population":1925}, 
{"name":"Opterushë","state":"Gjakovës","country":"Kosovo","latitude":42.3712928,"longitude":20.7165407,"population":1911}, 
{"name":"Celinë","state":"Gjakovës","country":"Kosovo","latitude":42.3359295,"longitude":20.6287577,"population":1903}, 
{"name":"Mirash","state":"Ferizajt","country":"Kosovo","latitude":42.4453342,"longitude":21.2279257,"population":1883}, 
{"name":"Rezallë","state":"Mitrovicës","country":"Kosovo","latitude":42.691549,"longitude":20.7688295,"population":1878}, 
{"name":"Topliçan","state":"Prishtinës","country":"Kosovo","latitude":42.4861241,"longitude":21.116843,"population":1868}, 
{"name":"Drobesh","state":"Gjilanit","country":"Kosovo","latitude":42.3151987,"longitude":21.3357969,"population":1844}, 
{"name":"Remnik","state":"Gjilanit","country":"Kosovo","latitude":42.3549931,"longitude":21.4442264,"population":1844}, 
{"name":"Sllatinë e Madhe","state":"Prishtinës","country":"Kosovo","latitude":42.604211,"longitude":21.0173634,"population":1839}, 
{"name":"Nabërgjan","state":"Pejës","country":"Kosovo","latitude":42.6759681,"longitude":20.3969356,"population":1833}, 
{"name":"Miloshevë","state":"Prishtinës","country":"Kosovo","latitude":42.7226113,"longitude":21.0836125,"population":1819}, 
{"name":"Tërpezë","state":"Gjilanit","country":"Kosovo","latitude":42.3973367,"longitude":21.3454879,"population":1818}, 
{"name":"Novosellë","state":"Pejës","country":"Kosovo","latitude":42.725293,"longitude":20.329402,"population":1817}, 
{"name":"Leshak","state":"Mitrovicës","country":"Kosovo","latitude":43.1671463,"longitude":20.7425833,"population":1803}, 
{"name":"Bob","state":"Ferizajt","country":"Kosovo","latitude":42.226354,"longitude":21.2528688,"population":1796}, 
{"name":"Gllarevë","state":"Pejës","country":"Kosovo","latitude":42.5896334,"longitude":20.6810233,"population":1784}, 
{"name":"Jashanicë","state":"Pejës","country":"Kosovo","latitude":42.6684845,"longitude":20.6366827,"population":1784}, 
{"name":"Zym","state":"Prizrenit","country":"Kosovo","latitude":42.2729477,"longitude":20.6265167,"population":1782}, 
{"name":"Abri e Epërme","state":"Prishtinës","country":"Kosovo","latitude":42.6365309,"longitude":20.7848772,"population":1776}, 
{"name":"Budakovë","state":"Prizrenit","country":"Kosovo","latitude":42.3559433,"longitude":20.9306647,"population":1774}, 
{"name":"Dresnik","state":"Pejës","country":"Kosovo","latitude":42.6065499,"longitude":20.6004804,"population":1770}, 
{"name":"Sofali","state":"Prishtinës","country":"Kosovo","latitude":42.666944,"longitude":21.2025,"population":1767}, 
{"name":"Dejnë","state":"Gjakovës","country":"Kosovo","latitude":42.4293431,"longitude":20.5357721,"population":1757}, 
{"name":"Bubavec","state":"Prizrenit","country":"Kosovo","latitude":42.5498169,"longitude":20.7201772,"population":1753}, 
{"name":"Pagarushë","state":"Prizrenit","country":"Kosovo","latitude":42.4143955,"longitude":20.7560958,"population":1742}, 
{"name":"Irzniq","state":"Gjakovës","country":"Kosovo","latitude":42.5200124,"longitude":20.3471836,"population":1739}, 
{"name":"Sfeçël","state":"Prishtinës","country":"Kosovo","latitude":42.87725,"longitude":21.21922,"population":1739}, 
{"name":"Stanoc i Poshtëm","state":"Mitrovicës","country":"Kosovo","latitude":42.7421089,"longitude":21.0352,"population":1736}, 
{"name":"Zubin Potok","state":"Mitrovicës","country":"Kosovo","latitude":42.9131495,"longitude":20.6910432,"population":1724}, 
{"name":"Paldenicë","state":"Ferizajt","country":"Kosovo","latitude":42.1647403,"longitude":21.291701,"population":1723}, 
{"name":"Klinë e Epërme","state":"Mitrovicës","country":"Kosovo","latitude":42.7910702,"longitude":20.7841545,"population":1719}, 
{"name":"Brestovik","state":"Pejës","country":"Kosovo","latitude":42.7017644,"longitude":20.3024639,"population":1718}, 
{"name":"Burojë","state":"Mitrovicës","country":"Kosovo","latitude":42.6963047,"longitude":20.6702344,"population":1716}, 
{"name":"Lladroc","state":"Prizrenit","country":"Kosovo","latitude":42.5033588,"longitude":20.8241302,"population":1708}, 
{"name":"Hogoshtë","state":"Gjilanit","country":"Kosovo","latitude":42.6242086,"longitude":21.650184,"population":1705}, 
{"name":"Koshtovë","state":"Mitrovicës","country":"Kosovo","latitude":42.874363,"longitude":20.7901026,"population":1702}, 
{"name":"Vlashnjë","state":"Prizrenit","country":"Kosovo","latitude":42.1992196,"longitude":20.6560081,"population":1700}, 
{"name":"Biçec","state":"Ferizajt","country":"Kosovo","latitude":42.247104,"longitude":21.2146765,"population":1696}, 
{"name":"Banullë","state":"Prishtinës","country":"Kosovo","latitude":42.5149894,"longitude":21.1577455,"population":1694}, 
{"name":"Duhël","state":"Prizrenit","country":"Kosovo","latitude":42.4103796,"longitude":20.8714701,"population":1688}, 
{"name":"Atmagjë","state":"Prizrenit","country":"Kosovo","latitude":42.241705,"longitude":20.6821884,"population":1685}, 
{"name":"Brod","state":"Ferizajt","country":"Kosovo","latitude":42.2663308,"longitude":21.1356585,"population":1680}, 
{"name":"Krajk","state":"Prizrenit","country":"Kosovo","latitude":42.2829577,"longitude":20.6600013,"population":1676}, 
{"name":"Vatë","state":"Ferizajt","country":"Kosovo","latitude":42.2570294,"longitude":21.1804804,"population":1675}, 
{"name":"Magurë","state":"Prishtinës","country":"Kosovo","latitude":42.536607,"longitude":21.0105862,"population":1670}, 
{"name":"Kuk","state":"Prizrenit","country":"Kosovo","latitude":42.1006589,"longitude":20.7142504,"population":1658}, 
{"name":"Nerodime e Epërme","state":"Ferizajt","country":"Kosovo","latitude":42.3681012,"longitude":21.0803991,"population":1648}, 
{"name":"Miradi e Poshtme","state":"Prishtinës","country":"Kosovo","latitude":42.6059114,"longitude":21.0714282,"population":1647}, 
{"name":"Klladërnicë","state":"Mitrovicës","country":"Kosovo","latitude":42.7510927,"longitude":20.6935017,"population":1646}, 
{"name":"Smrekonicë","state":"Mitrovicës","country":"Kosovo","latitude":42.8647066,"longitude":20.9407574,"population":1646}, 
{"name":"Lubizhdë","state":"Prizrenit","country":"Kosovo","latitude":42.5053754,"longitude":20.698429,"population":1641}, 
{"name":"Ngucat","state":"Prizrenit","country":"Kosovo","latitude":42.4609514,"longitude":20.8509491,"population":1639}, 
{"name":"Abri e Poshtme","state":"Mitrovicës","country":"Kosovo","latitude":42.6399635,"longitude":20.7578137,"population":1639}, 
{"name":"Reçak","state":"Ferizajt","country":"Kosovo","latitude":42.4275766,"longitude":21.0212362,"population":1638}, 
{"name":"Turjakë","state":"Prizrenit","country":"Kosovo","latitude":42.5073345,"longitude":20.6763697,"population":1637}, 
{"name":"Dobërllukë","state":"Mitrovicës","country":"Kosovo","latitude":42.8457665,"longitude":20.9453916,"population":1629}, 
{"name":"Llashticë","state":"Gjilanit","country":"Kosovo","latitude":42.3860606,"longitude":21.5042766,"population":1624}, 
{"name":"Majanc","state":"Prishtinës","country":"Kosovo","latitude":42.81262,"longitude":21.13515,"population":1622}, 
{"name":"Leshan","state":"Prizrenit","country":"Kosovo","latitude":42.328283,"longitude":20.781755,"population":1607}, 
{"name":"Lubiçevë","state":"Prizrenit","country":"Kosovo","latitude":42.1557169,"longitude":20.7332066,"population":1602}, 
{"name":"Velekincë","state":"Gjilanit","country":"Kosovo","latitude":42.4256031,"longitude":21.4824949,"population":1602}, 
{"name":"Baballoq","state":"Gjakovës","country":"Kosovo","latitude":42.4870681,"longitude":20.3490943,"population":1598}, 
{"name":"Bërnicë e Epërme","state":"Prishtinës","country":"Kosovo","latitude":42.7149085,"longitude":21.1675763,"population":1595}, 
{"name":"Gllanasellë","state":"Prishtinës","country":"Kosovo","latitude":42.6692724,"longitude":20.9101806,"population":1591}, 
{"name":"Drenoc","state":"Gjakovës","country":"Kosovo","latitude":42.4375833,"longitude":20.6133421,"population":1587}, 
{"name":"Runik","state":"Mitrovicës","country":"Kosovo","latitude":42.7959344,"longitude":20.6905914,"population":1586}, 
{"name":"Llukar","state":"Prishtinës","country":"Kosovo","latitude":42.7006646,"longitude":21.1908944,"population":1579}, 
{"name":"Dobratin","state":"Prishtinës","country":"Kosovo","latitude":42.9647,"longitude":21.12764,"population":1576}, 
{"name":"Llozicë","state":"Prizrenit","country":"Kosovo","latitude":42.5608841,"longitude":20.7616876,"population":1573}, 
{"name":"Korilë","state":"Mitrovicës","country":"Kosovo","latitude":42.9088412,"longitude":20.8089548,"population":1572}, 
{"name":"Krojmir","state":"Prishtinës","country":"Kosovo","latitude":42.4852184,"longitude":20.9316295,"population":1568}, 
{"name":"Carravranë","state":"Prizrenit","country":"Kosovo","latitude":42.4771344,"longitude":20.6882599,"population":1567}, 
{"name":"Petroviq","state":"Ferizajt","country":"Kosovo","latitude":42.4491144,"longitude":21.0406925,"population":1566}, 
{"name":"Vajnik","state":"Mitrovicës","country":"Kosovo","latitude":42.70781,"longitude":20.6622204,"population":1565}, 
{"name":"Staradran","state":"Pejës","country":"Kosovo","latitude":42.6974818,"longitude":20.4277354,"population":1563}, 
{"name":"Berivojcë","state":"Gjilanit","country":"Kosovo","latitude":42.5672256,"longitude":21.5863862,"population":1553}, 
{"name":"Brod","state":"Prizrenit","country":"Kosovo","latitude":41.9916863,"longitude":20.7060356,"population":1544}, 
{"name":"Negroc","state":"Prishtinës","country":"Kosovo","latitude":42.5791558,"longitude":20.8256799,"population":1540}, 
{"name":"Shushicë","state":"Pejës","country":"Kosovo","latitude":42.808565,"longitude":20.5770077,"population":1533}, 
{"name":"Sojevë","state":"Ferizajt","country":"Kosovo","latitude":42.3692804,"longitude":21.229196,"population":1530}, 
{"name":"Gllabar","state":"Prishtinës","country":"Kosovo","latitude":42.646376,"longitude":20.8709297,"population":1526}, 
{"name":"Poslishtë","state":"Prizrenit","country":"Kosovo","latitude":42.1790723,"longitude":20.6722853,"population":1520}, 
{"name":"Muçivërc","state":"Gjilanit","country":"Kosovo","latitude":42.5549105,"longitude":21.6595268,"population":1520}, 
{"name":"Shupkoc","state":"Mitrovicës","country":"Kosovo","latitude":42.8863995,"longitude":20.8878718,"population":1518}, 
{"name":"Vragoli","state":"Prishtinës","country":"Kosovo","latitude":42.6108657,"longitude":21.0565044,"population":1514}, 
{"name":"Prelez i Jerlive","state":"Ferizajt","country":"Kosovo","latitude":42.414783,"longitude":21.1591875,"population":1510}, 
{"name":"Nakaradë","state":"Prishtinës","country":"Kosovo","latitude":42.6443008,"longitude":21.0853624,"population":1506}, 
{"name":"Kishnarekë","state":"Prishtinës","country":"Kosovo","latitude":42.551046,"longitude":20.8862502,"population":1504}, 
{"name":"Shajkoc","state":"Prishtinës","country":"Kosovo","latitude":42.85684,"longitude":21.24962,"population":1504}, 
{"name":"Billushë","state":"Prizrenit","country":"Kosovo","latitude":42.1695242,"longitude":20.6743899,"population":1495}, 
{"name":"Pjetërshticë","state":"Ferizajt","country":"Kosovo","latitude":42.4754871,"longitude":20.9466595,"population":1495}, 
{"name":"Studenicë","state":"Pejës","country":"Kosovo","latitude":42.7659794,"longitude":20.3888678,"population":1495}, 
{"name":"Slivovë","state":"Ferizajt","country":"Kosovo","latitude":42.4164383,"longitude":21.1068364,"population":1490}, 
{"name":"Qyshk","state":"Pejës","country":"Kosovo","latitude":42.6553982,"longitude":20.3361537,"population":1481}, 
{"name":"Dubravë","state":"Ferizajt","country":"Kosovo","latitude":42.3465658,"longitude":21.1387342,"population":1472}, 
{"name":"Dobroshec","state":"Prishtinës","country":"Kosovo","latitude":42.659298,"longitude":20.9291859,"population":1457}, 
{"name":"Blaç","state":"Prizrenit","country":"Kosovo","latitude":42.1249647,"longitude":20.7347617,"population":1455}, 
{"name":"Llukë e Epërme","state":"Gjakovës","country":"Kosovo","latitude":42.5449874,"longitude":20.3081327,"population":1451}, 
{"name":"Carrabreg i Epërm","state":"Gjakovës","country":"Kosovo","latitude":42.5268569,"longitude":20.2918616,"population":1446}, 
{"name":"Lubishtë","state":"Gjilanit","country":"Kosovo","latitude":42.2931396,"longitude":21.4122087,"population":1445}, 
{"name":"Semetishtë","state":"Prizrenit","country":"Kosovo","latitude":42.3920771,"longitude":20.8060653,"population":1443}, 
{"name":"Gllogoc","state":"Prishtinës","country":"Kosovo","latitude":42.5050416,"longitude":21.1460478,"population":1440}, 
{"name":"Sankoc","state":"Prishtinës","country":"Kosovo","latitude":42.5721856,"longitude":20.9357544,"population":1437}, 
{"name":"Mirosalë","state":"Ferizajt","country":"Kosovo","latitude":42.4038254,"longitude":21.2493994,"population":1427}, 
{"name":"Miradi e Epërme","state":"Prishtinës","country":"Kosovo","latitude":42.601805,"longitude":21.0894526,"population":1424}, 
{"name":"Pantinë","state":"Mitrovicës","country":"Kosovo","latitude":42.834661,"longitude":20.9040894,"population":1422}, 
{"name":"Karaçevë e Epërme","state":"Gjilanit","country":"Kosovo","latitude":42.5766702,"longitude":21.7302755,"population":1413}, 
{"name":"Bellopojë","state":"Prishtinës","country":"Kosovo","latitude":42.8106344,"longitude":21.1951724,"population":1412}, 
{"name":"Balincë","state":"Prizrenit","country":"Kosovo","latitude":42.5534281,"longitude":20.783319,"population":1404}, 
{"name":"Llugë","state":"Prishtinës","country":"Kosovo","latitude":42.82957,"longitude":21.18733,"population":1404}, 
{"name":"Sallagrazhdë","state":"Prizrenit","country":"Kosovo","latitude":42.3068996,"longitude":20.8475764,"population":1388}, 
{"name":"Dubravë","state":"Pejës","country":"Kosovo","latitude":42.7644127,"longitude":20.5292904,"population":1383}, 
{"name":"Plemetin","state":"Prishtinës","country":"Kosovo","latitude":42.7069227,"longitude":21.0440069,"population":1381}, 
{"name":"Nashec","state":"Prizrenit","country":"Kosovo","latitude":42.2396099,"longitude":20.652072,"population":1379}, 
{"name":"Dumnicë e Poshtme","state":"Mitrovicës","country":"Kosovo","latitude":42.7773827,"longitude":21.0453406,"population":1379}, 
{"name":"Kraishtë","state":"Prishtinës","country":"Kosovo","latitude":42.4938543,"longitude":21.0468671,"population":1375}, 
{"name":"Senik","state":"Prizrenit","country":"Kosovo","latitude":42.4823626,"longitude":20.829702,"population":1371}, 
{"name":"Reznik","state":"Mitrovicës","country":"Kosovo","latitude":42.7748399,"longitude":20.9713245,"population":1366}, 
{"name":"Nevolan","state":"Mitrovicës","country":"Kosovo","latitude":42.7920648,"longitude":20.9528978,"population":1366}, 
{"name":"Banjë","state":"Pejës","country":"Kosovo","latitude":42.7254298,"longitude":20.3874836,"population":1360}, 
{"name":"Radac","state":"Pejës","country":"Kosovo","latitude":42.738163,"longitude":20.3195846,"population":1352}, 
{"name":"Kçiq i Vogël","state":"Mitrovicës","country":"Kosovo","latitude":42.8718698,"longitude":20.9017324,"population":1348}, 
{"name":"Manastircë","state":"Ferizajt","country":"Kosovo","latitude":42.3566375,"longitude":21.1031321,"population":1346}, 
{"name":"Siqevë","state":"Pejës","country":"Kosovo","latitude":42.6275952,"longitude":20.6841781,"population":1338}, 
{"name":"Nerodime e Poshtme","state":"Ferizajt","country":"Kosovo","latitude":42.3647398,"longitude":21.0977245,"population":1337}, 
{"name":"Godanc i Poshtëm","state":"Ferizajt","country":"Kosovo","latitude":42.4562093,"longitude":21.0467948,"population":1330}, 
{"name":"Muzeqinë","state":"Ferizajt","country":"Kosovo","latitude":42.4509697,"longitude":21.0954482,"population":1324}, 
{"name":"Samadrexhë","state":"Mitrovicës","country":"Kosovo","latitude":42.8251738,"longitude":21.0502951,"population":1321}, 
{"name":"Gërnçar","state":"Prizrenit","country":"Kosovo","latitude":42.2194355,"longitude":20.7707125,"population":1318}, 
{"name":"Pobërgjë","state":"Gjakovës","country":"Kosovo","latitude":42.5252851,"longitude":20.2644086,"population":1314}, 
{"name":"Godanc i Epërm","state":"Ferizajt","country":"Kosovo","latitude":42.4667995,"longitude":21.0348858,"population":1304}, 
{"name":"Breznicë","state":"Prishtinës","country":"Kosovo","latitude":42.7782754,"longitude":21.0876261,"population":1302}, 
{"name":"Zveçan","state":"Mitrovicës","country":"Kosovo","latitude":42.9091868,"longitude":20.8389308,"population":1297}, 
{"name":"Soçanicë","state":"Mitrovicës","country":"Kosovo","latitude":43.0561114,"longitude":20.8072601,"population":1296}, 
{"name":"Çifllak","state":"Gjakovës","country":"Kosovo","latitude":42.4617452,"longitude":20.521197,"population":1292}, 
{"name":"Brestoc","state":"Gjakovës","country":"Kosovo","latitude":42.3596956,"longitude":20.6649905,"population":1288}, 
{"name":"Glloboçicë","state":"Ferizajt","country":"Kosovo","latitude":42.1686347,"longitude":21.1909008,"population":1287}, 
{"name":"Millanoviq","state":"Prizrenit","country":"Kosovo","latitude":42.4223742,"longitude":20.7145791,"population":1281}, 
{"name":"Kijevë","state":"Prizrenit","country":"Kosovo","latitude":42.5680441,"longitude":20.718309,"population":1279}, 
{"name":"Smallushë","state":"Prishtinës","country":"Kosovo","latitude":42.5097156,"longitude":21.2006543,"population":1276}, 
{"name":"Zaplluzhë","state":"Prizrenit","country":"Kosovo","latitude":42.1324739,"longitude":20.7602083,"population":1273}, 
{"name":"Bellopojë","state":"Pejës","country":"Kosovo","latitude":42.6414687,"longitude":20.2872517,"population":1272}, 
{"name":"Zajm","state":"Pejës","country":"Kosovo","latitude":42.5910796,"longitude":20.5598138,"population":1267}, 
{"name":"Llukac i Begut","state":"Pejës","country":"Kosovo","latitude":42.7328458,"longitude":20.4450413,"population":1267}, 
{"name":"Shtërpcë","state":"Ferizajt","country":"Kosovo","latitude":42.2401249,"longitude":21.0253337,"population":1265}, 
{"name":"Gërdoc","state":"Prishtinës","country":"Kosovo","latitude":42.8243387,"longitude":21.2195438,"population":1263}, 
{"name":"Sadovinë e Çerkezëve","state":"Gjilanit","country":"Kosovo","latitude":42.3456155,"longitude":21.2831553,"population":1262}, 
{"name":"Shipashnicë e Epërme","state":"Gjilanit","country":"Kosovo","latitude":42.5984564,"longitude":21.6673602,"population":1261}, 
{"name":"Çikatovë e Vjetër","state":"Prishtinës","country":"Kosovo","latitude":42.6539369,"longitude":20.9087046,"population":1261}, 
{"name":"Begaj","state":"Mitrovicës","country":"Kosovo","latitude":42.8333871,"longitude":20.9873247,"population":1261}, 
{"name":"Açarevë","state":"Mitrovicës","country":"Kosovo","latitude":42.6438936,"longitude":20.7115426,"population":1258}, 
{"name":"Rahovicë","state":"Ferizajt","country":"Kosovo","latitude":42.423314,"longitude":21.2367903,"population":1257}, 
{"name":"Petroc","state":"Gjilanit","country":"Kosovo","latitude":42.4858124,"longitude":21.578262,"population":1257}, 
{"name":"Gërçinë","state":"Gjakovës","country":"Kosovo","latitude":42.2962193,"longitude":20.4844444,"population":1255}, 
{"name":"Metehi","state":"Prishtinës","country":"Kosovo","latitude":43.01413,"longitude":21.14825,"population":1251}, 
{"name":"Dragobil","state":"Prizrenit","country":"Kosovo","latitude":42.4610447,"longitude":20.726436,"population":1248}, 
{"name":"Cerrcë","state":"Pejës","country":"Kosovo","latitude":42.7785194,"longitude":20.4640119,"population":1248}, 
{"name":"Vërboc","state":"Prishtinës","country":"Kosovo","latitude":42.6742929,"longitude":20.8541343,"population":1247}, 
{"name":"Radivojc","state":"Gjilanit","country":"Kosovo","latitude":42.3778363,"longitude":21.3905489,"population":1245}, 
{"name":"Mihaliq","state":"Mitrovicës","country":"Kosovo","latitude":42.7546717,"longitude":21.0018709,"population":1242}, 
{"name":"Caravik","state":"Pejës","country":"Kosovo","latitude":42.591599,"longitude":20.729189,"population":1241}, 
{"name":"Peran","state":"Prishtinës","country":"Kosovo","latitude":42.92907,"longitude":21.16643,"population":1241}, 
{"name":"Korroticë e Epërme","state":"Prishtinës","country":"Kosovo","latitude":42.6049874,"longitude":20.9353937,"population":1240}, 
{"name":"Vojnoc","state":"Ferizajt","country":"Kosovo","latitude":42.4578308,"longitude":21.1132345,"population":1238}, 
{"name":"Rastavicë","state":"Gjakovës","country":"Kosovo","latitude":42.4923086,"longitude":20.3267864,"population":1238}, 
{"name":"Dramjak","state":"Ferizajt","country":"Kosovo","latitude":42.386305,"longitude":21.075271,"population":1235}, 
{"name":"Lubinjë e Poshtme","state":"Prizrenit","country":"Kosovo","latitude":42.1349935,"longitude":20.8577972,"population":1227}, 
{"name":"Radeshë","state":"Prizrenit","country":"Kosovo","latitude":42.0533239,"longitude":20.6956867,"population":1224}, 
{"name":"Gumnasellë","state":"Prishtinës","country":"Kosovo","latitude":42.500707,"longitude":21.163686,"population":1224}, 
{"name":"Bec","state":"Gjakovës","country":"Kosovo","latitude":42.4455517,"longitude":20.4516547,"population":1223}, 
{"name":"Lutogllavë","state":"Prizrenit","country":"Kosovo","latitude":42.2765797,"longitude":20.785832,"population":1218}, 
{"name":"Pogragjë","state":"Gjilanit","country":"Kosovo","latitude":42.4296211,"longitude":21.5804236,"population":1211}, 
{"name":"Mleçan","state":"Prizrenit","country":"Kosovo","latitude":42.5698636,"longitude":20.755928,"population":1211}, 
{"name":"Dumosh","state":"Prishtinës","country":"Kosovo","latitude":42.85491,"longitude":21.21656,"population":1207}, 
{"name":"Babush i Muhaxherëve","state":"Prishtinës","country":"Kosovo","latitude":42.4689235,"longitude":21.1806147,"population":1206}, 
{"name":"Dobërdelan","state":"Prizrenit","country":"Kosovo","latitude":42.3861327,"longitude":20.749086,"population":1205}, 
{"name":"Zllatar","state":"Ferizajt","country":"Kosovo","latitude":42.3995211,"longitude":21.2855493,"population":1203}, 
{"name":"Nishor","state":"Prizrenit","country":"Kosovo","latitude":42.4188297,"longitude":20.7953579,"population":1203}, 
{"name":"Bukosh","state":"Prizrenit","country":"Kosovo","latitude":42.3381336,"longitude":20.8899279,"population":1195}, 
{"name":"Petrovë","state":"Prizrenit","country":"Kosovo","latitude":42.2443337,"longitude":20.735864,"population":1194}, 
{"name":"Uglar","state":"Prishtinës","country":"Kosovo","latitude":42.6282738,"longitude":21.107764,"population":1186}, 
{"name":"Kopernicë","state":"Gjilanit","country":"Kosovo","latitude":42.6131215,"longitude":21.6270149,"population":1183}, 
{"name":"Krajkovë","state":"Prishtinës","country":"Kosovo","latitude":42.6007734,"longitude":20.8536558,"population":1181}, 
{"name":"Bibaj","state":"Ferizajt","country":"Kosovo","latitude":42.3761083,"longitude":21.1950614,"population":1180}, 
{"name":"Medvec","state":"Prishtinës","country":"Kosovo","latitude":42.5515965,"longitude":21.0079001,"population":1178}, 
{"name":"Dobrushë","state":"Pejës","country":"Kosovo","latitude":42.7136903,"longitude":20.431437,"population":1178}, 
{"name":"Sllatinë e Poshtme","state":"Gjilanit","country":"Kosovo","latitude":42.353957,"longitude":21.3056859,"population":1177}, 
{"name":"Pasjak","state":"Prishtinës","country":"Kosovo","latitude":42.4741863,"longitude":21.4253006,"population":1176}, 
{"name":"Likoc","state":"Mitrovicës","country":"Kosovo","latitude":42.6653852,"longitude":20.7720532,"population":1175}, 
{"name":"Bukosh","state":"Mitrovicës","country":"Kosovo","latitude":42.8021317,"longitude":20.9298313,"population":1171}, 
{"name":"Shpenadi","state":"Prizrenit","country":"Kosovo","latitude":42.2729588,"longitude":20.7572084,"population":1168}, 
{"name":"Hoçë e Vogël","state":"Gjakovës","country":"Kosovo","latitude":42.3512552,"longitude":20.6587289,"population":1166}, 
{"name":"Brrut","state":"Prizrenit","country":"Kosovo","latitude":42.1277811,"longitude":20.696329,"population":1164}, 
{"name":"Stagovë","state":"Ferizajt","country":"Kosovo","latitude":42.2754474,"longitude":21.2474475,"population":1160}, 
{"name":"Llugaxhi","state":"Prishtinës","country":"Kosovo","latitude":42.4888092,"longitude":21.1745503,"population":1157}, 
{"name":"Kralan","state":"Gjakovës","country":"Kosovo","latitude":42.5195038,"longitude":20.5256388,"population":1153}, 
{"name":"Soponicë","state":"Ferizajt","country":"Kosovo","latitude":42.2660273,"longitude":21.1934026,"population":1152}, 
{"name":"Osek Hylë","state":"Gjakovës","country":"Kosovo","latitude":42.414001,"longitude":20.3894401,"population":1151}, 
{"name":"Landovicë","state":"Prizrenit","country":"Kosovo","latitude":42.2618434,"longitude":20.6851737,"population":1149}, 
{"name":"Shtedim","state":"Prishtinës","country":"Kosovo","latitude":42.90844,"longitude":21.21539,"population":1148}, 
{"name":"Caralevë","state":"Ferizajt","country":"Kosovo","latitude":42.4568629,"longitude":20.9774945,"population":1146}, 
{"name":"Lëbushë","state":"Gjakovës","country":"Kosovo","latitude":42.5626793,"longitude":20.2900286,"population":1145}, 
{"name":"Kopiliq i Poshtëm","state":"Mitrovicës","country":"Kosovo","latitude":42.6924194,"longitude":20.7087514,"population":1145}, 
{"name":"Randobravë","state":"Prizrenit","country":"Kosovo","latitude":42.3210921,"longitude":20.6724329,"population":1142}, 
{"name":"Cërmjan","state":"Gjakovës","country":"Kosovo","latitude":42.4747827,"longitude":20.4776998,"population":1141}, 
{"name":"Tërn","state":"Ferizajt","country":"Kosovo","latitude":42.4436987,"longitude":21.1312926,"population":1138}, 
{"name":"Marali","state":"Prizrenit","country":"Kosovo","latitude":42.4496579,"longitude":20.7298277,"population":1137}, 
{"name":"Reshtan","state":"Prizrenit","country":"Kosovo","latitude":42.3591148,"longitude":20.8009831,"population":1136}, 
{"name":"Mushnikovë","state":"Prizrenit","country":"Kosovo","latitude":42.1738484,"longitude":20.8967307,"population":1133}, 
{"name":"Gjurkoc","state":"Ferizajt","country":"Kosovo","latitude":42.4687109,"longitude":21.0893725,"population":1132}, 
{"name":"Gremnik","state":"Pejës","country":"Kosovo","latitude":42.5833077,"longitude":20.5895152,"population":1131}, 
{"name":"Reçan","state":"Prizrenit","country":"Kosovo","latitude":42.3608269,"longitude":20.8675856,"population":1130}, 
{"name":"Skorobishtë","state":"Prizrenit","country":"Kosovo","latitude":42.2313466,"longitude":20.810892,"population":1128}, 
{"name":"Stubëll e Epërme","state":"Gjilanit","country":"Kosovo","latitude":42.3228787,"longitude":21.4625129,"population":1128}, 
{"name":"Binçë","state":"Gjilanit","country":"Kosovo","latitude":42.2970777,"longitude":21.3640861,"population":1127}, 
{"name":"Kramovik","state":"Gjakovës","country":"Kosovo","latitude":42.4819798,"longitude":20.5227778,"population":1125}, 
{"name":"Tërdec","state":"Prishtinës","country":"Kosovo","latitude":42.6208632,"longitude":20.7824905,"population":1121}, 
{"name":"Zahaq","state":"Pejës","country":"Kosovo","latitude":42.6535627,"longitude":20.3852818,"population":1120}, 
{"name":"Gelancë","state":"Prizrenit","country":"Kosovo","latitude":42.295953,"longitude":20.786046,"population":1116}, 
{"name":"Tërpezë","state":"Prizrenit","country":"Kosovo","latitude":42.5206798,"longitude":20.8254879,"population":1115}, 
{"name":"Akrashticë","state":"Mitrovicës","country":"Kosovo","latitude":42.8222126,"longitude":20.8993202,"population":1113}, 
{"name":"Manastiricë","state":"Prizrenit","country":"Kosovo","latitude":42.1366454,"longitude":20.8052287,"population":1107}, 
{"name":"Dobërdol","state":"Prishtinës","country":"Kosovo","latitude":42.96653,"longitude":21.16393,"population":1106}, 
{"name":"Pllanjan","state":"Prizrenit","country":"Kosovo","latitude":42.178358,"longitude":20.8377483,"population":1104}, 
{"name":"Firajë","state":"Ferizajt","country":"Kosovo","latitude":42.2512108,"longitude":21.0979338,"population":1103}, 
{"name":"Shtrubullovë","state":"Prishtinës","country":"Kosovo","latitude":42.6172403,"longitude":20.8778829,"population":1102}, 
{"name":"Sadovinë e Jerlive","state":"Gjilanit","country":"Kosovo","latitude":42.3245602,"longitude":21.2953572,"population":1101}, 
{"name":"Doganaj","state":"Ferizajt","country":"Kosovo","latitude":42.3502123,"longitude":21.152213,"population":1100}, 
{"name":"Karashëngjergj","state":"Prizrenit","country":"Kosovo","latitude":42.2658103,"longitude":20.6088677,"population":1099}, 
{"name":"Dragash","state":"Prizrenit","country":"Kosovo","latitude":42.0615806,"longitude":20.6533669,"population":1098}, 
{"name":"Bajgorë","state":"Mitrovicës","country":"Kosovo","latitude":42.9553894,"longitude":20.9926173,"population":1098}, 
{"name":"Gramaçel","state":"Gjakovës","country":"Kosovo","latitude":42.4825404,"longitude":20.3656644,"population":1097}, 
{"name":"Prekaz i Poshtëm","state":"Mitrovicës","country":"Kosovo","latitude":42.7487409,"longitude":20.8187476,"population":1091}, 
{"name":"Surkish","state":"Prishtinës","country":"Kosovo","latitude":42.88835,"longitude":21.20632,"population":1091}, 
{"name":"Orobërdë","state":"Pejës","country":"Kosovo","latitude":42.7395133,"longitude":20.3685352,"population":1087}, 
{"name":"Kosinë","state":"Ferizajt","country":"Kosovo","latitude":42.412226,"longitude":21.1301705,"population":1082}, 
{"name":"Mazrek","state":"Prizrenit","country":"Kosovo","latitude":42.2351727,"longitude":20.6166894,"population":1077}, 
{"name":"Pataçan i Ulët","state":"Gjakovës","country":"Kosovo","latitude":42.3907118,"longitude":20.6058751,"population":1077}, 
{"name":"Zabel i Ulët","state":"Prishtinës","country":"Kosovo","latitude":42.59025,"longitude":20.893631,"population":1077}, 
{"name":"Mramor","state":"Prishtinës","country":"Kosovo","latitude":42.6572114,"longitude":21.2852995,"population":1073}, 
{"name":"Zhabar i Epërm","state":"Mitrovicës","country":"Kosovo","latitude":42.8640439,"longitude":20.8317255,"population":1070}, 
{"name":"Shajnë","state":"Prizrenit","country":"Kosovo","latitude":42.0693889,"longitude":20.6604588,"population":1069}, 
{"name":"Lladroviq","state":"Prizrenit","country":"Kosovo","latitude":42.4711484,"longitude":20.8416839,"population":1066}, 
{"name":"Fushticë e Ulët","state":"Prishtinës","country":"Kosovo","latitude":42.5506359,"longitude":20.9276705,"population":1066}, 
{"name":"Çubrel","state":"Mitrovicës","country":"Kosovo","latitude":42.7744602,"longitude":20.7348816,"population":1065}, 
{"name":"Kllokot","state":"Gjilanit","country":"Kosovo","latitude":42.3694126,"longitude":21.3748004,"population":1064}, 
{"name":"Medvec","state":"Prizrenit","country":"Kosovo","latitude":42.3078158,"longitude":20.707251,"population":1062}, 
{"name":"Mollopolc","state":"Ferizajt","country":"Kosovo","latitude":42.4011175,"longitude":21.0528149,"population":1062}, 
{"name":"Dubovik","state":"Gjakovës","country":"Kosovo","latitude":42.5734015,"longitude":20.337249,"population":1060}, 
{"name":"Kryshec","state":"Prishtinës","country":"Kosovo","latitude":42.6605565,"longitude":21.0826418,"population":1053}, 
{"name":"Vranidoll","state":"Prishtinës","country":"Kosovo","latitude":42.7685461,"longitude":21.1501633,"population":1053}, 
{"name":"Savrovë","state":"Prizrenit","country":"Kosovo","latitude":42.3280761,"longitude":20.8746196,"population":1051}, 
{"name":"Pojatë","state":"Ferizajt","country":"Kosovo","latitude":42.3968769,"longitude":21.2208457,"population":1047}, 
{"name":"Drenoc","state":"Gjakovës","country":"Kosovo","latitude":42.515412,"longitude":20.2923038,"population":1046}, 
{"name":"Baicë","state":"Prishtinës","country":"Kosovo","latitude":42.5176962,"longitude":20.9152851,"population":1043}, 
{"name":"Stantërg","state":"Mitrovicës","country":"Kosovo","latitude":42.9391066,"longitude":20.920198,"population":1042}, 
{"name":"Orlloviq","state":"Prishtinës","country":"Kosovo","latitude":42.6713335,"longitude":21.1244699,"population":1035}, 
{"name":"Kovaçec","state":"Ferizajt","country":"Kosovo","latitude":42.2427529,"longitude":21.2321086,"population":1030}, 
{"name":"Gorancë","state":"Ferizajt","country":"Kosovo","latitude":42.1429638,"longitude":21.2330256,"population":1028}, 
{"name":"Rufc i Vjetër","state":"Prishtinës","country":"Kosovo","latitude":42.530772,"longitude":21.085922,"population":1023}, 
{"name":"Braboniq","state":"Mitrovicës","country":"Kosovo","latitude":42.8443997,"longitude":20.7937117,"population":1023}, 
{"name":"Uglar","state":"Gjilanit","country":"Kosovo","latitude":42.4263352,"longitude":21.524944,"population":1021}, 
{"name":"Sllapuzhan","state":"Prizrenit","country":"Kosovo","latitude":42.3844799,"longitude":20.8376714,"population":1019}, 
{"name":"Graboc i Poshtëm","state":"Prishtinës","country":"Kosovo","latitude":42.64443,"longitude":21.0064774,"population":1017}, 
{"name":"Polluzhë","state":"Prishtinës","country":"Kosovo","latitude":42.6899408,"longitude":20.8294925,"population":1017}, 
{"name":"Lumadh","state":"Mitrovicës","country":"Kosovo","latitude":42.7568455,"longitude":21.0259279,"population":1017}, 
{"name":"Qirez","state":"Mitrovicës","country":"Kosovo","latitude":42.7152879,"longitude":20.8939416,"population":1015}, 
{"name":"Llapçevë","state":"Prizrenit","country":"Kosovo","latitude":42.5045102,"longitude":20.5840871,"population":1013}, 
{"name":"Pastasellë","state":"Gjakovës","country":"Kosovo","latitude":42.4522255,"longitude":20.5906638,"population":1011}, 
{"name":"Kryshec","state":"Pejës","country":"Kosovo","latitude":42.5766652,"longitude":20.3541137,"population":1009}, 
{"name":"Tunel i Parë","state":"Mitrovicës","country":"Kosovo","latitude":42.9194713,"longitude":20.8994053,"population":1006}, 
{"name":"Përçevë","state":"Pejës","country":"Kosovo","latitude":42.5676772,"longitude":20.6336911,"population":1005}, 
{"name":"Plavë","state":"Prizrenit","country":"Kosovo","latitude":42.0987025,"longitude":20.6480706,"population":1000}, 
{"name":"Panorc","state":"Prizrenit","country":"Kosovo","latitude":42.502953,"longitude":20.6223004,"population":997}, 
{"name":"Makoc","state":"Prishtinës","country":"Kosovo","latitude":42.70493,"longitude":21.2233407,"population":997}, 
{"name":"Sapniq","state":"Gjakovës","country":"Kosovo","latitude":42.3837889,"longitude":20.58518,"population":996}, 
{"name":"Çabër","state":"Mitrovicës","country":"Kosovo","latitude":42.9035685,"longitude":20.7735812,"population":995}, 
{"name":"Fshat i Vjetër","state":"Ferizajt","country":"Kosovo","latitude":42.3646348,"longitude":21.1963545,"population":992}, 
{"name":"Balaj","state":"Ferizajt","country":"Kosovo","latitude":42.3783785,"longitude":21.1052402,"population":992}, 
{"name":"Rashincë","state":"Ferizajt","country":"Kosovo","latitude":42.4432947,"longitude":21.0753301,"population":992}, 
{"name":"Baks","state":"Mitrovicës","country":"Kosovo","latitude":42.7242561,"longitude":20.8755731,"population":991}, 
{"name":"Vërmicë","state":"Prizrenit","country":"Kosovo","latitude":42.542811,"longitude":20.766022,"population":985}, 
{"name":"Gllogjan","state":"Gjakovës","country":"Kosovo","latitude":42.5063238,"longitude":20.3631128,"population":984}, 
{"name":"Fushticë e Epërme","state":"Prishtinës","country":"Kosovo","latitude":42.5555708,"longitude":20.9476858,"population":984}, 
{"name":"Prelez i Muhaxherëve","state":"Ferizajt","country":"Kosovo","latitude":42.4343935,"longitude":21.1662872,"population":982}, 
{"name":"Llaushë","state":"Prishtinës","country":"Kosovo","latitude":42.96872,"longitude":21.20216,"population":980}, 
{"name":"Rakaj","state":"Ferizajt","country":"Kosovo","latitude":42.2956121,"longitude":21.1915321,"population":976}, 
{"name":"Mogillë","state":"Gjilanit","country":"Kosovo","latitude":42.3412265,"longitude":21.3928048,"population":974}, 
{"name":"Pasjan","state":"Gjilanit","country":"Kosovo","latitude":42.4059348,"longitude":21.4962974,"population":974}, 
{"name":"Korroticë e Ulët","state":"Prishtinës","country":"Kosovo","latitude":42.6043099,"longitude":20.8999865,"population":972}, 
{"name":"Shkarashnik","state":"Prizrenit","country":"Kosovo","latitude":42.5220266,"longitude":20.7747108,"population":971}, 
{"name":"Ponesh","state":"Gjilanit","country":"Kosovo","latitude":42.4840047,"longitude":21.3770896,"population":967}, 
{"name":"Druar","state":"Mitrovicës","country":"Kosovo","latitude":42.7570488,"longitude":20.9782004,"population":965}, 
{"name":"Siboc","state":"Prishtinës","country":"Kosovo","latitude":42.6875802,"longitude":21.0096445,"population":963}, 
{"name":"Siboc i Epërm","state":"Prishtinës","country":"Kosovo","latitude":42.85185,"longitude":21.19047,"population":961}, 
{"name":"Glloboçicë","state":"Prizrenit","country":"Kosovo","latitude":42.0053546,"longitude":20.6261557,"population":960}, 
{"name":"Vranoc","state":"Pejës","country":"Kosovo","latitude":42.5612596,"longitude":20.4191154,"population":959}, 
{"name":"Sinidol","state":"Prishtinës","country":"Kosovo","latitude":42.7046326,"longitude":21.1643388,"population":959}, 
{"name":"Vinarc i Poshtëm","state":"Mitrovicës","country":"Kosovo","latitude":42.8732563,"longitude":20.8152729,"population":959}, 
{"name":"Doganaj","state":"Ferizajt","country":"Kosovo","latitude":42.2705778,"longitude":21.187064,"population":957}, 
{"name":"Batushë","state":"Gjakovës","country":"Kosovo","latitude":42.4525888,"longitude":20.2639977,"population":957}, 
{"name":"Cërnillë","state":"Ferizajt","country":"Kosovo","latitude":42.4578838,"longitude":21.1982461,"population":957}, 
{"name":"Qylagë","state":"Prishtinës","country":"Kosovo","latitude":42.5334039,"longitude":21.0235082,"population":957}, 
{"name":"Reçan","state":"Prizrenit","country":"Kosovo","latitude":42.1735235,"longitude":20.8182231,"population":951}, 
{"name":"Lutogllavë","state":"Pejës","country":"Kosovo","latitude":42.6614941,"longitude":20.4188213,"population":951}, 
{"name":"Bellobradë","state":"Prizrenit","country":"Kosovo","latitude":42.1187575,"longitude":20.6827389,"population":948}, 
{"name":"Çallapek","state":"Pejës","country":"Kosovo","latitude":42.5752902,"longitude":20.4424986,"population":947}, 
{"name":"Leçinë","state":"Mitrovicës","country":"Kosovo","latitude":42.7729464,"longitude":20.6588912,"population":941}, 
{"name":"Karaçevë e Poshtme","state":"Gjilanit","country":"Kosovo","latitude":42.5615835,"longitude":21.7249491,"population":940}, 
{"name":"Krushë e Vogël","state":"Prizrenit","country":"Kosovo","latitude":42.306683,"longitude":20.6510305,"population":937}, 
{"name":"Harilaç","state":"Prishtinës","country":"Kosovo","latitude":42.5836103,"longitude":21.0006264,"population":936}, 
{"name":"Shtuticë","state":"Prishtinës","country":"Kosovo","latitude":42.6989306,"longitude":20.8504869,"population":934}, 
{"name":"Volljak","state":"Pejës","country":"Kosovo","latitude":42.5452915,"longitude":20.5853296,"population":929}, 
{"name":"Baran","state":"Pejës","country":"Kosovo","latitude":42.5758588,"longitude":20.4189189,"population":927}, 
{"name":"Revuq","state":"Prishtinës","country":"Kosovo","latitude":42.8328932,"longitude":21.1577066,"population":924}, 
{"name":"Kosavë","state":"Prizrenit","country":"Kosovo","latitude":42.0917107,"longitude":20.6985749,"population":905}, 
{"name":"Trubuhoc","state":"Pejës","country":"Kosovo","latitude":42.6899272,"longitude":20.4543534,"population":904}, 
{"name":"Doblibarë","state":"Gjakovës","country":"Kosovo","latitude":42.425,"longitude":20.5022157,"population":902}, 
{"name":"Zborc","state":"Ferizajt","country":"Kosovo","latitude":42.4750766,"longitude":21.0012363,"population":901}, 
{"name":"Budrikë e Epërme","state":"Gjilanit","country":"Kosovo","latitude":42.3730655,"longitude":21.4179292,"population":899}, 
{"name":"Klinë e Mesme","state":"Mitrovicës","country":"Kosovo","latitude":42.7709888,"longitude":20.7894967,"population":897}, 
{"name":"Vërshec","state":"Prishtinës","country":"Kosovo","latitude":42.5220888,"longitude":21.007013,"population":896}, 
{"name":"Ramjan","state":"Gjilanit","country":"Kosovo","latitude":42.3783169,"longitude":21.3129811,"population":895}, 
{"name":"Suhogërllë","state":"Pejës","country":"Kosovo","latitude":42.820002,"longitude":20.6455094,"population":895}, 
{"name":"Lubozhdë","state":"Pejës","country":"Kosovo","latitude":42.774594,"longitude":20.438192,"population":893}, 
{"name":"Llapllasellë","state":"Prishtinës","country":"Kosovo","latitude":42.5963994,"longitude":21.1410738,"population":892}, 
{"name":"Banjskë","state":"Mitrovicës","country":"Kosovo","latitude":42.8588482,"longitude":20.9537201,"population":891}, 
{"name":"Kufcë e Epërme","state":"Prishtinës","country":"Kosovo","latitude":42.4966976,"longitude":21.4822459,"population":890}, 
{"name":"Gërmovë","state":"Gjilanit","country":"Kosovo","latitude":42.318768,"longitude":21.3158608,"population":886}, 
{"name":"Zgatar","state":"Prizrenit","country":"Kosovo","latitude":42.1292526,"longitude":20.709248,"population":885}, 
{"name":"Grazhdanik","state":"Prizrenit","country":"Kosovo","latitude":42.2153432,"longitude":20.6640834,"population":884}, 
{"name":"Kabash i Hasit","state":"Prizrenit","country":"Kosovo","latitude":42.2724452,"longitude":20.5553639,"population":882}, 
{"name":"Llabjan","state":"Prishtinës","country":"Kosovo","latitude":42.5713512,"longitude":21.3431579,"population":875}, 
{"name":"Kunushec","state":"Prishtinës","country":"Kosovo","latitude":42.85373,"longitude":21.16711,"population":873}, 
{"name":"Dol","state":"Gjakovës","country":"Kosovo","latitude":42.3343352,"longitude":20.4685057,"population":872}, 
{"name":"Rakosh","state":"Pejës","country":"Kosovo","latitude":42.7864333,"longitude":20.6089345,"population":872}, 
{"name":"Tërnjë","state":"Prizrenit","country":"Kosovo","latitude":42.3299979,"longitude":20.765547,"population":871}, 
{"name":"Rixhevë","state":"Pejës","country":"Kosovo","latitude":42.5801134,"longitude":20.6995744,"population":870}, 
{"name":"Stroc","state":"Mitrovicës","country":"Kosovo","latitude":42.717786,"longitude":20.9869372,"population":865}, 
{"name":"Çabiq","state":"Pejës","country":"Kosovo","latitude":42.5963697,"longitude":20.7150963,"population":862}, 
{"name":"Lipovec","state":"Gjakovës","country":"Kosovo","latitude":42.3114033,"longitude":20.4762328,"population":860}, 
{"name":"Krushevë","state":"Prizrenit","country":"Kosovo","latitude":41.9794113,"longitude":20.6384132,"population":857}, 
{"name":"Rapçë","state":"Prizrenit","country":"Kosovo","latitude":42.088008,"longitude":20.6164322,"population":853}, 
{"name":"Tërnavë","state":"Prishtinës","country":"Kosovo","latitude":42.8015734,"longitude":21.2027063,"population":853}, 
{"name":"Kuklibeg","state":"Prizrenit","country":"Kosovo","latitude":42.1055473,"longitude":20.7225311,"population":852}, 
{"name":"Temeçinë","state":"Prizrenit","country":"Kosovo","latitude":42.4391625,"longitude":20.8331277,"population":851}, 
{"name":"Caparc","state":"Prizrenit","country":"Kosovo","latitude":42.2867218,"longitude":20.7686701,"population":848}, 
{"name":"Ranillug","state":"Gjilanit","country":"Kosovo","latitude":42.4921192,"longitude":21.5987265,"population":844}, 
{"name":"Orllan","state":"Prishtinës","country":"Kosovo","latitude":42.8174474,"longitude":21.3432797,"population":844}, 
{"name":"Hereç","state":"Gjakovës","country":"Kosovo","latitude":42.462931,"longitude":20.3548384,"population":843}, 
{"name":"Gradicë","state":"Prishtinës","country":"Kosovo","latitude":42.7063147,"longitude":20.9376953,"population":842}, 
{"name":"Pestovë","state":"Mitrovicës","country":"Kosovo","latitude":42.7843657,"longitude":21.0007692,"population":842}, 
{"name":"Barë","state":"Mitrovicës","country":"Kosovo","latitude":42.9534512,"longitude":20.9689053,"population":841}, 
{"name":"Vrajakë","state":"Gjakovës","country":"Kosovo","latitude":42.4158324,"longitude":20.573507,"population":838}, 
{"name":"Kaliçan","state":"Pejës","country":"Kosovo","latitude":42.759492,"longitude":20.3544111,"population":835}, 
{"name":"Kliçinë","state":"Pejës","country":"Kosovo","latitude":42.6219599,"longitude":20.457845,"population":833}, 
{"name":"Zojz","state":"Prizrenit","country":"Kosovo","latitude":42.2981017,"longitude":20.6989923,"population":828}, 
{"name":"Jabllanicë e Madhe","state":"Pejës","country":"Kosovo","latitude":42.7594242,"longitude":20.3174121,"population":827}, 
{"name":"Beleg","state":"Gjakovës","country":"Kosovo","latitude":42.5346247,"longitude":20.3160888,"population":826}, 
{"name":"Kosuriq","state":"Pejës","country":"Kosovo","latitude":42.5699282,"longitude":20.4657,"population":823}, 
{"name":"Lubeniq","state":"Pejës","country":"Kosovo","latitude":42.5967691,"longitude":20.2921484,"population":823}, 
{"name":"Lladoc","state":"Prishtinës","country":"Kosovo","latitude":42.88098,"longitude":21.24745,"population":821}, 
{"name":"Guriq","state":"Prizrenit","country":"Kosovo","latitude":42.4347212,"longitude":20.754414,"population":816}, 
{"name":"Busi","state":"Prishtinës","country":"Kosovo","latitude":42.6409182,"longitude":21.3095957,"population":814}, 
{"name":"Belincë","state":"Ferizajt","country":"Kosovo","latitude":42.4422459,"longitude":21.0103976,"population":809}, 
{"name":"Polluzhë","state":"Gjakovës","country":"Kosovo","latitude":42.455329,"longitude":20.5648058,"population":808}, 
{"name":"Kodrali","state":"Gjakovës","country":"Kosovo","latitude":42.5309299,"longitude":20.338084,"population":808}, 
{"name":"Busovatë","state":"Gjilanit","country":"Kosovo","latitude":42.5660819,"longitude":21.5299912,"population":804}, 
{"name":"Qerim","state":"Gjakovës","country":"Kosovo","latitude":42.4061627,"longitude":20.4364355,"population":802}, 
{"name":"Gushicë","state":"Gjilanit","country":"Kosovo","latitude":42.3067315,"longitude":21.3035129,"population":801}, 
{"name":"Dabidol","state":"Gjakovës","country":"Kosovo","latitude":42.4418311,"longitude":20.533749,"population":799}, 
{"name":"Kërnicë","state":"Pejës","country":"Kosovo","latitude":42.6540358,"longitude":20.6220098,"population":794}, 
{"name":"Neprebisht","state":"Prizrenit","country":"Kosovo","latitude":42.3417432,"longitude":20.7395595,"population":792}, 
{"name":"Zasellë","state":"Mitrovicës","country":"Kosovo","latitude":42.89584,"longitude":20.9003154,"population":791}, 
{"name":"Kërvasari","state":"Prizrenit","country":"Kosovo","latitude":42.4367914,"longitude":20.7768572,"population":790}, 
{"name":"Suhodoll i Poshtëm","state":"Mitrovicës","country":"Kosovo","latitude":42.8867381,"longitude":20.8480123,"population":789}, 
{"name":"Shkozë","state":"Prizrenit","country":"Kosovo","latitude":42.1654396,"longitude":20.5929701,"population":788}, 
{"name":"Shtitaricë","state":"Mitrovicës","country":"Kosovo","latitude":42.8230947,"longitude":20.9210984,"population":788}, 
{"name":"Mirushë","state":"Prizrenit","country":"Kosovo","latitude":42.4967604,"longitude":20.7141502,"population":787}, 
{"name":"Dalak","state":"Mitrovicës","country":"Kosovo","latitude":42.8170376,"longitude":20.9328437,"population":786}, 
{"name":"Uçë","state":"Pejës","country":"Kosovo","latitude":42.8178406,"longitude":20.6076645,"population":786}, 
{"name":"Leshtan","state":"Prizrenit","country":"Kosovo","latitude":42.0450615,"longitude":20.6828884,"population":783}, 
{"name":"Sazli","state":"Ferizajt","country":"Kosovo","latitude":42.4073365,"longitude":21.1838588,"population":782}, 
{"name":"Nikaj","state":"Ferizajt","country":"Kosovo","latitude":42.2553048,"longitude":21.2169446,"population":778}, 
{"name":"Studime e Poshtme","state":"Mitrovicës","country":"Kosovo","latitude":42.8248657,"longitude":21.0046252,"population":777}, 
{"name":"Rakinicë","state":"Mitrovicës","country":"Kosovo","latitude":42.7341936,"longitude":20.7273139,"population":774}, 
{"name":"Lubovishtë","state":"Prizrenit","country":"Kosovo","latitude":42.0556526,"longitude":20.6630834,"population":773}, 
{"name":"Bllagajë","state":"Pejës","country":"Kosovo","latitude":42.6676005,"longitude":20.3583803,"population":773}, 
{"name":"Reti","state":"Gjakovës","country":"Kosovo","latitude":42.3517882,"longitude":20.7013985,"population":771}, 
{"name":"Shtupel","state":"Pejës","country":"Kosovo","latitude":42.6639826,"longitude":20.592197,"population":771}, 
{"name":"Tërstenik","state":"Gjilanit","country":"Kosovo","latitude":42.3462047,"longitude":21.2553023,"population":769}, 
{"name":"Tomoc","state":"Pejës","country":"Kosovo","latitude":42.7412624,"longitude":20.4743589,"population":765}, 
{"name":"Ropicë","state":"Mitrovicës","country":"Kosovo","latitude":42.8057143,"longitude":21.0343822,"population":763}, 
{"name":"Rashiq","state":"Pejës","country":"Kosovo","latitude":42.5741081,"longitude":20.3759101,"population":759}, 
{"name":"Lismir","state":"Prishtinës","country":"Kosovo","latitude":42.6412633,"longitude":21.0606593,"population":758}, 
{"name":"Lluzhan","state":"Prishtinës","country":"Kosovo","latitude":42.82221,"longitude":21.16755,"population":757}, 
{"name":"Kërpimeh","state":"Prishtinës","country":"Kosovo","latitude":42.99168,"longitude":21.14259,"population":755}, 
{"name":"Lubavec","state":"Mitrovicës","country":"Kosovo","latitude":42.7965703,"longitude":20.8488728,"population":754}, 
{"name":"Dubravë","state":"Prizrenit","country":"Kosovo","latitude":42.3209252,"longitude":20.8502459,"population":753}, 
{"name":"Shipashnicë e Poshtme","state":"Gjilanit","country":"Kosovo","latitude":42.5765193,"longitude":21.655974,"population":753}, 
{"name":"Pomazatin","state":"Prishtinës","country":"Kosovo","latitude":42.6211928,"longitude":21.029873,"population":748}, 
{"name":"Henc","state":"Prishtinës","country":"Kosovo","latitude":42.5897929,"longitude":21.0458293,"population":747}, 
{"name":"Gjurgjevik i Vogël","state":"Pejës","country":"Kosovo","latitude":42.644692,"longitude":20.5880899,"population":745}, 
{"name":"Davidoc","state":"Ferizajt","country":"Kosovo","latitude":42.4476847,"longitude":21.0638119,"population":744}, 
{"name":"Pasomë","state":"Mitrovicës","country":"Kosovo","latitude":42.8847431,"longitude":20.9567285,"population":744}, 
{"name":"Nagac","state":"Gjakovës","country":"Kosovo","latitude":42.3381937,"longitude":20.6437361,"population":743}, 
{"name":"Malësi e Re","state":"Prizrenit","country":"Kosovo","latitude":42.2814874,"longitude":20.7957039,"population":742}, 
{"name":"Hërticë","state":"Prishtinës","country":"Kosovo","latitude":42.87137,"longitude":21.29001,"population":741}, 
{"name":"Prapaqan","state":"Gjakovës","country":"Kosovo","latitude":42.5531452,"longitude":20.3307006,"population":740}, 
{"name":"Caravodicë","state":"Prishtinës","country":"Kosovo","latitude":42.6715437,"longitude":21.0539297,"population":733}, 
{"name":"Plluzhinë","state":"Mitrovicës","country":"Kosovo","latitude":42.6619658,"longitude":20.7503235,"population":732}, 
{"name":"Lubovë","state":"Pejës","country":"Kosovo","latitude":42.7362357,"longitude":20.3998971,"population":732}, 
{"name":"Pakashticë e Epërme","state":"Prishtinës","country":"Kosovo","latitude":42.99771,"longitude":21.11877,"population":732}, 
{"name":"Petkoviq","state":"Gjakovës","country":"Kosovo","latitude":42.4753305,"longitude":20.557822,"population":731}, 
{"name":"Kovragë","state":"Pejës","country":"Kosovo","latitude":42.7464544,"longitude":20.5195817,"population":731}, 
{"name":"Bivolak","state":"Mitrovicës","country":"Kosovo","latitude":42.7150539,"longitude":21.0083677,"population":730}, 
{"name":"Grabanicë","state":"Pejës","country":"Kosovo","latitude":42.5866753,"longitude":20.5378215,"population":728}, 
{"name":"Zabërgjë","state":"Pejës","country":"Kosovo","latitude":42.5956735,"longitude":20.7062381,"population":728}, 
{"name":"Ruboc","state":"Prishtinës","country":"Kosovo","latitude":42.4699684,"longitude":21.1467364,"population":723}, 
{"name":"Gushtericë e Ulët","state":"Prishtinës","country":"Kosovo","latitude":42.546363,"longitude":21.181354,"population":723}, 
{"name":"Çagllavicë","state":"Prishtinës","country":"Kosovo","latitude":42.6174282,"longitude":21.1489188,"population":723}, 
{"name":"Poturoc","state":"Prishtinës","country":"Kosovo","latitude":42.5274956,"longitude":21.0435606,"population":720}, 
{"name":"Lumbardh","state":"Gjakovës","country":"Kosovo","latitude":42.5471956,"longitude":20.3463379,"population":717}, 
{"name":"Plloçicë","state":"Prizrenit","country":"Kosovo","latitude":42.5897343,"longitude":20.7618316,"population":716}, 
{"name":"Dujakë","state":"Gjakovës","country":"Kosovo","latitude":42.4554645,"longitude":20.3719449,"population":715}, 
{"name":"Brezhanik","state":"Pejës","country":"Kosovo","latitude":42.6441655,"longitude":20.3354324,"population":715}, 
{"name":"Jabllanicë e Vogël","state":"Pejës","country":"Kosovo","latitude":42.7514916,"longitude":20.337218,"population":715}, 
{"name":"Loxhë","state":"Pejës","country":"Kosovo","latitude":42.6304146,"longitude":20.3249589,"population":708}, 
{"name":"Domanek","state":"Prishtinës","country":"Kosovo","latitude":42.6146421,"longitude":20.8529405,"population":706}, 
{"name":"Resinoc","state":"Prishtinës","country":"Kosovo","latitude":42.5222051,"longitude":20.935284,"population":703}, 
{"name":"Leshkoshiq","state":"Prishtinës","country":"Kosovo","latitude":42.6844976,"longitude":21.031188,"population":703}, 
{"name":"Llugagji","state":"Pejës","country":"Kosovo","latitude":42.6330933,"longitude":20.4390475,"population":702}, 
{"name":"Kishnicë","state":"Prishtinës","country":"Kosovo","latitude":42.6007721,"longitude":21.2187881,"population":700}, 
{"name":"Trestenik","state":"Pejës","country":"Kosovo","latitude":42.6759565,"longitude":20.456079,"population":700}, 
{"name":"Akllap","state":"Prishtinës","country":"Kosovo","latitude":42.5407162,"longitude":21.2531739,"population":699}, 
{"name":"Runjevë","state":"Ferizajt","country":"Kosovo","latitude":42.2449217,"longitude":21.253822,"population":698}, 
{"name":"Pavlan","state":"Pejës","country":"Kosovo","latitude":42.6562439,"longitude":20.3607274,"population":697}, 
{"name":"Trudë","state":"Prishtinës","country":"Kosovo","latitude":42.7307839,"longitude":21.1455421,"population":694}, 
{"name":"Besi","state":"Prishtinës","country":"Kosovo","latitude":42.7538518,"longitude":21.1460614,"population":694}, 
{"name":"Makërmal","state":"Mitrovicës","country":"Kosovo","latitude":42.6820602,"longitude":20.8052146,"population":692}, 
{"name":"Novosellë e Epërme","state":"Gjakovës","country":"Kosovo","latitude":42.4605261,"longitude":20.3914194,"population":691}, 
{"name":"Kmetoc","state":"Gjilanit","country":"Kosovo","latitude":42.4906975,"longitude":21.5249256,"population":691}, 
{"name":"Senoc","state":"Gjakovës","country":"Kosovo","latitude":42.4469893,"longitude":20.6002314,"population":687}, 
{"name":"Muhoc","state":"Ferizajt","country":"Kosovo","latitude":42.3946603,"longitude":21.1500705,"population":686}, 
{"name":"Pouskë","state":"Prizrenit","country":"Kosovo","latitude":42.1942262,"longitude":20.763189,"population":684}, 
{"name":"Breg i Madh","state":"Mitrovicës","country":"Kosovo","latitude":42.9319523,"longitude":20.6773208,"population":682}, 
{"name":"Pllanejë","state":"Prizrenit","country":"Kosovo","latitude":42.2099719,"longitude":20.5757821,"population":681}, 
{"name":"Buçan","state":"Pejës","country":"Kosovo","latitude":42.5591776,"longitude":20.4536189,"population":677}, 
{"name":"Sërbicë e Poshtme","state":"Prizrenit","country":"Kosovo","latitude":42.2872449,"longitude":20.6985349,"population":674}, 
{"name":"Kostërc","state":"Mitrovicës","country":"Kosovo","latitude":42.7730419,"longitude":20.6909419,"population":669}, 
{"name":"Hallaç i Vogël","state":"Prishtinës","country":"Kosovo","latitude":42.5195665,"longitude":21.0975263,"population":664}, 
{"name":"Videjë","state":"Pejës","country":"Kosovo","latitude":42.623865,"longitude":20.5494677,"population":663}, 
{"name":"Vërmicë","state":"Prizrenit","country":"Kosovo","latitude":42.1617815,"longitude":20.5665837,"population":661}, 
{"name":"Gexhë","state":"Gjakovës","country":"Kosovo","latitude":42.3634347,"longitude":20.5451013,"population":660}, 
{"name":"Zllakuqan","state":"Pejës","country":"Kosovo","latitude":42.6637126,"longitude":20.5420885,"population":660}, 
{"name":"Zoçishtë","state":"Gjakovës","country":"Kosovo","latitude":42.3748618,"longitude":20.7020548,"population":659}, 
{"name":"Dumnicë e Llugave","state":"Mitrovicës","country":"Kosovo","latitude":42.8000082,"longitude":21.075614,"population":656}, 
{"name":"Nivokaz","state":"Gjakovës","country":"Kosovo","latitude":42.4413425,"longitude":20.2894516,"population":654}, 
{"name":"Rekë","state":"Ferizajt","country":"Kosovo","latitude":42.2596599,"longitude":21.2107242,"population":652}, 
{"name":"Duraj","state":"Ferizajt","country":"Kosovo","latitude":42.281364,"longitude":21.1750953,"population":651}, 
{"name":"Dubovë","state":"Pejës","country":"Kosovo","latitude":42.7127437,"longitude":20.3649398,"population":650}, 
{"name":"Tërnac","state":"Mitrovicës","country":"Kosovo","latitude":42.8102505,"longitude":20.7996781,"population":650}, 
{"name":"Rudar i Vogël","state":"Mitrovicës","country":"Kosovo","latitude":42.9099772,"longitude":20.8598761,"population":650}, 
{"name":"Buçë","state":"Prizrenit","country":"Kosovo","latitude":42.1122754,"longitude":20.6366981,"population":645}, 
{"name":"Zaskok","state":"Ferizajt","country":"Kosovo","latitude":42.3478412,"longitude":21.1375954,"population":643}, 
{"name":"Mikushnicë","state":"Mitrovicës","country":"Kosovo","latitude":42.7682453,"longitude":20.8429783,"population":643}, 
{"name":"Marmull","state":"Gjakovës","country":"Kosovo","latitude":42.3752094,"longitude":20.5096927,"population":641}, 
{"name":"Raskovë","state":"Prishtinës","country":"Kosovo","latitude":42.7270017,"longitude":21.0962659,"population":640}, 
{"name":"Bujan","state":"Prishtinës","country":"Kosovo","latitude":42.483986,"longitude":21.0772794,"population":638}, 
{"name":"Lushtë","state":"Mitrovicës","country":"Kosovo","latitude":42.8525827,"longitude":20.8325807,"population":637}, 
{"name":"Bubël","state":"Prizrenit","country":"Kosovo","latitude":42.5242624,"longitude":20.651114,"population":636}, 
{"name":"Ropotovë e Madhe","state":"Gjilanit","country":"Kosovo","latitude":42.5143147,"longitude":21.5644579,"population":634}, 
{"name":"Kotradiq","state":"Pejës","country":"Kosovo","latitude":42.5617045,"longitude":20.4023135,"population":634}, 
{"name":"Vasilevë","state":"Prishtinës","country":"Kosovo","latitude":42.6304091,"longitude":20.9379368,"population":634}, 
{"name":"Llabjan","state":"Pejës","country":"Kosovo","latitude":42.65566,"longitude":20.3938061,"population":633}, 
{"name":"Ballancë","state":"Gjilanit","country":"Kosovo","latitude":42.4120597,"longitude":21.3647021,"population":631}, 
{"name":"Pustenik","state":"Ferizajt","country":"Kosovo","latitude":42.1621286,"longitude":21.2636057,"population":629}, 
{"name":"Konjuh","state":"Prishtinës","country":"Kosovo","latitude":42.5394477,"longitude":21.1400963,"population":628}, 
{"name":"Katundi i Ri","state":"Pejës","country":"Kosovo","latitude":42.6790139,"longitude":20.3328289,"population":628}, 
{"name":"Muzhevinë","state":"Pejës","country":"Kosovo","latitude":42.7639255,"longitude":20.4856223,"population":626}, 
{"name":"Molliq","state":"Gjakovës","country":"Kosovo","latitude":42.4398109,"longitude":20.2718297,"population":624}, 
{"name":"Dobratin","state":"Prishtinës","country":"Kosovo","latitude":42.5287912,"longitude":21.1836727,"population":623}, 
{"name":"Halabak","state":"Prishtinës","country":"Kosovo","latitude":42.7939293,"longitude":21.2207415,"population":623}, 
{"name":"Këpuz","state":"Pejës","country":"Kosovo","latitude":42.5431502,"longitude":20.5385826,"population":622}, 
{"name":"Dedaj","state":"Prizrenit","country":"Kosovo","latitude":42.2839114,"longitude":20.5699146,"population":619}, 
{"name":"Shakovicë","state":"Prishtinës","country":"Kosovo","latitude":42.81569,"longitude":21.16914,"population":619}, 
{"name":"Joviq","state":"Prizrenit","country":"Kosovo","latitude":42.4744562,"longitude":20.7009873,"population":617}, 
{"name":"Plançor","state":"Gjakovës","country":"Kosovo","latitude":42.4470545,"longitude":20.3623714,"population":613}, 
{"name":"Vërmicë","state":"Mitrovicës","country":"Kosovo","latitude":42.7881005,"longitude":20.9664322,"population":612}, 
{"name":"Zlipotok","state":"Prizrenit","country":"Kosovo","latitude":41.9777154,"longitude":20.6610005,"population":610}, 
{"name":"Zhiti","state":"Gjilanit","country":"Kosovo","latitude":42.4019091,"longitude":21.3730254,"population":603}, 
{"name":"Bakshi","state":"Prishtinës","country":"Kosovo","latitude":42.7233604,"longitude":21.1048919,"population":602}, 
{"name":"Likoshan","state":"Prishtinës","country":"Kosovo","latitude":42.6985039,"longitude":20.896849,"population":600}, 
{"name":"Kopiliq i Epërm","state":"Mitrovicës","country":"Kosovo","latitude":42.7170135,"longitude":20.6964966,"population":599}, 
{"name":"Sllatinë e Vogël","state":"Prishtinës","country":"Kosovo","latitude":42.6052677,"longitude":21.0280934,"population":598}, 
{"name":"Llozhan","state":"Pejës","country":"Kosovo","latitude":42.6201185,"longitude":20.3650635,"population":597}, 
{"name":"Istog i Poshtëm","state":"Pejës","country":"Kosovo","latitude":42.773162,"longitude":20.499389,"population":597}, 
{"name":"Ivajë","state":"Ferizajt","country":"Kosovo","latitude":42.1947262,"longitude":21.2323956,"population":596}, 
{"name":"Babaj i Bokës","state":"Gjakovës","country":"Kosovo","latitude":42.3591799,"longitude":20.3347553,"population":595}, 
{"name":"Rimanishtë","state":"Prishtinës","country":"Kosovo","latitude":42.7672207,"longitude":21.1985602,"population":595}, 
{"name":"Shaptej","state":"Gjakovës","country":"Kosovo","latitude":42.4990962,"longitude":20.3777399,"population":591}, 
{"name":"Drenoc","state":"Prishtinës","country":"Kosovo","latitude":42.744014,"longitude":21.1090103,"population":590}, 
{"name":"Llugë","state":"Pejës","country":"Kosovo","latitude":42.7510934,"longitude":20.4562863,"population":589}, 
{"name":"Torinë","state":"Prishtinës","country":"Kosovo","latitude":42.527165,"longitude":21.0597082,"population":588}, 
{"name":"Gojbulë","state":"Mitrovicës","country":"Kosovo","latitude":42.8497648,"longitude":20.9910208,"population":588}, 
{"name":"Krilevë","state":"Gjilanit","country":"Kosovo","latitude":42.6770548,"longitude":21.4630543,"population":586}, 
{"name":"Zym","state":"Prizrenit","country":"Kosovo","latitude":42.113253,"longitude":20.6661809,"population":585}, 
{"name":"Ponoshec","state":"Gjakovës","country":"Kosovo","latitude":42.4072232,"longitude":20.2842725,"population":585}, 
{"name":"Krushevë e Madhe","state":"Pejës","country":"Kosovo","latitude":42.6624635,"longitude":20.5204439,"population":585}, 
{"name":"Vërbicë e Zhegocit","state":"Gjilanit","country":"Kosovo","latitude":42.5389543,"longitude":21.3212061,"population":584}, 
{"name":"Rrenc","state":"Prizrenit","country":"Kosovo","latitude":42.0900198,"longitude":20.6614794,"population":581}, 
{"name":"Carrallukë","state":"Pejës","country":"Kosovo","latitude":42.720724,"longitude":20.4023904,"population":581}, 
{"name":"Nebregoshtë","state":"Prizrenit","country":"Kosovo","latitude":42.1504236,"longitude":20.8259117,"population":579}, 
{"name":"Qupevë","state":"Pejës","country":"Kosovo","latitude":42.5724883,"longitude":20.5692355,"population":579}, 
{"name":"Gajrë","state":"Ferizajt","country":"Kosovo","latitude":42.2043384,"longitude":21.2465595,"population":574}, 
{"name":"Nakëll","state":"Pejës","country":"Kosovo","latitude":42.6677156,"longitude":20.379528,"population":574}, 
{"name":"Jabllanicë","state":"Pejës","country":"Kosovo","latitude":42.6173711,"longitude":20.4699379,"population":573}, 
{"name":"Dyz","state":"Prishtinës","country":"Kosovo","latitude":42.8023587,"longitude":21.2493022,"population":573}, 
{"name":"Prigodë","state":"Pejës","country":"Kosovo","latitude":42.75316,"longitude":20.429044,"population":571}, 
{"name":"Voksh","state":"Gjakovës","country":"Kosovo","latitude":42.5092182,"longitude":20.2725315,"population":570}, 
{"name":"Gorazhdec","state":"Pejës","country":"Kosovo","latitude":42.6406821,"longitude":20.36991,"population":570}, 
{"name":"Dobrosh","state":"Gjakovës","country":"Kosovo","latitude":42.4409606,"longitude":20.3119056,"population":568}, 
{"name":"Svinjarë","state":"Mitrovicës","country":"Kosovo","latitude":42.8506067,"longitude":20.8908089,"population":567}, 
{"name":"Brovinë","state":"Gjakovës","country":"Kosovo","latitude":42.4293111,"longitude":20.2771513,"population":565}, 
{"name":"Zabel i Epërm","state":"Prishtinës","country":"Kosovo","latitude":42.5813649,"longitude":20.9224825,"population":565}, 
{"name":"Dubravë","state":"Ferizajt","country":"Kosovo","latitude":42.254697,"longitude":21.1963866,"population":564}, 
{"name":"Pjetërq i Epërm","state":"Pejës","country":"Kosovo","latitude":42.6093658,"longitude":20.4858198,"population":563}, 
{"name":"Marinë","state":"Mitrovicës","country":"Kosovo","latitude":42.7040703,"longitude":20.819963,"population":562}, 
{"name":"Rakovinë","state":"Gjakovës","country":"Kosovo","latitude":42.4899629,"longitude":20.510012,"population":561}, 
{"name":"Ratish i Ulët","state":"Gjakovës","country":"Kosovo","latitude":42.5202243,"longitude":20.390306,"population":560}, 
{"name":"Broliq","state":"Pejës","country":"Kosovo","latitude":42.555103,"longitude":20.3581889,"population":559}, 
{"name":"Lukinaj","state":"Prizrenit","country":"Kosovo","latitude":42.2959114,"longitude":20.613388,"population":558}, 
{"name":"Prelluzhë","state":"Mitrovicës","country":"Kosovo","latitude":42.7339853,"longitude":21.0269388,"population":558}, 
{"name":"Turiçec","state":"Mitrovicës","country":"Kosovo","latitude":42.7052614,"longitude":20.705153,"population":557}, 
{"name":"Vitak","state":"Mitrovicës","country":"Kosovo","latitude":42.7676415,"longitude":20.7151205,"population":555}, 
{"name":"Greiçec","state":"Prizrenit","country":"Kosovo","latitude":42.4098855,"longitude":20.9384412,"population":554}, 
{"name":"Kollë","state":"Mitrovicës","country":"Kosovo","latitude":42.7698227,"longitude":20.9330124,"population":554}, 
{"name":"Jahoc","state":"Gjakovës","country":"Kosovo","latitude":42.3798931,"longitude":20.4045694,"population":553}, 
{"name":"Banjicë","state":"Pejës","country":"Kosovo","latitude":42.7160625,"longitude":20.3886599,"population":552}, 
{"name":"Golluboc","state":"Prizrenit","country":"Kosovo","latitude":42.6008537,"longitude":20.7844036,"population":551}, 
{"name":"Ozdrim","state":"Pejës","country":"Kosovo","latitude":42.7028873,"longitude":20.3781963,"population":551}, 
{"name":"Bërnicë e Poshtme","state":"Prishtinës","country":"Kosovo","latitude":42.7049916,"longitude":21.134805,"population":549}, 
{"name":"Devë","state":"Gjakovës","country":"Kosovo","latitude":42.3414192,"longitude":20.3583227,"population":547}, 
{"name":"Shillovë","state":"Gjilanit","country":"Kosovo","latitude":42.4780189,"longitude":21.4976741,"population":547}, 
{"name":"Kuçicë","state":"Mitrovicës","country":"Kosovo","latitude":42.8082778,"longitude":20.7733689,"population":547}, 
{"name":"Novosellë","state":"Gjilanit","country":"Kosovo","latitude":42.3829426,"longitude":21.3226015,"population":546}, 
{"name":"Lladovë","state":"Gjilanit","country":"Kosovo","latitude":42.3884582,"longitude":21.4762009,"population":545}, 
{"name":"Graboc","state":"Mitrovicës","country":"Kosovo","latitude":42.9331635,"longitude":20.8391404,"population":545}, 
{"name":"Gllavicë","state":"Ferizajt","country":"Kosovo","latitude":42.4294014,"longitude":21.0883507,"population":544}, 
{"name":"Ujmir","state":"Pejës","country":"Kosovo","latitude":42.6131233,"longitude":20.7028166,"population":544}, 
{"name":"Velikarekë","state":"Prishtinës","country":"Kosovo","latitude":42.91793,"longitude":21.12571,"population":544}, 
{"name":"Ticë","state":"Mitrovicës","country":"Kosovo","latitude":42.6706353,"longitude":20.755507,"population":543}, 
{"name":"Ribar i Vogël","state":"Prishtinës","country":"Kosovo","latitude":42.5152075,"longitude":21.0637952,"population":542}, 
{"name":"Shalë","state":"Mitrovicës","country":"Kosovo","latitude":42.7566672,"longitude":20.9468159,"population":541}, 
{"name":"Penduhë","state":"Prishtinës","country":"Kosovo","latitude":42.84286,"longitude":21.15529,"population":539}, 
{"name":"Kërninë","state":"Pejës","country":"Kosovo","latitude":42.7612449,"longitude":20.612227,"population":538}, 
{"name":"Zatriq","state":"Gjakovës","country":"Kosovo","latitude":42.4582973,"longitude":20.6259104,"population":535}, 
{"name":"Rudë","state":"Prizrenit","country":"Kosovo","latitude":42.5067819,"longitude":20.6115722,"population":535}, 
{"name":"Hade","state":"Prishtinës","country":"Kosovo","latitude":42.6661376,"longitude":21.0295494,"population":534}, 
{"name":"Pataçan i Epërm","state":"Gjakovës","country":"Kosovo","latitude":42.4085111,"longitude":20.6193809,"population":533}, 
{"name":"Novosellë e Ulët","state":"Gjakovës","country":"Kosovo","latitude":42.4425819,"longitude":20.4050037,"population":532}, 
{"name":"Koretishtë","state":"Prishtinës","country":"Kosovo","latitude":42.4847406,"longitude":21.4412425,"population":530}, 
{"name":"Qypevë","state":"Gjakovës","country":"Kosovo","latitude":42.4250236,"longitude":20.5797002,"population":525}, 
{"name":"Sfaraçak i Poshtëm","state":"Mitrovicës","country":"Kosovo","latitude":42.8053862,"longitude":21.0071411,"population":522}, 
{"name":"Buzovik","state":"Gjilanit","country":"Kosovo","latitude":42.2874952,"longitude":21.3932989,"population":521}, 
{"name":"Zherovnicë","state":"Mitrovicës","country":"Kosovo","latitude":42.9340921,"longitude":20.8001918,"population":520}, 
{"name":"Mirenë","state":"Prishtinës","country":"Kosovo","latitude":42.5568107,"longitude":20.9658546,"population":519}, 
{"name":"Lisicë","state":"Mitrovicës","country":"Kosovo","latitude":42.9073318,"longitude":20.8837092,"population":519}, 
{"name":"Çitak","state":"Mitrovicës","country":"Kosovo","latitude":42.7890653,"longitude":20.6616773,"population":518}, 
{"name":"Papaz","state":"Ferizajt","country":"Kosovo","latitude":42.4197349,"longitude":21.1895112,"population":516}, 
{"name":"Muradem","state":"Prizrenit","country":"Kosovo","latitude":42.1979398,"longitude":20.6415839,"population":515}, 
{"name":"Krushicë e Poshtme","state":"Prizrenit","country":"Kosovo","latitude":42.3602064,"longitude":20.8997634,"population":515}, 
{"name":"Shushicë","state":"Prishtinës","country":"Kosovo","latitude":42.5791371,"longitude":21.2095219,"population":515}, 
{"name":"Ruhot","state":"Pejës","country":"Kosovo","latitude":42.6779259,"longitude":20.4255581,"population":512}, 
{"name":"Pirç","state":"Mitrovicës","country":"Kosovo","latitude":42.8332611,"longitude":20.867662,"population":511}, 
{"name":"Kojushë","state":"Prizrenit","country":"Kosovo","latitude":42.2267031,"longitude":20.6127944,"population":509}, 
{"name":"Gllogoc","state":"Gjilanit","country":"Kosovo","latitude":42.485629,"longitude":21.5936991,"population":509}, 
{"name":"Preoc","state":"Prishtinës","country":"Kosovo","latitude":42.5975103,"longitude":21.1200534,"population":509}, 
{"name":"Rufc i Ri","state":"Prishtinës","country":"Kosovo","latitude":42.5221999,"longitude":21.0811376,"population":507}, 
{"name":"Llukë e Ulët","state":"Gjakovës","country":"Kosovo","latitude":42.545183,"longitude":20.3358963,"population":506}, 
{"name":"Sallabajë","state":"Prishtinës","country":"Kosovo","latitude":42.83276,"longitude":21.1577,"population":506}, 
{"name":"Kryshec","state":"Mitrovicës","country":"Kosovo","latitude":42.7208775,"longitude":20.8087781,"population":504}, 
{"name":"Shishman","state":"Gjakovës","country":"Kosovo","latitude":42.3794557,"longitude":20.3219369,"population":503}, 
{"name":"Zallq","state":"Pejës","country":"Kosovo","latitude":42.6952437,"longitude":20.5030162,"population":502}, 
{"name":"Izbicë","state":"Mitrovicës","country":"Kosovo","latitude":42.7335405,"longitude":20.6600679,"population":501}, 
{"name":"Lloqan","state":"Gjakovës","country":"Kosovo","latitude":42.5244728,"longitude":20.2808052,"population":499}, 
{"name":"Bardhaniq","state":"Gjakovës","country":"Kosovo","latitude":42.5259337,"longitude":20.447312,"population":498}, 
{"name":"Zhitkoc","state":"Mitrovicës","country":"Kosovo","latitude":42.9301654,"longitude":20.8239688,"population":497}, 
{"name":"Dumnicë e Epërme","state":"Prishtinës","country":"Kosovo","latitude":42.9954,"longitude":21.1951,"population":497}, 
{"name":"Softaj","state":"Ferizajt","country":"Kosovo","latitude":42.4022941,"longitude":21.201443,"population":496}, 
{"name":"Zhilivodë","state":"Mitrovicës","country":"Kosovo","latitude":42.6981902,"longitude":20.9900174,"population":496}, 
{"name":"Dobrushtë","state":"Prizrenit","country":"Kosovo","latitude":42.1806898,"longitude":20.5905097,"population":495}, 
{"name":"Elezaj","state":"Ferizajt","country":"Kosovo","latitude":42.2846441,"longitude":21.1839607,"population":495}, 
{"name":"Bardh i Vogël","state":"Prishtinës","country":"Kosovo","latitude":42.6113773,"longitude":21.0361539,"population":494}, 
{"name":"Kaçybeg","state":"Prishtinës","country":"Kosovo","latitude":42.83266,"longitude":21.20398,"population":494}, 
{"name":"Gabricë","state":"Ferizajt","country":"Kosovo","latitude":42.2824035,"longitude":21.1999893,"population":493}, 
{"name":"Smolicë","state":"Gjakovës","country":"Kosovo","latitude":42.3968045,"longitude":20.3132741,"population":493}, 
{"name":"Kashicë","state":"Pejës","country":"Kosovo","latitude":42.7066496,"longitude":20.4042942,"population":493}, 
{"name":"Duboc","state":"Mitrovicës","country":"Kosovo","latitude":42.7653975,"longitude":20.8953169,"population":493}, 
{"name":"Ramun","state":"Pejës","country":"Kosovo","latitude":42.6418727,"longitude":20.4038393,"population":492}, 
{"name":"Sllatinë","state":"Mitrovicës","country":"Kosovo","latitude":42.8545706,"longitude":20.9704927,"population":491}, 
{"name":"Oshlan","state":"Mitrovicës","country":"Kosovo","latitude":42.8086261,"longitude":20.8717502,"population":488}, 
{"name":"Bostan","state":"Prishtinës","country":"Kosovo","latitude":42.6012725,"longitude":21.4262035,"population":487}, 
{"name":"Beçuk","state":"Mitrovicës","country":"Kosovo","latitude":42.7233122,"longitude":20.9762047,"population":487}, 
{"name":"Keçekollë","state":"Prishtinës","country":"Kosovo","latitude":42.7411351,"longitude":21.3352368,"population":484}, 
{"name":"Repë","state":"Prishtinës","country":"Kosovo","latitude":43.0314747,"longitude":21.1236026,"population":484}, 
{"name":"Zllapek","state":"Pejës","country":"Kosovo","latitude":42.6118617,"longitude":20.3479436,"population":483}, 
{"name":"Klinac","state":"Pejës","country":"Kosovo","latitude":42.6352691,"longitude":20.5975257,"population":480}, 
{"name":"Partesh","state":"Gjilanit","country":"Kosovo","latitude":42.4009001,"longitude":21.4333276,"population":478}, 
{"name":"Kozhicë","state":"Mitrovicës","country":"Kosovo","latitude":42.7301249,"longitude":20.908472,"population":478}, 
{"name":"Rezhancë","state":"Ferizajt","country":"Kosovo","latitude":42.146599,"longitude":21.2565732,"population":475}, 
{"name":"Bajnicë","state":"Ferizajt","country":"Kosovo","latitude":42.2889858,"longitude":21.1647865,"population":475}, 
{"name":"Gushac","state":"Mitrovicës","country":"Kosovo","latitude":42.8849403,"longitude":20.8239168,"population":475}, 
{"name":"Melenicë","state":"Mitrovicës","country":"Kosovo","latitude":42.9595216,"longitude":20.9260806,"population":475}, 
{"name":"Damanek","state":"Prizrenit","country":"Kosovo","latitude":42.5222741,"longitude":20.6755395,"population":474}, 
{"name":"Gumnishtë","state":"Gjilanit","country":"Kosovo","latitude":42.4597686,"longitude":21.3772832,"population":473}, 
{"name":"Kutlloc","state":"Mitrovicës","country":"Kosovo","latitude":42.9230321,"longitude":20.9104929,"population":473}, 
{"name":"Suhodoll","state":"Prishtinës","country":"Kosovo","latitude":42.5483465,"longitude":21.1061142,"population":470}, 
{"name":"Kozaricë","state":"Prishtinës","country":"Kosovo","latitude":42.7914244,"longitude":21.1162251,"population":469}, 
{"name":"Duzhnjë","state":"Gjakovës","country":"Kosovo","latitude":42.3702724,"longitude":20.3392223,"population":467}, 
{"name":"Koliq","state":"Prishtinës","country":"Kosovo","latitude":42.7733968,"longitude":21.2855364,"population":466}, 
{"name":"Grizimë","state":"Gjilanit","country":"Kosovo","latitude":42.6056787,"longitude":21.576878,"population":461}, 
{"name":"Velezhë","state":"Prizrenit","country":"Kosovo","latitude":42.2789295,"longitude":20.7414116,"population":460}, 
{"name":"Korenicë","state":"Gjakovës","country":"Kosovo","latitude":42.3737313,"longitude":20.3684693,"population":460}, 
{"name":"Tërpezë e Poshtme","state":"Prizrenit","country":"Kosovo","latitude":42.5191846,"longitude":20.7959981,"population":460}, 
{"name":"Hajnoc","state":"Gjilanit","country":"Kosovo","latitude":42.6321382,"longitude":21.5482933,"population":460}, 
{"name":"Zabllaq","state":"Pejës","country":"Kosovo","latitude":42.6892331,"longitude":20.4892812,"population":459}, 
{"name":"Vuçë","state":"Mitrovicës","country":"Kosovo","latitude":43.0399943,"longitude":20.8071616,"population":459}, 
{"name":"Javor","state":"Prizrenit","country":"Kosovo","latitude":42.470605,"longitude":20.8807015,"population":457}, 
{"name":"Jezerc","state":"Ferizajt","country":"Kosovo","latitude":42.3624416,"longitude":20.9887211,"population":454}, 
{"name":"Siboc i Poshtëm","state":"Prishtinës","country":"Kosovo","latitude":42.84702,"longitude":21.20152,"population":454}, 
{"name":"Zakut","state":"Prishtinës","country":"Kosovo","latitude":42.97614,"longitude":21.15152,"population":453}, 
{"name":"Kapër","state":"Prizrenit","country":"Kosovo","latitude":42.1043971,"longitude":20.6896985,"population":452}, 
{"name":"Vërbeshticë","state":"Ferizajt","country":"Kosovo","latitude":42.2414707,"longitude":20.9746321,"population":450}, 
{"name":"Vogovë","state":"Gjakovës","country":"Kosovo","latitude":42.3497449,"longitude":20.3937881,"population":450}, 
{"name":"Gjurgjevik i Madh","state":"Pejës","country":"Kosovo","latitude":42.6083247,"longitude":20.6614209,"population":449}, 
{"name":"Veriq","state":"Pejës","country":"Kosovo","latitude":42.7523775,"longitude":20.5512893,"population":449}, 
{"name":"Maznik","state":"Gjakovës","country":"Kosovo","latitude":42.5468947,"longitude":20.4484888,"population":447}, 
{"name":"Leshtar","state":"Gjilanit","country":"Kosovo","latitude":42.6464296,"longitude":21.4873649,"population":446}, 
{"name":"Rudicë","state":"Pejës","country":"Kosovo","latitude":42.6813937,"longitude":20.4911779,"population":446}, 
{"name":"Gotovushë","state":"Ferizajt","country":"Kosovo","latitude":42.2489507,"longitude":21.0698052,"population":445}, 
{"name":"Dollovë","state":"Pejës","country":"Kosovo","latitude":42.5659982,"longitude":20.5606572,"population":444}, 
{"name":"Firzë","state":"Gjakovës","country":"Kosovo","latitude":42.3525344,"longitude":20.4217357,"population":443}, 
{"name":"Kastërc","state":"Prizrenit","country":"Kosovo","latitude":42.4146287,"longitude":20.7927602,"population":442}, 
{"name":"Izvor","state":"Prishtinës","country":"Kosovo","latitude":42.5969551,"longitude":21.386058,"population":442}, 
{"name":"Drenoc","state":"Pejës","country":"Kosovo","latitude":42.6071202,"longitude":20.5198405,"population":440}, 
{"name":"Jabllanicë","state":"Gjakovës","country":"Kosovo","latitude":42.5455821,"longitude":20.4851484,"population":439}, 
{"name":"Ramnishtë","state":"Gjilanit","country":"Kosovo","latitude":42.3236238,"longitude":21.3818469,"population":438},