{"name":"Abarauskai", "state":"Alytus", "country":"Lithuania", "latitude":54.04409, "longitude":23.80401, "population":11}, 
{"name":"Adamonys", "state":"Alytus", "country":"Lithuania", "latitude":54.4646698, "longitude":24.1585588, "population":20}, 
{"name":"Agariniai", "state":"Alytus", "country":"Lithuania", "latitude":54.237195, "longitude":23.6090133, "population":44}, 
{"name":"Akalyčia", "state":"Alytus", "country":"Lithuania", "latitude":54.3343408, "longitude":24.2013938, "population":45}, 
{"name":"Akmeniai", "state":"Alytus", "country":"Lithuania", "latitude":54.1584038, "longitude":23.4982717, "population":121}, 
{"name":"Akuočiai", "state":"Alytus", "country":"Lithuania", "latitude":54.2543658, "longitude":23.7893966, "population":43}, 
{"name":"Aladiškės", "state":"Alytus", "country":"Lithuania", "latitude":54.15562, "longitude":24.81473, "population":5}, 
{"name":"Alekniškiai", "state":"Alytus", "country":"Lithuania", "latitude":54.0277975, "longitude":23.6331815, "population":3}, 
{"name":"Aleknonys", "state":"Alytus", "country":"Lithuania", "latitude":54.4574346, "longitude":23.6636249, "population":109}, 
{"name":"Aleksandrava", "state":"Alytus", "country":"Lithuania", "latitude":54.3349796, "longitude":24.5316823, "population":1}, 
{"name":"Aleksandrava", "state":"Alytus", "country":"Lithuania", "latitude":54.497918, "longitude":24.077555, "population":22}, 
{"name":"Aleksandrava", "state":"Alytus", "country":"Lithuania", "latitude":54.500302, "longitude":24.3655611, "population":12}, 
{"name":"Aleksiejiškė", "state":"Alytus", "country":"Lithuania", "latitude":54.1567214, "longitude":23.6776825, "population":8}, 
{"name":"Alovė", "state":"Alytus", "country":"Lithuania", "latitude":54.3501313, "longitude":24.1734127, "population":507}, 
{"name":"Alytus", "state":"Alytus", "country":"Lithuania", "latitude":54.3961344, "longitude":24.0459268, "population":59964, "stateCapital":true}, 
{"name":"Alytus", "state":"Alytus", "country":"Lithuania", "latitude":54.3924677, "longitude":24.1087607, "population":429}, 
{"name":"Ančios", "state":"Alytus", "country":"Lithuania", "latitude":54.0765772, "longitude":23.7424646, "population":3}, 
{"name":"Andriūnai", "state":"Alytus", "country":"Lithuania", "latitude":54.3541959, "longitude":24.4027533, "population":18}, 
{"name":"Angininkai", "state":"Alytus", "country":"Lithuania", "latitude":54.3974584, "longitude":23.7213976, "population":123}, 
{"name":"Aniškis", "state":"Alytus", "country":"Lithuania", "latitude":54.4103712, "longitude":23.8808124, "population":28}, 
{"name":"Anykštėnai", "state":"Alytus", "country":"Lithuania", "latitude":54.4598915, "longitude":24.4200322, "population":4}, 
{"name":"Apsingė", "state":"Alytus", "country":"Lithuania", "latitude":54.2040169, "longitude":24.1038691, "population":7}, 
{"name":"Apynėliai", "state":"Alytus", "country":"Lithuania", "latitude":54.5111029, "longitude":24.2956143, "population":14}, 
{"name":"Aradninkai", "state":"Alytus", "country":"Lithuania", "latitude":54.0769756, "longitude":23.5931448, "population":11}, 
{"name":"Arciškonys", "state":"Alytus", "country":"Lithuania", "latitude":54.3306584, "longitude":23.8904961, "population":77}, 
{"name":"Arčiūnai", "state":"Alytus", "country":"Lithuania", "latitude":54.3097588, "longitude":24.3511979, "population":32}, 
{"name":"Arčiūnai", "state":"Alytus", "country":"Lithuania", "latitude":54.2939386, "longitude":24.3929461, "population":1}, 
{"name":"Ardiškės", "state":"Alytus", "country":"Lithuania", "latitude":54.469641, "longitude":24.172502, "population":11}, 
{"name":"Arminai I", "state":"Alytus", "country":"Lithuania", "latitude":54.4038801, "longitude":23.8992747, "population":7}, 
{"name":"Arminai I", "state":"Alytus", "country":"Lithuania", "latitude":54.4031642, "longitude":23.8753056, "population":6}, 
{"name":"Arminai II", "state":"Alytus", "country":"Lithuania", "latitude":54.4207581, "longitude":23.8891703, "population":2}, 
{"name":"Ašašninkai", "state":"Alytus", "country":"Lithuania", "latitude":53.9407914, "longitude":24.2995314, "population":43}, 
{"name":"Aštrioji Kirsna", "state":"Alytus", "country":"Lithuania", "latitude":54.298665, "longitude":23.3987445, "population":60}, 
{"name":"Atesninkai", "state":"Alytus", "country":"Lithuania", "latitude":54.377972, "longitude":23.7250681, "population":25}, 
{"name":"Atesninkai I", "state":"Alytus", "country":"Lithuania", "latitude":54.3551858, "longitude":23.5819726, "population":20}, 
{"name":"Atesninkai II", "state":"Alytus", "country":"Lithuania", "latitude":54.370129, "longitude":23.7124694, "population":8}, 
{"name":"Atžalynas", "state":"Alytus", "country":"Lithuania", "latitude":54.3697217, "longitude":24.2841863, "population":2}, 
{"name":"Aukštakalniai", "state":"Alytus", "country":"Lithuania", "latitude":54.21123, "longitude":23.44501, "population":11}, 
{"name":"Aukštakalnis", "state":"Alytus", "country":"Lithuania", "latitude":54.35018, "longitude":24.57721, "population":11}, 
{"name":"Aušrinė", "state":"Alytus", "country":"Lithuania", "latitude":54.1042475, "longitude":24.0579456, "population":7}, 
{"name":"Avižieniai", "state":"Alytus", "country":"Lithuania", "latitude":54.1727673, "longitude":23.7278091, "population":245}, 
{"name":"Avižonys", "state":"Alytus", "country":"Lithuania", "latitude":54.1868586, "longitude":23.5461885, "population":51}, 
{"name":"Ąžuolėnai", "state":"Alytus", "country":"Lithuania", "latitude":54.5156843, "longitude":24.2926119, "population":3}, 
{"name":"Ąžuoliniai", "state":"Alytus", "country":"Lithuania", "latitude":54.429784, "longitude":23.6021704, "population":289}, 
{"name":"Babrai", "state":"Alytus", "country":"Lithuania", "latitude":54.158865, "longitude":23.6999546, "population":84}, 
{"name":"Babrai", "state":"Alytus", "country":"Lithuania", "latitude":54.2215544, "longitude":23.6871888, "population":47}, 
{"name":"Babrauninkai", "state":"Alytus", "country":"Lithuania", "latitude":54.3306368, "longitude":23.6434677, "population":33}, 
{"name":"Babriškės", "state":"Alytus", "country":"Lithuania", "latitude":54.318723, "longitude":24.50609, "population":16}, 
{"name":"Bagdononys", "state":"Alytus", "country":"Lithuania", "latitude":54.2200766, "longitude":23.723547, "population":99}, 
{"name":"Bagočiai", "state":"Alytus", "country":"Lithuania", "latitude":54.110507, "longitude":24.7381675, "population":12}, 
{"name":"Bajoriškiai", "state":"Alytus", "country":"Lithuania", "latitude":54.2213797, "longitude":23.5187221, "population":151}, 
{"name":"Bakšiai", "state":"Alytus", "country":"Lithuania", "latitude":54.4370425, "longitude":24.0429964, "population":31}, 
{"name":"Bakšiai", "state":"Alytus", "country":"Lithuania", "latitude":54.2892089, "longitude":23.6065318, "population":4}, 
{"name":"Balabostė", "state":"Alytus", "country":"Lithuania", "latitude":54.2831936, "longitude":23.4306084, "population":4}, 
{"name":"Balbutai", "state":"Alytus", "country":"Lithuania", "latitude":53.9704066, "longitude":24.730631, "population":39}, 
{"name":"Balkasodis", "state":"Alytus", "country":"Lithuania", "latitude":54.2730075, "longitude":23.9757177, "population":99}, 
{"name":"Balkūnai", "state":"Alytus", "country":"Lithuania", "latitude":54.3817792, "longitude":23.8778208, "population":106}, 
{"name":"Balninkai", "state":"Alytus", "country":"Lithuania", "latitude":54.33534, "longitude":24.1099305, "population":112}, 
{"name":"Baltosios Ančios HES", "state":"Alytus", "country":"Lithuania", "latitude":53.980357, "longitude":23.8031903, "population":7}, 
{"name":"Bambininkai", "state":"Alytus", "country":"Lithuania", "latitude":54.4272542, "longitude":23.6178486, "population":32}, 
{"name":"Baraučiškė", "state":"Alytus", "country":"Lithuania", "latitude":54.209593, "longitude":23.84164, "population":18}, 
{"name":"Barava", "state":"Alytus", "country":"Lithuania", "latitude":54.3069127, "longitude":23.493387, "population":1}, 
{"name":"Barčiai", "state":"Alytus", "country":"Lithuania", "latitude":54.18541, "longitude":24.66834, "population":148}, 
{"name":"Barčiai", "state":"Alytus", "country":"Lithuania", "latitude":54.0635435, "longitude":23.7281047, "population":167}, 
{"name":"Barčiai", "state":"Alytus", "country":"Lithuania", "latitude":54.2911161, "longitude":23.652813, "population":102}, 
{"name":"Barčiūnai", "state":"Alytus", "country":"Lithuania", "latitude":54.1664295, "longitude":23.8700914, "population":23}, 
{"name":"Barkūniškis", "state":"Alytus", "country":"Lithuania", "latitude":54.440997, "longitude":23.9281075, "population":9}, 
{"name":"Barteliai", "state":"Alytus", "country":"Lithuania", "latitude":54.3120527, "longitude":24.6726064, "population":18}, 
{"name":"Barteliai", "state":"Alytus", "country":"Lithuania", "latitude":54.0644448, "longitude":23.7499125, "population":12}, 
{"name":"Barzdžiūnai", "state":"Alytus", "country":"Lithuania", "latitude":54.1404372, "longitude":23.9737605, "population":52}, 
{"name":"Bažava", "state":"Alytus", "country":"Lithuania", "latitude":54.3859437, "longitude":23.6747525, "population":9}, 
{"name":"Bazorai", "state":"Alytus", "country":"Lithuania", "latitude":54.4337865, "longitude":24.1735873, "population":105}, 
{"name":"Bendrės", "state":"Alytus", "country":"Lithuania", "latitude":54.3415102, "longitude":23.9087556, "population":103}, 
{"name":"Bernotiškės", "state":"Alytus", "country":"Lithuania", "latitude":54.4209862, "longitude":23.8450867, "population":1}, 
{"name":"Bertašiūnai", "state":"Alytus", "country":"Lithuania", "latitude":54.0578928, "longitude":23.7767091, "population":13}, 
{"name":"Beržiniai", "state":"Alytus", "country":"Lithuania", "latitude":54.0851769, "longitude":23.7681957, "population":10}, 
{"name":"Beržupis", "state":"Alytus", "country":"Lithuania", "latitude":54.2312163, "longitude":24.642776, "population":18}, 
{"name":"Bestraigiškė", "state":"Alytus", "country":"Lithuania", "latitude":54.1689143, "longitude":23.8124141, "population":5}, 
{"name":"Beviršiai", "state":"Alytus", "country":"Lithuania", "latitude":54.2724386, "longitude":23.44463, "population":6}, 
{"name":"Beviršiai", "state":"Alytus", "country":"Lithuania", "latitude":54.1863719, "longitude":23.4423023, "population":6}, 
{"name":"Biekšios", "state":"Alytus", "country":"Lithuania", "latitude":54.3116573, "longitude":24.6964537, "population":21}, 
{"name":"Bielėnai", "state":"Alytus", "country":"Lithuania", "latitude":54.2471212, "longitude":23.3637157, "population":25}, 
{"name":"Bilvyčiai", "state":"Alytus", "country":"Lithuania", "latitude":54.2880132, "longitude":23.338272, "population":17}, 
{"name":"Bingeliai", "state":"Alytus", "country":"Lithuania", "latitude":54.1526266, "longitude":24.2477723, "population":10}, 
{"name":"Biniūnai I", "state":"Alytus", "country":"Lithuania", "latitude":54.2879468, "longitude":24.3924313, "population":11}, 
{"name":"Birsčiai", "state":"Alytus", "country":"Lithuania", "latitude":54.3806513, "longitude":23.5450445, "population":155}, 
{"name":"Biruta", "state":"Alytus", "country":"Lithuania", "latitude":54.346653, "longitude":23.4923035, "population":42}, 
{"name":"Bižai", "state":"Alytus", "country":"Lithuania", "latitude":54.1374788, "longitude":24.4040244, "population":1}, 
{"name":"Bludiškiai", "state":"Alytus", "country":"Lithuania", "latitude":54.3106671, "longitude":23.4414551, "population":1}, 
{"name":"Bogušiškės", "state":"Alytus", "country":"Lithuania", "latitude":54.3309504, "longitude":24.2760071, "population":25}, 
{"name":"Bokštai", "state":"Alytus", "country":"Lithuania", "latitude":54.3587963, "longitude":24.2103153, "population":3}, 
{"name":"Briniai", "state":"Alytus", "country":"Lithuania", "latitude":54.0915587, "longitude":23.5522529, "population":3}, 
{"name":"Buciniškė", "state":"Alytus", "country":"Lithuania", "latitude":54.2362442, "longitude":23.9605771, "population":1}, 
{"name":"Buckūnai", "state":"Alytus", "country":"Lithuania", "latitude":54.3258478, "longitude":23.7390256, "population":103}, 
{"name":"Buckūnai", "state":"Alytus", "country":"Lithuania", "latitude":54.3438604, "longitude":23.7514957, "population":60}, 
{"name":"Būda", "state":"Alytus", "country":"Lithuania", "latitude":54.4204384, "longitude":24.2328094, "population":16}, 
{"name":"Būda", "state":"Alytus", "country":"Lithuania", "latitude":54.3892318, "longitude":24.301859, "population":8}, 
{"name":"Būda", "state":"Alytus", "country":"Lithuania", "latitude":54.3218216, "longitude":23.5064817, "population":1}, 
{"name":"Būda", "state":"Alytus", "country":"Lithuania", "latitude":54.2202284, "longitude":23.4372845, "population":5}, 
{"name":"Būdos", "state":"Alytus", "country":"Lithuania", "latitude":54.0629685, "longitude":24.7836412, "population":9}, 
{"name":"Būdvietis", "state":"Alytus", "country":"Lithuania", "latitude":54.2866519, "longitude":23.3284924, "population":171}, 
{"name":"Bugieda", "state":"Alytus", "country":"Lithuania", "latitude":53.9448878, "longitude":23.7991058, "population":24}, 
{"name":"Bugonys", "state":"Alytus", "country":"Lithuania", "latitude":54.2378457, "longitude":24.0169267, "population":30}, 
{"name":"Bukaučiai", "state":"Alytus", "country":"Lithuania", "latitude":54.1836579, "longitude":23.8339549, "population":31}, 
{"name":"Bukaučiškės I", "state":"Alytus", "country":"Lithuania", "latitude":54.4023289, "longitude":24.375735, "population":26}, 
{"name":"Bukaučiškės II", "state":"Alytus", "country":"Lithuania", "latitude":54.3137005, "longitude":24.3790151, "population":20}, 
{"name":"Bukta", "state":"Alytus", "country":"Lithuania", "latitude":54.2456056, "longitude":23.5275704, "population":5}, 
{"name":"Buktininkai", "state":"Alytus", "country":"Lithuania", "latitude":54.4044524, "longitude":23.7164218, "population":1}, 
{"name":"Bulotiškė", "state":"Alytus", "country":"Lithuania", "latitude":54.2789582, "longitude":23.3915261, "population":5}, 
{"name":"Bundoriai", "state":"Alytus", "country":"Lithuania", "latitude":54.5013861, "longitude":24.0235169, "population":13}, 
{"name":"Bundžiai", "state":"Alytus", "country":"Lithuania", "latitude":54.4485879, "longitude":24.3590118, "population":27}, 
{"name":"Buniškiai", "state":"Alytus", "country":"Lithuania", "latitude":54.2343203, "longitude":23.4415049, "population":42}, 
{"name":"Burakavas", "state":"Alytus", "country":"Lithuania", "latitude":54.2484285, "longitude":23.6661534, "population":20}, 
{"name":"Burbai", "state":"Alytus", "country":"Lithuania", "latitude":54.0267837, "longitude":23.6117978, "population":3}, 
{"name":"Burbiškės", "state":"Alytus", "country":"Lithuania", "latitude":54.3454788, "longitude":23.9344422, "population":20}, 
{"name":"Burbiškiai", "state":"Alytus", "country":"Lithuania", "latitude":54.2352556, "longitude":23.4117591, "population":1}, 
{"name":"Burbonys", "state":"Alytus", "country":"Lithuania", "latitude":54.405328, "longitude":24.6045156, "population":12}, 
{"name":"Būriškės", "state":"Alytus", "country":"Lithuania", "latitude":54.4535503, "longitude":24.2819371, "population":9}, 
{"name":"Burokaraistėlė", "state":"Alytus", "country":"Lithuania", "latitude":54.2011198, "longitude":24.3447596, "population":7}, 
{"name":"Burokaraistis", "state":"Alytus", "country":"Lithuania", "latitude":54.210037, "longitude":24.3316503, "population":17}, 
{"name":"Buteliūnai", "state":"Alytus", "country":"Lithuania", "latitude":54.1924037, "longitude":23.6834748, "population":60}, 
{"name":"Butkūnai", "state":"Alytus", "country":"Lithuania", "latitude":54.4461149, "longitude":23.9683237, "population":47}, 
{"name":"Butrimiškės", "state":"Alytus", "country":"Lithuania", "latitude":54.5226452, "longitude":24.3421805, "population":7}, 
{"name":"Butrimiškiai", "state":"Alytus", "country":"Lithuania", "latitude":54.4299829, "longitude":23.9541953, "population":120}, 
{"name":"Butrimonys", "state":"Alytus", "country":"Lithuania", "latitude":54.5021596, "longitude":24.2523307, "population":941}, 
{"name":"Butvydonys", "state":"Alytus", "country":"Lithuania", "latitude":54.2786983, "longitude":24.8260897, "population":50}, 
{"name":"Bytautonys", "state":"Alytus", "country":"Lithuania", "latitude":54.4328603, "longitude":24.6352621, "population":15}, 
{"name":"Čebatoriai", "state":"Alytus", "country":"Lithuania", "latitude":54.2952582, "longitude":24.8593316, "population":87}, 
{"name":"Čepelūnai", "state":"Alytus", "country":"Lithuania", "latitude":54.174183, "longitude":24.7161101, "population":9}, 
{"name":"Černiauskai", "state":"Alytus", "country":"Lithuania", "latitude":54.0660776, "longitude":23.8764588, "population":15}, 
{"name":"Čėsniškė", "state":"Alytus", "country":"Lithuania", "latitude":54.3070375, "longitude":23.4735253, "population":3}, 
{"name":"Česukai", "state":"Alytus", "country":"Lithuania", "latitude":54.1503259, "longitude":24.1873285, "population":6}, 
{"name":"Cibiliekai", "state":"Alytus", "country":"Lithuania", "latitude":54.4453351, "longitude":23.8193622, "population":42}, 
{"name":"Cibonys", "state":"Alytus", "country":"Lithuania", "latitude":54.1702501, "longitude":24.7285154, "population":4}, 
{"name":"Cibūliai", "state":"Alytus", "country":"Lithuania", "latitude":54.1899419, "longitude":23.8617815, "population":13}, 
{"name":"Cigoniškiai", "state":"Alytus", "country":"Lithuania", "latitude":54.3296653, "longitude":23.8489529, "population":44}, 
{"name":"Cijūniškė", "state":"Alytus", "country":"Lithuania", "latitude":54.1947741, "longitude":23.8665179, "population":10}, 
{"name":"Cimaniūnai", "state":"Alytus", "country":"Lithuania", "latitude":54.1615275, "longitude":23.968766, "population":42}, 
{"name":"Čiurlionys I", "state":"Alytus", "country":"Lithuania", "latitude":54.4446922, "longitude":23.73905, "population":140}, 
{"name":"Čiurlionys II", "state":"Alytus", "country":"Lithuania", "latitude":54.4369355, "longitude":23.7770301, "population":4}, 
{"name":"Čivonys", "state":"Alytus", "country":"Lithuania", "latitude":54.1311714, "longitude":23.6233821, "population":58}, 
{"name":"Čižikai", "state":"Alytus", "country":"Lithuania", "latitude":54.4277738, "longitude":23.8598743, "population":37}, 
{"name":"Čižiūnai", "state":"Alytus", "country":"Lithuania", "latitude":54.3676587, "longitude":24.8487141, "population":129}, 
{"name":"Čižiūnai", "state":"Alytus", "country":"Lithuania", "latitude":54.4243875, "longitude":24.2803525, "population":26}, 
{"name":"Dainava", "state":"Alytus", "country":"Lithuania", "latitude":54.1487533, "longitude":24.7059827, "population":66}, 
{"name":"Dainavėlė", "state":"Alytus", "country":"Lithuania", "latitude":54.2751361, "longitude":23.3861112, "population":32}, 
{"name":"Dainaviškiai", "state":"Alytus", "country":"Lithuania", "latitude":54.0953236, "longitude":23.6726933, "population":65}, 
{"name":"Dalina", "state":"Alytus", "country":"Lithuania", "latitude":54.1280671, "longitude":24.704766, "population":16}, 
{"name":"Damononys", "state":"Alytus", "country":"Lithuania", "latitude":54.3988103, "longitude":24.6616019, "population":12}, 
{"name":"Dapkiškės", "state":"Alytus", "country":"Lithuania", "latitude":54.3625173, "longitude":23.8157288, "population":32}, 
{"name":"Darbalaukis", "state":"Alytus", "country":"Lithuania", "latitude":54.4859174, "longitude":24.3217555, "population":9}, 
{"name":"Dargužiai", "state":"Alytus", "country":"Lithuania", "latitude":54.3878099, "longitude":24.8849679, "population":252}, 
{"name":"Darželiai", "state":"Alytus", "country":"Lithuania", "latitude":54.024587, "longitude":24.3320353, "population":63}, 
{"name":"Daržinėlės", "state":"Alytus", "country":"Lithuania", "latitude":53.9413885, "longitude":24.2772639, "population":22}, 
{"name":"Daržininkai", "state":"Alytus", "country":"Lithuania", "latitude":54.3246535, "longitude":24.8864708, "population":40}, 
{"name":"Daržininkai", "state":"Alytus", "country":"Lithuania", "latitude":54.0914176, "longitude":24.7467069, "population":26}, 
{"name":"Daugai", "state":"Alytus", "country":"Lithuania", "latitude":54.3598563, "longitude":24.346, "population":1170}, 
{"name":"Daugai", "state":"Alytus", "country":"Lithuania", "latitude":54.3600126, "longitude":24.3306273, "population":400}, 
{"name":"Daugirdai", "state":"Alytus", "country":"Lithuania", "latitude":54.4336534, "longitude":23.8074918, "population":84}, 
{"name":"Daugirdėliai", "state":"Alytus", "country":"Lithuania", "latitude":54.4237406, "longitude":23.9592033, "population":28}, 
{"name":"Davainiškės", "state":"Alytus", "country":"Lithuania", "latitude":54.2821837, "longitude":24.179704, "population":38}, 
{"name":"Degėsiai", "state":"Alytus", "country":"Lithuania", "latitude":54.0852839, "longitude":23.9490648, "population":14}, 
{"name":"Degsnės", "state":"Alytus", "country":"Lithuania", "latitude":54.3685101, "longitude":24.7960422, "population":66}, 
{"name":"Degsnės", "state":"Alytus", "country":"Lithuania", "latitude":54.196352, "longitude":24.2946392, "population":2}, 
{"name":"Delnica", "state":"Alytus", "country":"Lithuania", "latitude":54.3507629, "longitude":23.4610637, "population":4}, 
{"name":"Delnickai", "state":"Alytus", "country":"Lithuania", "latitude":54.3550194, "longitude":23.4855126, "population":9}, 
{"name":"Demeniškiai", "state":"Alytus", "country":"Lithuania", "latitude":54.1789673, "longitude":23.7521615, "population":29}, 
{"name":"Derviniai", "state":"Alytus", "country":"Lithuania", "latitude":54.3100107, "longitude":23.4171265, "population":37}, 
{"name":"Didžiasalis", "state":"Alytus", "country":"Lithuania", "latitude":54.0463498, "longitude":23.8937724, "population":87}, 
{"name":"Didžioji Kirsna", "state":"Alytus", "country":"Lithuania", "latitude":54.3345026, "longitude":23.500788, "population":89}, 
{"name":"Dingiškiai", "state":"Alytus", "country":"Lithuania", "latitude":54.470728, "longitude":23.7196418, "population":18}, 
{"name":"Dipiškės", "state":"Alytus", "country":"Lithuania", "latitude":54.1681395, "longitude":24.7919247, "population":4}, 
{"name":"Dirmiškės", "state":"Alytus", "country":"Lithuania", "latitude":54.2774287, "longitude":23.9465879, "population":23}, 
{"name":"Diržai", "state":"Alytus", "country":"Lithuania", "latitude":53.9979584, "longitude":23.922583, "population":40}, 
{"name":"Diržamenys", "state":"Alytus", "country":"Lithuania", "latitude":54.4099113, "longitude":24.542093, "population":4}, 
{"name":"Dobrovolė", "state":"Alytus", "country":"Lithuania", "latitude":54.307549, "longitude":24.2035277, "population":5}, 
{"name":"Domantonys", "state":"Alytus", "country":"Lithuania", "latitude":54.3857143, "longitude":24.1637226, "population":71}, 
{"name":"Doškonys", "state":"Alytus", "country":"Lithuania", "latitude":54.363498, "longitude":24.3746683, "population":81}, 
{"name":"Drapaliai", "state":"Alytus", "country":"Lithuania", "latitude":54.1655469, "longitude":23.9176292, "population":15}, 
{"name":"Druckūnai", "state":"Alytus", "country":"Lithuania", "latitude":54.2944127, "longitude":24.4456173, "population":89}, 
{"name":"Drucminai", "state":"Alytus", "country":"Lithuania", "latitude":54.0749854, "longitude":24.7358737, "population":11}, 
{"name":"Druskininkai", "state":"Alytus", "country":"Lithuania", "latitude":54.0171932, "longitude":23.9772282, "population":14764}, 
{"name":"Druskininkai", "state":"Alytus", "country":"Lithuania", "latitude":54.1907395, "longitude":24.0176115, "population":53}, 
{"name":"Druskininkėliai", "state":"Alytus", "country":"Lithuania", "latitude":54.0849401, "longitude":23.8412468, "population":4}, 
{"name":"Druskininkėliai", "state":"Alytus", "country":"Lithuania", "latitude":54.0966346, "longitude":23.8389169, "population":18}, 
{"name":"Dubaklonis", "state":"Alytus", "country":"Lithuania", "latitude":54.1309206, "longitude":24.123418, "population":39}, 
{"name":"Dubaklonis I", "state":"Alytus", "country":"Lithuania", "latitude":54.2212133, "longitude":24.3708515, "population":4}, 
{"name":"Dubaklonis II", "state":"Alytus", "country":"Lithuania", "latitude":54.2411087, "longitude":24.3607129, "population":4}, 
{"name":"Dubas", "state":"Alytus", "country":"Lithuania", "latitude":53.9742839, "longitude":24.2231238, "population":7}, 
{"name":"Dubėnai", "state":"Alytus", "country":"Lithuania", "latitude":54.4659015, "longitude":23.9939628, "population":18}, 
{"name":"Dubenka", "state":"Alytus", "country":"Lithuania", "latitude":54.4784735, "longitude":24.02113, "population":4}, 
{"name":"Dubiai", "state":"Alytus", "country":"Lithuania", "latitude":54.4866058, "longitude":23.9793099, "population":34}, 
{"name":"Dubičiai", "state":"Alytus", "country":"Lithuania", "latitude":54.0188954, "longitude":24.7415573, "population":291}, 
{"name":"Dubininkas", "state":"Alytus", "country":"Lithuania", "latitude":54.0953212, "longitude":24.2824308, "population":4}, 
{"name":"Dubravai", "state":"Alytus", "country":"Lithuania", "latitude":54.2307461, "longitude":23.951386, "population":4}, 
{"name":"Dubriai", "state":"Alytus", "country":"Lithuania", "latitude":54.2957119, "longitude":24.0869253, "population":3}, 
{"name":"Dūdiškės", "state":"Alytus", "country":"Lithuania", "latitude":54.5128614, "longitude":24.3165711, "population":2}, 
{"name":"Dūkiškės", "state":"Alytus", "country":"Lithuania", "latitude":54.4997297, "longitude":24.3395831, "population":25}, 
{"name":"Dulgininkai", "state":"Alytus", "country":"Lithuania", "latitude":54.0346527, "longitude":23.8454957, "population":22}, 
{"name":"Dumbliauskai", "state":"Alytus", "country":"Lithuania", "latitude":54.012863, "longitude":23.6965112, "population":22}, 
{"name":"Dumblis", "state":"Alytus", "country":"Lithuania", "latitude":54.2232671, "longitude":23.4585031, "population":18}, 
{"name":"Duselninkai", "state":"Alytus", "country":"Lithuania", "latitude":54.4324241, "longitude":23.9126335, "population":31}, 
{"name":"Dusmenėliai", "state":"Alytus", "country":"Lithuania", "latitude":54.4411245, "longitude":24.4209964, "population":1}, 
{"name":"Dušnionys", "state":"Alytus", "country":"Lithuania", "latitude":54.3092574, "longitude":24.1273351, "population":38}, 
{"name":"Dvarčėnai", "state":"Alytus", "country":"Lithuania", "latitude":54.3378489, "longitude":24.3384924, "population":46}, 
{"name":"Dvarčiai", "state":"Alytus", "country":"Lithuania", "latitude":54.261776, "longitude":24.3928692, "population":10}, 
{"name":"Dvarčiškė", "state":"Alytus", "country":"Lithuania", "latitude":54.0382764, "longitude":23.7745955, "population":15}, 
{"name":"Dyviliškiai", "state":"Alytus", "country":"Lithuania", "latitude":54.1972851, "longitude":23.4881436, "population":57}, 
{"name":"Dzūkai", "state":"Alytus", "country":"Lithuania", "latitude":54.2925978, "longitude":23.3993131, "population":160}, 
{"name":"Ėgliškiai", "state":"Alytus", "country":"Lithuania", "latitude":54.3095522, "longitude":23.5504668, "population":4}, 
{"name":"Eičiūnai", "state":"Alytus", "country":"Lithuania", "latitude":54.5024912, "longitude":24.3187804, "population":282}, 
{"name":"Eigelonys", "state":"Alytus", "country":"Lithuania", "latitude":54.4661665, "longitude":24.3006143, "population":37}, 
{"name":"Eigirdonys", "state":"Alytus", "country":"Lithuania", "latitude":54.511422, "longitude":24.3731802, "population":61}, 
{"name":"Einorai", "state":"Alytus", "country":"Lithuania", "latitude":54.3195736, "longitude":24.111888, "population":61}, 
{"name":"Einoronys", "state":"Alytus", "country":"Lithuania", "latitude":54.4362592, "longitude":24.4056298, "population":20}, 
{"name":"Elveriškė", "state":"Alytus", "country":"Lithuania", "latitude":54.2899075, "longitude":23.4339444, "population":10}, 
{"name":"Ežerėliai", "state":"Alytus", "country":"Lithuania", "latitude":54.2253054, "longitude":23.6428576, "population":38}, 
{"name":"Ežeriekai", "state":"Alytus", "country":"Lithuania", "latitude":54.2764258, "longitude":24.4853717, "population":13}, 
{"name":"Ežerynas", "state":"Alytus", "country":"Lithuania", "latitude":54.2005238, "longitude":23.97859, "population":5}, 
{"name":"Ferma", "state":"Alytus", "country":"Lithuania", "latitude":54.3002906, "longitude":24.0721809, "population":18}, 
{"name":"Gailiakiemis", "state":"Alytus", "country":"Lithuania", "latitude":54.5512079, "longitude":24.2516412, "population":107}, 
{"name":"Gailiūnai", "state":"Alytus", "country":"Lithuania", "latitude":54.0474798, "longitude":24.0035662, "population":424}, 
{"name":"Gajauciškis", "state":"Alytus", "country":"Lithuania", "latitude":54.4519917, "longitude":24.0949257, "population":6}, 
{"name":"Galiniai", "state":"Alytus", "country":"Lithuania", "latitude":54.2275576, "longitude":23.4095164, "population":19}, 
{"name":"Galintanka", "state":"Alytus", "country":"Lithuania", "latitude":54.2594596, "longitude":24.066121, "population":10}, 
{"name":"Galintėnai", "state":"Alytus", "country":"Lithuania", "latitude":54.2660016, "longitude":24.0671463, "population":57}, 
{"name":"Galstai", "state":"Alytus", "country":"Lithuania", "latitude":54.1477774, "longitude":23.5843477, "population":22}, 
{"name":"Gečialaukis", "state":"Alytus", "country":"Lithuania", "latitude":54.3298803, "longitude":24.0642954, "population":96}, 
{"name":"Gegutė", "state":"Alytus", "country":"Lithuania", "latitude":54.1628906, "longitude":23.6443868, "population":31}, 
{"name":"Geidukonys", "state":"Alytus", "country":"Lithuania", "latitude":54.338979, "longitude":24.4775811, "population":39}, 
{"name":"Geisčiūnai", "state":"Alytus", "country":"Lithuania", "latitude":54.3127461, "longitude":24.0788671, "population":11}, 
{"name":"Geistarai", "state":"Alytus", "country":"Lithuania", "latitude":54.3265307, "longitude":23.947071, "population":22}, 
{"name":"Geistariškės", "state":"Alytus", "country":"Lithuania", "latitude":54.3335633, "longitude":23.9464737, "population":16}, 
{"name":"Geistarukai", "state":"Alytus", "country":"Lithuania", "latitude":54.3310879, "longitude":23.9241416, "population":19}, 
{"name":"Gelovinė", "state":"Alytus", "country":"Lithuania", "latitude":54.2285364, "longitude":24.1732868, "population":1}, 
{"name":"Gemaitiškės", "state":"Alytus", "country":"Lithuania", "latitude":54.4623158, "longitude":24.1465832, "population":9}, 
{"name":"Gembašilis", "state":"Alytus", "country":"Lithuania", "latitude":54.3137794, "longitude":23.5227784, "population":4}, 
{"name":"Geniai", "state":"Alytus", "country":"Lithuania", "latitude":54.4716717, "longitude":23.9602627, "population":309}, 
{"name":"Geniai", "state":"Alytus", "country":"Lithuania", "latitude":54.1467434, "longitude":24.0140221, "population":14}, 
{"name":"Genionys", "state":"Alytus", "country":"Lithuania", "latitude":54.3800228, "longitude":24.5540646, "population":20}, 
{"name":"Gerdašiai", "state":"Alytus", "country":"Lithuania", "latitude":53.9553189, "longitude":23.8919441, "population":38}, 
{"name":"Gerkiškės", "state":"Alytus", "country":"Lithuania", "latitude":54.4999699, "longitude":24.1846028, "population":5}, 
{"name":"Geruliai", "state":"Alytus", "country":"Lithuania", "latitude":54.5307508, "longitude":24.2699064, "population":14}, 
{"name":"Gerveliai", "state":"Alytus", "country":"Lithuania", "latitude":54.0249197, "longitude":23.5815066, "population":2}, 
{"name":"Gervėnai", "state":"Alytus", "country":"Lithuania", "latitude":54.2440792, "longitude":23.8361797, "population":105}, 
{"name":"Gervėnai", "state":"Alytus", "country":"Lithuania", "latitude":54.4365211, "longitude":24.2254519, "population":98}, 
{"name":"Gilbietis", "state":"Alytus", "country":"Lithuania", "latitude":54.1947417, "longitude":23.5745261, "population":5}, 
{"name":"Giluičiai", "state":"Alytus", "country":"Lithuania", "latitude":54.3808718, "longitude":23.6020359, "population":55}, 
{"name":"Ginakiemis", "state":"Alytus", "country":"Lithuania", "latitude":54.4270728, "longitude":24.627271, "population":15}, 
{"name":"Ginčionys", "state":"Alytus", "country":"Lithuania", "latitude":54.2443612, "longitude":23.8722505, "population":64}, 
{"name":"Giniškės", "state":"Alytus", "country":"Lithuania", "latitude":54.275133, "longitude":24.2682655, "population":15}, 
{"name":"Giniūnai", "state":"Alytus", "country":"Lithuania", "latitude":54.2779014, "longitude":24.8019114, "population":22}, 
{"name":"Giraitė", "state":"Alytus", "country":"Lithuania", "latitude":54.2764698, "longitude":23.593077, "population":43}, 
{"name":"Giraitė", "state":"Alytus", "country":"Lithuania", "latitude":54.2657465, "longitude":24.6626341, "population":61}, 
{"name":"Giraitė", "state":"Alytus", "country":"Lithuania", "latitude":54.2669649, "longitude":24.2592449, "population":1}, 
{"name":"Giraitėliai", "state":"Alytus", "country":"Lithuania", "latitude":54.2460627, "longitude":23.567543, "population":9}, 
{"name":"Girežeris", "state":"Alytus", "country":"Lithuania", "latitude":54.220502, "longitude":24.5236617, "population":6}, 
{"name":"Glūkas", "state":"Alytus", "country":"Lithuania", "latitude":54.2901052, "longitude":24.5616541, "population":7}, 
{"name":"Gluosninkai", "state":"Alytus", "country":"Lithuania", "latitude":54.4284677, "longitude":23.6770386, "population":91}, 
{"name":"Gojus", "state":"Alytus", "country":"Lithuania", "latitude":54.1818455, "longitude":24.7608508, "population":16}, 
{"name":"Grabauka", "state":"Alytus", "country":"Lithuania", "latitude":54.3790327, "longitude":23.5608244, "population":30}, 
{"name":"Graužai", "state":"Alytus", "country":"Lithuania", "latitude":54.2675416, "longitude":23.7293123, "population":9}, 
{"name":"Gražuliai", "state":"Alytus", "country":"Lithuania", "latitude":54.3543683, "longitude":23.6558812, "population":39}, 
{"name":"Greikonys", "state":"Alytus", "country":"Lithuania", "latitude":54.5412671, "longitude":24.2248184, "population":51}, 
{"name":"Gribaša", "state":"Alytus", "country":"Lithuania", "latitude":54.0427893, "longitude":24.7269105, "population":7}, 
{"name":"Griciūnai", "state":"Alytus", "country":"Lithuania", "latitude":54.3933982, "longitude":24.2734598, "population":6}, 
{"name":"Grikapalis", "state":"Alytus", "country":"Lithuania", "latitude":54.2189845, "longitude":23.5988729, "population":10}, 
{"name":"Grinkiškiai", "state":"Alytus", "country":"Lithuania", "latitude":54.4656187, "longitude":23.6639006, "population":9}, 
{"name":"Griškonys", "state":"Alytus", "country":"Lithuania", "latitude":54.510359, "longitude":24.209227, "population":42}, 
{"name":"Grūtas", "state":"Alytus", "country":"Lithuania", "latitude":54.0325024, "longitude":24.0771597, "population":166}, 
{"name":"Grybaulia", "state":"Alytus", "country":"Lithuania", "latitude":53.9998758, "longitude":24.3620819, "population":26}, 
{"name":"Gudakiemis", "state":"Alytus", "country":"Lithuania", "latitude":54.2050143, "longitude":24.2466662, "population":123}, 
{"name":"Gudeliai", "state":"Alytus", "country":"Lithuania", "latitude":54.1546464, "longitude":23.6141223, "population":51}, 
{"name":"Gudeliai", "state":"Alytus", "country":"Lithuania", "latitude":54.4005941, "longitude":23.8414305, "population":39}, 
{"name":"Gudeliai", "state":"Alytus", "country":"Lithuania", "latitude":54.0927682, "longitude":24.1551676, "population":10}, 
{"name":"Gudeliškė", "state":"Alytus", "country":"Lithuania", "latitude":54.3237839, "longitude":23.540678, "population":12}, 
{"name":"Gudiniškės", "state":"Alytus", "country":"Lithuania", "latitude":54.3303581, "longitude":23.9063579, "population":24}, 
{"name":"Gudonys", "state":"Alytus", "country":"Lithuania", "latitude":54.2178044, "longitude":23.9052264, "population":72}, 
{"name":"Gudžiai", "state":"Alytus", "country":"Lithuania", "latitude":54.3274173, "longitude":24.4521321, "population":348}, 
{"name":"Gulbiniškė", "state":"Alytus", "country":"Lithuania", "latitude":54.0597896, "longitude":23.6412398, "population":17}, 
{"name":"Gumbeliai", "state":"Alytus", "country":"Lithuania", "latitude":54.3131662, "longitude":23.4591367, "population":12}, 
{"name":"Guobiniai", "state":"Alytus", "country":"Lithuania", "latitude":54.1009895, "longitude":23.9593312, "population":44}, 
{"name":"Gurčiškė", "state":"Alytus", "country":"Lithuania", "latitude":54.3040159, "longitude":23.5449648, "population":12}, 
{"name":"Gurčiškė", "state":"Alytus", "country":"Lithuania", "latitude":54.3058745, "longitude":23.3469515, "population":6}, 
{"name":"Guronys", "state":"Alytus", "country":"Lithuania", "latitude":53.9895227, "longitude":23.8379406, "population":3}, 
{"name":"Ilgai", "state":"Alytus", "country":"Lithuania", "latitude":54.2833962, "longitude":24.197999, "population":91}, 
{"name":"Ilgininkai", "state":"Alytus", "country":"Lithuania", "latitude":54.2579667, "longitude":24.1668737, "population":96}, 
{"name":"Ilgininkai", "state":"Alytus", "country":"Lithuania", "latitude":54.0419364, "longitude":23.7270556, "population":16}, 
{"name":"Ivoškai", "state":"Alytus", "country":"Lithuania", "latitude":54.0056862, "longitude":23.5625303, "population":20}, 
{"name":"Jackonys", "state":"Alytus", "country":"Lithuania", "latitude":54.4546575, "longitude":23.8868518, "population":23}, 
{"name":"Jakėnai", "state":"Alytus", "country":"Lithuania", "latitude":54.2829539, "longitude":24.8573253, "population":17}, 
{"name":"Jakėnai", "state":"Alytus", "country":"Lithuania", "latitude":54.34052, "longitude":24.60317, "population":10}, 
{"name":"Jakonys", "state":"Alytus", "country":"Lithuania", "latitude":54.1256134, "longitude":23.7268744, "population":8}, 
{"name":"Jakubiškiai", "state":"Alytus", "country":"Lithuania", "latitude":54.1540973, "longitude":24.0684271, "population":43}, 
{"name":"Janapolis", "state":"Alytus", "country":"Lithuania", "latitude":54.342352, "longitude":24.1620296, "population":4}, 
{"name":"Janaslavas", "state":"Alytus", "country":"Lithuania", "latitude":54.1703768, "longitude":23.4763334, "population":20}, 
{"name":"Janauka", "state":"Alytus", "country":"Lithuania", "latitude":54.4948106, "longitude":24.3093593, "population":5}, 
{"name":"Janauka", "state":"Alytus", "country":"Lithuania", "latitude":54.1417753, "longitude":24.0346709, "population":9}, 
{"name":"Janavas", "state":"Alytus", "country":"Lithuania", "latitude":54.1030275, "longitude":23.9984875, "population":2}, 
{"name":"Jančiuliai", "state":"Alytus", "country":"Lithuania", "latitude":54.0011458, "longitude":23.6871273, "population":17}, 
{"name":"Janėnai", "state":"Alytus", "country":"Lithuania", "latitude":54.241292, "longitude":23.7024055, "population":107}, 
{"name":"Jasauskai", "state":"Alytus", "country":"Lithuania", "latitude":54.1040472, "longitude":24.7550147, "population":60}, 
{"name":"Jaseniauka", "state":"Alytus", "country":"Lithuania", "latitude":54.2702515, "longitude":23.4106696, "population":1}, 
{"name":"Jaskonys", "state":"Alytus", "country":"Lithuania", "latitude":53.9840068, "longitude":24.0402836, "population":310}, 
{"name":"Jasunskai", "state":"Alytus", "country":"Lithuania", "latitude":54.4443096, "longitude":24.028285, "population":52}, 
{"name":"Jaujakaimis", "state":"Alytus", "country":"Lithuania", "latitude":54.2203544, "longitude":24.1016946, "population":12}, 
{"name":"Jezdas", "state":"Alytus", "country":"Lithuania", "latitude":54.0343432, "longitude":23.6763206, "population":4}, 
{"name":"Jonionys", "state":"Alytus", "country":"Lithuania", "latitude":54.1582797, "longitude":24.1427665, "population":48}, 
{"name":"Jonkiškė", "state":"Alytus", "country":"Lithuania", "latitude":54.2342147, "longitude":23.7870376, "population":7}, 
{"name":"Jovaišiai", "state":"Alytus", "country":"Lithuania", "latitude":54.12404, "longitude":23.8470192, "population":155}, 
{"name":"Jovaišonys", "state":"Alytus", "country":"Lithuania", "latitude":54.4847362, "longitude":24.01616, "population":59}, 
{"name":"Jukneliškė", "state":"Alytus", "country":"Lithuania", "latitude":54.3578175, "longitude":23.4176914, "population":115}, 
{"name":"Junčionys", "state":"Alytus", "country":"Lithuania", "latitude":54.436015, "longitude":24.3019301, "population":95}, 
{"name":"Junonys", "state":"Alytus", "country":"Lithuania", "latitude":54.4752103, "longitude":23.9803828, "population":12}, 
{"name":"Juočiai", "state":"Alytus", "country":"Lithuania", "latitude":54.1450307, "longitude":24.64616, "population":8}, 
{"name":"Juočiškės", "state":"Alytus", "country":"Lithuania", "latitude":54.4292518, "longitude":24.1812582, "population":10}, 
{"name":"Juozapavas", "state":"Alytus", "country":"Lithuania", "latitude":54.1838265, "longitude":23.4800756, "population":2}, 
{"name":"Juozapavičiai", "state":"Alytus", "country":"Lithuania", "latitude":54.2476401, "longitude":23.9281677, "population":58}, 
{"name":"Jurčiūnai", "state":"Alytus", "country":"Lithuania", "latitude":54.1798466, "longitude":23.5762776, "population":33}, 
{"name":"Jurgelionys I", "state":"Alytus", "country":"Lithuania", "latitude":54.4605334, "longitude":24.2019625, "population":8}, 
{"name":"Jurgelionys II", "state":"Alytus", "country":"Lithuania", "latitude":54.4464234, "longitude":24.2310574, "population":6}, 
{"name":"Jurgiškės", "state":"Alytus", "country":"Lithuania", "latitude":54.2665593, "longitude":24.7324524, "population":59}, 
{"name":"Jurgiškiai", "state":"Alytus", "country":"Lithuania", "latitude":54.3672729, "longitude":23.9702173, "population":98}, 
{"name":"Jurkionys", "state":"Alytus", "country":"Lithuania", "latitude":54.4238569, "longitude":24.1004715, "population":274}, 
{"name":"Jurkonys", "state":"Alytus", "country":"Lithuania", "latitude":54.4934772, "longitude":24.3671008, "population":40}, 
{"name":"Juškonys", "state":"Alytus", "country":"Lithuania", "latitude":54.0209836, "longitude":23.7378881, "population":63}, 
{"name":"Kabeliai", "state":"Alytus", "country":"Lithuania", "latitude":53.9526952, "longitude":24.2952204, "population":168}, 
{"name":"Kabinės", "state":"Alytus", "country":"Lithuania", "latitude":54.4388188, "longitude":23.9300215, "population":16}, 
{"name":"Kačingė", "state":"Alytus", "country":"Lithuania", "latitude":54.1759256, "longitude":24.1571516, "population":3}, 
{"name":"Kaciolkai", "state":"Alytus", "country":"Lithuania", "latitude":54.3422199, "longitude":24.1809978, "population":2}, 
{"name":"Kaibūčiai", "state":"Alytus", "country":"Lithuania", "latitude":54.1873148, "longitude":24.3327092, "population":3}, 
{"name":"Kailiniai", "state":"Alytus", "country":"Lithuania", "latitude":54.0938861, "longitude":23.7042631, "population":446}, 
{"name":"Kaimeliai", "state":"Alytus", "country":"Lithuania", "latitude":54.1660997, "longitude":23.5681593, "population":11}, 
{"name":"Kaimynai", "state":"Alytus", "country":"Lithuania", "latitude":54.3804606, "longitude":23.6330542, "population":17}, 
{"name":"Kalėdiškiai", "state":"Alytus", "country":"Lithuania", "latitude":54.0956397, "longitude":23.532158, "population":16}, 
{"name":"Kalėnai", "state":"Alytus", "country":"Lithuania", "latitude":54.3951668, "longitude":24.6821024, "population":17}, 
{"name":"Kalesninkai", "state":"Alytus", "country":"Lithuania", "latitude":54.3641144, "longitude":23.6622739, "population":113}, 
{"name":"Kalesninkai", "state":"Alytus", "country":"Lithuania", "latitude":54.400686, "longitude":24.2207154, "population":54}, 
{"name":"Kalesninkai", "state":"Alytus", "country":"Lithuania", "latitude":54.451828, "longitude":23.8209705, "population":42}, 
{"name":"Kalnėnai", "state":"Alytus", "country":"Lithuania", "latitude":54.3185062, "longitude":24.0442145, "population":26}, 
{"name":"Kalveliai", "state":"Alytus", "country":"Lithuania", "latitude":54.1167751, "longitude":23.6554308, "population":95}, 
{"name":"Kalviai", "state":"Alytus", "country":"Lithuania", "latitude":54.0330125, "longitude":24.8262436, "population":47}, 
{"name":"Kalviai", "state":"Alytus", "country":"Lithuania", "latitude":54.0117712, "longitude":23.5909254, "population":14}, 
{"name":"Kamaraučiškės", "state":"Alytus", "country":"Lithuania", "latitude":54.1772134, "longitude":24.8143551, "population":5}, 
{"name":"Kamenka", "state":"Alytus", "country":"Lithuania", "latitude":54.2834437, "longitude":23.5438484, "population":19}, 
{"name":"Kamorūnai", "state":"Alytus", "country":"Lithuania", "latitude":54.2151983, "longitude":24.7359064, "population":37}, 
{"name":"Kamorūnai", "state":"Alytus", "country":"Lithuania", "latitude":54.1039038, "longitude":23.8342836, "population":20}, 
{"name":"Kampai", "state":"Alytus", "country":"Lithuania", "latitude":54.272341, "longitude":24.1581514, "population":19}, 
{"name":"Kampai", "state":"Alytus", "country":"Lithuania", "latitude":54.2689644, "longitude":24.1363519, "population":1}, 
{"name":"Kanaukai", "state":"Alytus", "country":"Lithuania", "latitude":54.1582747, "longitude":23.6295034, "population":6}, 
{"name":"Kančėnai", "state":"Alytus", "country":"Lithuania", "latitude":54.3902533, "longitude":24.3771201, "population":250}, 
{"name":"Kaniava", "state":"Alytus", "country":"Lithuania", "latitude":54.0941097, "longitude":24.701667, "population":23}, 
{"name":"Kaniavėlė", "state":"Alytus", "country":"Lithuania", "latitude":54.1362952, "longitude":24.7410935, "population":14}, 
{"name":"Kaniūkai", "state":"Alytus", "country":"Lithuania", "latitude":54.3669353, "longitude":24.1219574, "population":183}, 
{"name":"Kaniūkai", "state":"Alytus", "country":"Lithuania", "latitude":54.409039, "longitude":23.9405847, "population":73}, 
{"name":"Kaniūkai", "state":"Alytus", "country":"Lithuania", "latitude":54.4205898, "longitude":24.3423491, "population":43}, 
{"name":"Kaniūkai", "state":"Alytus", "country":"Lithuania", "latitude":54.1081089, "longitude":24.7563921, "population":36}, 
{"name":"Kaniūkai", "state":"Alytus", "country":"Lithuania", "latitude":54.4128882, "longitude":24.680469, "population":35}, 
{"name":"Kapčiamiestis", "state":"Alytus", "country":"Lithuania", "latitude":54.0037523, "longitude":23.6560744, "population":589}, 
{"name":"Kapiniškiai", "state":"Alytus", "country":"Lithuania", "latitude":54.0131057, "longitude":24.2909006, "population":40}, 
{"name":"Karalinavas", "state":"Alytus", "country":"Lithuania", "latitude":54.125496, "longitude":23.9677297, "population":3}, 
{"name":"Karaviškės", "state":"Alytus", "country":"Lithuania", "latitude":54.0261248, "longitude":24.6754788, "population":5}, 
{"name":"Kareivonys", "state":"Alytus", "country":"Lithuania", "latitude":54.4088732, "longitude":24.6234546, "population":99}, 
{"name":"Kareivonys", "state":"Alytus", "country":"Lithuania", "latitude":54.0104175, "longitude":23.6285523, "population":27}, 
{"name":"Karkliniškės", "state":"Alytus", "country":"Lithuania", "latitude":54.4214899, "longitude":24.1585822, "population":44}, 
{"name":"Karklynai", "state":"Alytus", "country":"Lithuania", "latitude":54.4712987, "longitude":23.9264832, "population":43}, 
{"name":"Karliškės", "state":"Alytus", "country":"Lithuania", "latitude":54.3430943, "longitude":24.3046176, "population":53}, 
{"name":"Karpiškės", "state":"Alytus", "country":"Lithuania", "latitude":54.3279485, "longitude":24.6521438, "population":13}, 
{"name":"Karužai", "state":"Alytus", "country":"Lithuania", "latitude":54.2774453, "longitude":23.4791542, "population":98}, 
{"name":"Karužai", "state":"Alytus", "country":"Lithuania", "latitude":54.2415433, "longitude":24.3470761, "population":14}, 
{"name":"Karvelninkai", "state":"Alytus", "country":"Lithuania", "latitude":54.494642, "longitude":24.1221998, "population":11}, 
{"name":"Kasčiūnai", "state":"Alytus", "country":"Lithuania", "latitude":54.1114541, "longitude":24.2677816, "population":7}, 
{"name":"Kašėtos", "state":"Alytus", "country":"Lithuania", "latitude":54.1099667, "longitude":24.3472852, "population":14}, 
{"name":"Kašėtos", "state":"Alytus", "country":"Lithuania", "latitude":54.0908841, "longitude":24.5983165, "population":15}, 
{"name":"Kasteletiškė", "state":"Alytus", "country":"Lithuania", "latitude":54.2659139, "longitude":23.4985993, "population":2}, 
{"name":"Kastriškės", "state":"Alytus", "country":"Lithuania", "latitude":54.2896636, "longitude":24.0491513, "population":19}, 
{"name":"Katkiškė", "state":"Alytus", "country":"Lithuania", "latitude":54.2224591, "longitude":23.5190202, "population":5}, 
{"name":"Katra", "state":"Alytus", "country":"Lithuania", "latitude":53.9929102, "longitude":24.5891801, "population":19}, 
{"name":"Kaukai I", "state":"Alytus", "country":"Lithuania", "latitude":54.3485463, "longitude":23.7795629, "population":5}, 
{"name":"Kaukai II", "state":"Alytus", "country":"Lithuania", "latitude":54.3528297, "longitude":23.7709769, "population":3}, 
{"name":"Kauknoris", "state":"Alytus", "country":"Lithuania", "latitude":54.0302588, "longitude":23.5415067, "population":1}, 
{"name":"Kavalčiukai", "state":"Alytus", "country":"Lithuania", "latitude":54.365849, "longitude":23.6113252, "population":102}, 
{"name":"Kaženiai", "state":"Alytus", "country":"Lithuania", "latitude":54.1167556, "longitude":23.5382284, "population":11}, 
{"name":"Kazimieravas", "state":"Alytus", "country":"Lithuania", "latitude":54.2820764, "longitude":24.4300748, "population":30}, 
{"name":"Kazimieravas", "state":"Alytus", "country":"Lithuania", "latitude":54.440223, "longitude":24.3673619, "population":20}, 
{"name":"Kaziukonys", "state":"Alytus", "country":"Lithuania", "latitude":54.0894953, "longitude":24.7621207, "population":6}, 
{"name":"Kaziuliai", "state":"Alytus", "country":"Lithuania", "latitude":54.0507785, "longitude":23.9419094, "population":26}, 
{"name":"Kedonys", "state":"Alytus", "country":"Lithuania", "latitude":54.4700087, "longitude":24.264662, "population":128}, 
{"name":"Kelmaičiai", "state":"Alytus", "country":"Lithuania", "latitude":54.2679363, "longitude":23.3843472, "population":10}, 
{"name":"Kelmanonys", "state":"Alytus", "country":"Lithuania", "latitude":54.4757102, "longitude":23.9127592, "population":16}, 
{"name":"Kelmynai", "state":"Alytus", "country":"Lithuania", "latitude":54.2751578, "longitude":23.5082898, "population":12}, 
{"name":"Kerai", "state":"Alytus", "country":"Lithuania", "latitude":54.4745076, "longitude":24.1709047, "population":4}, 
{"name":"Kermušija", "state":"Alytus", "country":"Lithuania", "latitude":53.9969245, "longitude":24.1013343, "population":11}, 
{"name":"Kibirkščiai", "state":"Alytus", "country":"Lithuania", "latitude":54.4689601, "longitude":24.0510551, "population":9}, 
{"name":"Kibyšiai", "state":"Alytus", "country":"Lithuania", "latitude":54.1484539, "longitude":24.0822398, "population":146}, 
{"name":"Kijučiai", "state":"Alytus", "country":"Lithuania", "latitude":54.1856799, "longitude":24.7887528, "population":165}, 
{"name":"Kijutiškės", "state":"Alytus", "country":"Lithuania", "latitude":54.1763933, "longitude":24.7962188, "population":18}, 
{"name":"Kirklionys", "state":"Alytus", "country":"Lithuania", "latitude":54.3395231, "longitude":24.5175456, "population":6}, 
{"name":"Kirmėliškės", "state":"Alytus", "country":"Lithuania", "latitude":54.4549153, "longitude":23.8630931, "population":6}, 
{"name":"Kirsnelė", "state":"Alytus", "country":"Lithuania", "latitude":54.3308768, "longitude":23.4281726, "population":79}, 
{"name":"Kirtiliškė", "state":"Alytus", "country":"Lithuania", "latitude":54.229315, "longitude":23.6080414, "population":29}, 
{"name":"Klausiškės", "state":"Alytus", "country":"Lithuania", "latitude":54.3657248, "longitude":24.2073783, "population":7}, 
{"name":"Klepočiai", "state":"Alytus", "country":"Lithuania", "latitude":54.1188782, "longitude":23.5917988, "population":64}, 
{"name":"Klepočiai", "state":"Alytus", "country":"Lithuania", "latitude":54.2072342, "longitude":24.0082501, "population":37}, 
{"name":"Klydžionys", "state":"Alytus", "country":"Lithuania", "latitude":54.4845125, "longitude":24.27285, "population":42}, 
{"name":"Kolonistai", "state":"Alytus", "country":"Lithuania", "latitude":54.4066041, "longitude":23.6588611, "population":34}, 
{"name":"Komisaruvka", "state":"Alytus", "country":"Lithuania", "latitude":54.4048491, "longitude":23.6866926, "population":46}, 
{"name":"Krasenka", "state":"Alytus", "country":"Lithuania", "latitude":54.3709871, "longitude":23.5317126, "population":18}, 
{"name":"Krekštėnai", "state":"Alytus", "country":"Lithuania", "latitude":54.4071742, "longitude":23.7731389, "population":102}, 
{"name":"Kriauniai", "state":"Alytus", "country":"Lithuania", "latitude":54.4567795, "longitude":24.0172063, "population":30}, 
{"name":"Krikštonys", "state":"Alytus", "country":"Lithuania", "latitude":54.2148046, "longitude":23.9229014, "population":228}, 
{"name":"Kriviliai", "state":"Alytus", "country":"Lithuania", "latitude":54.1521187, "longitude":24.782072, "population":358}, 
{"name":"Krivonys", "state":"Alytus", "country":"Lithuania", "latitude":53.971199, "longitude":23.8367953, "population":8}, 
{"name":"Krokialaukis", "state":"Alytus", "country":"Lithuania", "latitude":54.4362712, "longitude":23.7627689, "population":218}, 
{"name":"Krokininkai", "state":"Alytus", "country":"Lithuania", "latitude":54.4041724, "longitude":23.7424862, "population":82}, 
{"name":"Krokšlys", "state":"Alytus", "country":"Lithuania", "latitude":54.0366505, "longitude":24.6247683, "population":50}, 
{"name":"Krosna", "state":"Alytus", "country":"Lithuania", "latitude":54.3791523, "longitude":23.5298502, "population":330}, 
{"name":"Krosnėnai", "state":"Alytus", "country":"Lithuania", "latitude":54.3556554, "longitude":23.4999056, "population":60}, 
{"name":"Krukliai", "state":"Alytus", "country":"Lithuania", "latitude":54.1180067, "longitude":24.7003464, "population":30}, 
{"name":"Krūmijos", "state":"Alytus", "country":"Lithuania", "latitude":54.4230619, "longitude":24.3167412, "population":8}, 
{"name":"Krūminiai", "state":"Alytus", "country":"Lithuania", "latitude":54.3000437, "longitude":24.8287891, "population":174}, 
{"name":"Kružiūnai", "state":"Alytus", "country":"Lithuania", "latitude":54.480479, "longitude":24.1354263, "population":69}, 
{"name":"Kucakiemis", "state":"Alytus", "country":"Lithuania", "latitude":54.2503959, "longitude":24.3548089, "population":12}, 
{"name":"Kučiūnai", "state":"Alytus", "country":"Lithuania", "latitude":54.1273328, "longitude":23.519901, "population":273}, 
{"name":"Kučiūnai", "state":"Alytus", "country":"Lithuania", "latitude":54.215967, "longitude":24.2550335, "population":2}, 
{"name":"Kudariškės", "state":"Alytus", "country":"Lithuania", "latitude":54.2994108, "longitude":24.2030784, "population":35}, 
{"name":"Kudrėnai", "state":"Alytus", "country":"Lithuania", "latitude":54.1391768, "longitude":24.0044817, "population":18}, 
{"name":"Kudrėnėliai", "state":"Alytus", "country":"Lithuania", "latitude":54.1627667, "longitude":23.867801, "population":13}, 
{"name":"Kukiškės", "state":"Alytus", "country":"Lithuania", "latitude":54.3177433, "longitude":24.7737377, "population":2}, 
{"name":"Kukliai", "state":"Alytus", "country":"Lithuania", "latitude":54.211808, "longitude":23.5550715, "population":192}, 
{"name":"Kukliai", "state":"Alytus", "country":"Lithuania", "latitude":54.3345691, "longitude":24.6860608, "population":33}, 
{"name":"Kulabiškės", "state":"Alytus", "country":"Lithuania", "latitude":54.465114, "longitude":24.0680465, "population":9}, 
{"name":"Kumečiai", "state":"Alytus", "country":"Lithuania", "latitude":54.3543969, "longitude":23.7545423, "population":277}, 
{"name":"Kuodžiai", "state":"Alytus", "country":"Lithuania", "latitude":53.9449445, "longitude":23.5698174, "population":1}, 
{"name":"Kuolonys", "state":"Alytus", "country":"Lithuania", "latitude":54.0299305, "longitude":23.7830286, "population":22}, 
{"name":"Kurdimakščiai", "state":"Alytus", "country":"Lithuania", "latitude":54.2954005, "longitude":23.5402086, "population":20}, 
{"name":"Kurmiškė", "state":"Alytus", "country":"Lithuania", "latitude":54.1980944, "longitude":24.2085804, "population":6}, 
{"name":"Kurnėnai", "state":"Alytus", "country":"Lithuania", "latitude":54.3871617, "longitude":23.9148574, "population":39}, 
{"name":"Kuršiai", "state":"Alytus", "country":"Lithuania", "latitude":54.3234269, "longitude":24.9092312, "population":54}, 
{"name":"Kurtiniškės", "state":"Alytus", "country":"Lithuania", "latitude":54.3722756, "longitude":23.9017996, "population":7}, 
{"name":"Kybartai", "state":"Alytus", "country":"Lithuania", "latitude":54.2685116, "longitude":23.330152, "population":5}, 
{"name":"Laburdiškės", "state":"Alytus", "country":"Lithuania", "latitude":54.3622132, "longitude":23.9450919, "population":9}, 
{"name":"Lačionys", "state":"Alytus", "country":"Lithuania", "latitude":54.4616124, "longitude":24.3325153, "population":67}, 
{"name":"Laibagaliai", "state":"Alytus", "country":"Lithuania", "latitude":54.1668084, "longitude":23.5829677, "population":29}, 
{"name":"Laičiai", "state":"Alytus", "country":"Lithuania", "latitude":54.2673571, "longitude":24.3527376, "population":27}, 
{"name":"Lankininkai", "state":"Alytus", "country":"Lithuania", "latitude":54.1301793, "longitude":24.2577527, "population":5}, 
{"name":"Lankos", "state":"Alytus", "country":"Lithuania", "latitude":54.2895846, "longitude":23.9969734, "population":7}, 
{"name":"Lapšius", "state":"Alytus", "country":"Lithuania", "latitude":54.2253, "longitude":23.8878899, "population":50}, 
{"name":"Latežeris", "state":"Alytus", "country":"Lithuania", "latitude":53.988613, "longitude":24.0971108, "population":35}, 
{"name":"Laukinčiai", "state":"Alytus", "country":"Lithuania", "latitude":54.3499929, "longitude":23.8587751, "population":61}, 
{"name":"Laukininkai", "state":"Alytus", "country":"Lithuania", "latitude":54.2635896, "longitude":24.2290053, "population":16}, 
{"name":"Laukininkėliai", "state":"Alytus", "country":"Lithuania", "latitude":54.2615966, "longitude":24.2391925, "population":8}, 
{"name":"Laukintukai", "state":"Alytus", "country":"Lithuania", "latitude":54.3368373, "longitude":23.8771858, "population":45}, 
{"name":"Lavysas", "state":"Alytus", "country":"Lithuania", "latitude":54.1687907, "longitude":24.406981, "population":2}, 
{"name":"Lazdijai", "state":"Alytus", "country":"Lithuania", "latitude":54.2348374, "longitude":23.5113025, "population":4531}, 
{"name":"Lazdijai", "state":"Alytus", "country":"Lithuania", "latitude":54.2375164, "longitude":23.4965962, "population":468}, 
{"name":"Leipalingis", "state":"Alytus", "country":"Lithuania", "latitude":54.0920419, "longitude":23.8597811, "population":1552}, 
{"name":"Leipalingis", "state":"Alytus", "country":"Lithuania", "latitude":54.0783862, "longitude":23.876503, "population":62}, 
{"name":"Lelionys", "state":"Alytus", "country":"Lithuania", "latitude":54.4132689, "longitude":24.167335, "population":82}, 
{"name":"Lelionys", "state":"Alytus", "country":"Lithuania", "latitude":54.491744, "longitude":24.3552322, "population":21}, 
{"name":"Lemkaraistis", "state":"Alytus", "country":"Lithuania", "latitude":54.2228959, "longitude":24.2661772, "population":9}, 
{"name":"Leonardavas", "state":"Alytus", "country":"Lithuania", "latitude":54.1989422, "longitude":23.547062, "population":5}, 
{"name":"Leoniškės", "state":"Alytus", "country":"Lithuania", "latitude":54.4475788, "longitude":24.2715635, "population":3}, 
{"name":"Lesagūrai", "state":"Alytus", "country":"Lithuania", "latitude":54.2645702, "longitude":24.2881336, "population":5}, 
{"name":"Liepakojai", "state":"Alytus", "country":"Lithuania", "latitude":54.4696144, "longitude":23.6872062, "population":28}, 
{"name":"Liepiškiai", "state":"Alytus", "country":"Lithuania", "latitude":54.1005535, "longitude":24.0140556, "population":28}, 
{"name":"Liesionys", "state":"Alytus", "country":"Lithuania", "latitude":54.4714976, "longitude":24.3723117, "population":19}, 
{"name":"Likiškėliai", "state":"Alytus", "country":"Lithuania", "latitude":54.3866661, "longitude":23.9749184, "population":216}, 
{"name":"Likiškės", "state":"Alytus", "country":"Lithuania", "latitude":54.5178774, "longitude":24.2747554, "population":7}, 
{"name":"Likiškiai", "state":"Alytus", "country":"Lithuania", "latitude":54.4059563, "longitude":23.9708528, "population":53}, 
{"name":"Linksmoji", "state":"Alytus", "country":"Lithuania", "latitude":54.2429328, "longitude":23.8247455, "population":11}, 
{"name":"Lipliūnai", "state":"Alytus", "country":"Lithuania", "latitude":53.975446, "longitude":23.9071051, "population":50}, 
{"name":"Liškiava", "state":"Alytus", "country":"Lithuania", "latitude":54.081435, "longitude":24.0541997, "population":57}, 
{"name":"Litvančiškiai", "state":"Alytus", "country":"Lithuania", "latitude":54.415143, "longitude":23.6639937, "population":7}, 
{"name":"Liuklingėnai", "state":"Alytus", "country":"Lithuania", "latitude":54.4145838, "longitude":23.8142329, "population":2}, 
{"name":"Lizdai", "state":"Alytus", "country":"Lithuania", "latitude":54.1979853, "longitude":23.9909611, "population":15}, 
{"name":"Lopiškiai", "state":"Alytus", "country":"Lithuania", "latitude":54.324233, "longitude":23.451677, "population":16}, 
{"name":"Lozarka", "state":"Alytus", "country":"Lithuania", "latitude":54.2821458, "longitude":23.5316713, "population":7}, 
{"name":"Luksnėnai", "state":"Alytus", "country":"Lithuania", "latitude":54.3972232, "longitude":23.9273848, "population":491}, 
{"name":"Lydekininkai", "state":"Alytus", "country":"Lithuania", "latitude":54.2555756, "longitude":24.1187918, "population":23}, 
{"name":"Lynežeris", "state":"Alytus", "country":"Lithuania", "latitude":54.0615908, "longitude":24.5722488, "population":24}, 
{"name":"Maceliai", "state":"Alytus", "country":"Lithuania", "latitude":54.422794, "longitude":24.9707578, "population":20}, 
{"name":"Macevičiai", "state":"Alytus", "country":"Lithuania", "latitude":53.9624182, "longitude":23.758645, "population":2}, 
{"name":"Maišymai", "state":"Alytus", "country":"Lithuania", "latitude":54.30245, "longitude":23.456431, "population":53}, 
{"name":"Makariškė", "state":"Alytus", "country":"Lithuania", "latitude":54.2122492, "longitude":23.9189816, "population":6}, 
{"name":"Makaučiškė", "state":"Alytus", "country":"Lithuania", "latitude":54.3705156, "longitude":23.4825397, "population":5}, 
{"name":"Makniūnai", "state":"Alytus", "country":"Lithuania", "latitude":54.2450853, "longitude":24.088977, "population":227}, 
{"name":"Maksimai", "state":"Alytus", "country":"Lithuania", "latitude":54.1222703, "longitude":24.1337752, "population":9}, 
{"name":"Maksimonys", "state":"Alytus", "country":"Lithuania", "latitude":54.1624831, "longitude":24.1527169, "population":22}, 
{"name":"Mančiagirė", "state":"Alytus", "country":"Lithuania", "latitude":54.131833, "longitude":24.456233, "population":15}, 
{"name":"Mančiūnai", "state":"Alytus", "country":"Lithuania", "latitude":54.3304533, "longitude":24.141455, "population":55}, 
{"name":"Mančiūnai", "state":"Alytus", "country":"Lithuania", "latitude":54.3645183, "longitude":23.9211615, "population":36}, 
{"name":"Mangarotas", "state":"Alytus", "country":"Lithuania", "latitude":54.2003582, "longitude":23.9196838, "population":21}, 
{"name":"Mankūnai", "state":"Alytus", "country":"Lithuania", "latitude":54.3031554, "longitude":23.9005917, "population":106}, 
{"name":"Mankūnėliai", "state":"Alytus", "country":"Lithuania", "latitude":54.2734567, "longitude":23.8640402, "population":87}, 
{"name":"Mantotai", "state":"Alytus", "country":"Lithuania", "latitude":54.0240949, "longitude":24.7540311, "population":16}, 
{"name":"Mantvilai", "state":"Alytus", "country":"Lithuania", "latitude":54.2323815, "longitude":24.2203161, "population":15}, 
{"name":"Marcinkonys", "state":"Alytus", "country":"Lithuania", "latitude":54.053926, "longitude":24.4082462, "population":640}, 
{"name":"Marčiukonys", "state":"Alytus", "country":"Lithuania", "latitude":54.2462902, "longitude":23.5744751, "population":15}, 
{"name":"Mardasavas", "state":"Alytus", "country":"Lithuania", "latitude":54.1507735, "longitude":24.3301167, "population":26}, 
{"name":"Mardasavas", "state":"Alytus", "country":"Lithuania", "latitude":54.1533334, "longitude":24.3206278, "population":17}, 
{"name":"Margai", "state":"Alytus", "country":"Lithuania", "latitude":54.2004779, "longitude":24.2838865, "population":4}, 
{"name":"Margarava", "state":"Alytus", "country":"Lithuania", "latitude":54.489738, "longitude":23.9985115, "population":19}, 
{"name":"Margiai", "state":"Alytus", "country":"Lithuania", "latitude":54.0393968, "longitude":24.695233, "population":3}, 
{"name":"Margionys", "state":"Alytus", "country":"Lithuania", "latitude":53.9996518, "longitude":24.2866408, "population":58}, 
{"name":"Marijanavas", "state":"Alytus", "country":"Lithuania", "latitude":54.2481153, "longitude":24.7528343, "population":6}, 
{"name":"Marinka", "state":"Alytus", "country":"Lithuania", "latitude":54.3484403, "longitude":23.5983877, "population":13}, 
{"name":"Marinka", "state":"Alytus", "country":"Lithuania", "latitude":54.3366499, "longitude":23.6042731, "population":4}, 
{"name":"Martinava", "state":"Alytus", "country":"Lithuania", "latitude":54.2979296, "longitude":24.4828359, "population":4}, 
{"name":"Masališkės", "state":"Alytus", "country":"Lithuania", "latitude":54.2126492, "longitude":24.2212579, "population":37}, 
{"name":"Maskauka", "state":"Alytus", "country":"Lithuania", "latitude":54.2941674, "longitude":24.6163248, "population":22}, 
{"name":"Maslaučiškės", "state":"Alytus", "country":"Lithuania", "latitude":54.3330648, "longitude":23.932553, "population":59}, 
{"name":"Mašnyčios", "state":"Alytus", "country":"Lithuania", "latitude":54.0424044, "longitude":24.1227285, "population":36}, 
{"name":"Maštalieriai", "state":"Alytus", "country":"Lithuania", "latitude":54.4210148, "longitude":23.755729, "population":234}, 
{"name":"Matuizos", "state":"Alytus", "country":"Lithuania", "latitude":54.2720799, "longitude":24.6759468, "population":1201}, 
{"name":"Mažiūnai", "state":"Alytus", "country":"Lithuania", "latitude":54.5229338, "longitude":24.2602624, "population":51}, 
{"name":"Mažonys", "state":"Alytus", "country":"Lithuania", "latitude":54.1218236, "longitude":23.8759748, "population":39}, 
{"name":"Mėčiūnai", "state":"Alytus", "country":"Lithuania", "latitude":54.0623058, "longitude":23.6419886, "population":42}, 
{"name":"Medukšta", "state":"Alytus", "country":"Lithuania", "latitude":54.4327775, "longitude":24.099984, "population":303}, 
{"name":"Melekonys", "state":"Alytus", "country":"Lithuania", "latitude":54.1413886, "longitude":24.7733642, "population":3}, 
{"name":"Melnytėlė", "state":"Alytus", "country":"Lithuania", "latitude":54.3944057, "longitude":24.3032517, "population":12}, 
{"name":"Menciškė", "state":"Alytus", "country":"Lithuania", "latitude":53.9702228, "longitude":23.6891601, "population":25}, 
{"name":"Mergalaukis", "state":"Alytus", "country":"Lithuania", "latitude":54.3859699, "longitude":23.6856946, "population":295}, 
{"name":"Mergežeris", "state":"Alytus", "country":"Lithuania", "latitude":54.1992069, "longitude":24.5164375, "population":30}, 
{"name":"Merkinė", "state":"Alytus", "country":"Lithuania", "latitude":54.1613269, "longitude":24.1830609, "population":1228}, 
{"name":"Merkinė", "state":"Alytus", "country":"Lithuania", "latitude":54.184148, "longitude":24.252211, "population":17}, 
{"name":"Meškasalis", "state":"Alytus", "country":"Lithuania", "latitude":54.2838343, "longitude":24.1395427, "population":87}, 
{"name":"Meškučiai", "state":"Alytus", "country":"Lithuania", "latitude":54.2801762, "longitude":24.2420369, "population":107}, 
{"name":"Meškučiai", "state":"Alytus", "country":"Lithuania", "latitude":54.3767112, "longitude":24.5088589, "population":3}, 
{"name":"Meteliai", "state":"Alytus", "country":"Lithuania", "latitude":54.3006587, "longitude":23.7414234, "population":195}, 
{"name":"Metelytė", "state":"Alytus", "country":"Lithuania", "latitude":54.342166, "longitude":23.6650508, "population":46}, 
{"name":"Miciūnai", "state":"Alytus", "country":"Lithuania", "latitude":54.0643426, "longitude":23.9597686, "population":12}, 
{"name":"Mickūnava", "state":"Alytus", "country":"Lithuania", "latitude":54.4847567, "longitude":24.3653896, "population":15}, 
{"name":"Mieliūnai", "state":"Alytus", "country":"Lithuania", "latitude":54.3707953, "longitude":24.2370139, "population":36}, 
{"name":"Mielupiai", "state":"Alytus", "country":"Lithuania", "latitude":54.3089657, "longitude":24.7670434, "population":11}, 
{"name":"Miesto Kolonija", "state":"Alytus", "country":"Lithuania", "latitude":54.2261594, "longitude":23.8288109, "population":28}, 
{"name":"Miežionys", "state":"Alytus", "country":"Lithuania", "latitude":54.1748308, "longitude":23.9864639, "population":10}, 
{"name":"Miguičionys", "state":"Alytus", "country":"Lithuania", "latitude":54.3958226, "longitude":24.5564922, "population":9}, 
{"name":"Mikabaliai", "state":"Alytus", "country":"Lithuania", "latitude":54.1954944, "longitude":23.762372, "population":40}, 
{"name":"Mikalavas", "state":"Alytus", "country":"Lithuania", "latitude":54.4275761, "longitude":24.3421815, "population":148}, 
{"name":"Mikalavas", "state":"Alytus", "country":"Lithuania", "latitude":54.4034239, "longitude":24.1749764, "population":29}, 
{"name":"Mikalčiūnai", "state":"Alytus", "country":"Lithuania", "latitude":54.1301308, "longitude":24.753922, "population":30}, 
{"name":"Mikalina", "state":"Alytus", "country":"Lithuania", "latitude":54.0499327, "longitude":23.8414076, "population":10}, 
{"name":"Mikališkė", "state":"Alytus", "country":"Lithuania", "latitude":54.0468009, "longitude":23.6286412, "population":12}, 
{"name":"Miklusėnai", "state":"Alytus", "country":"Lithuania", "latitude":54.4395129, "longitude":23.9948923, "population":1044}, 
{"name":"Mikniškiai", "state":"Alytus", "country":"Lithuania", "latitude":54.3190272, "longitude":23.437925, "population":120}, 
{"name":"Mikniūnai", "state":"Alytus", "country":"Lithuania", "latitude":54.2492277, "longitude":24.2806036, "population":23}, 
{"name":"Miknolesai", "state":"Alytus", "country":"Lithuania", "latitude":54.4213443, "longitude":24.2071531, "population":2}, 
{"name":"Mikutiškiai", "state":"Alytus", "country":"Lithuania", "latitude":54.4720535, "longitude":24.0416618, "population":32}, 
{"name":"Mikyčiai", "state":"Alytus", "country":"Lithuania", "latitude":54.205293, "longitude":23.647079, "population":217}, 
{"name":"Milastonys", "state":"Alytus", "country":"Lithuania", "latitude":54.288826, "longitude":23.8660403, "population":6}, 
{"name":"Milioniškė", "state":"Alytus", "country":"Lithuania", "latitude":54.1866649, "longitude":24.3741952, "population":22}, 
{"name":"Milioniškės", "state":"Alytus", "country":"Lithuania", "latitude":54.1902942, "longitude":24.3786659, "population":19}, 
{"name":"Milvyda", "state":"Alytus", "country":"Lithuania", "latitude":54.1359556, "longitude":24.7075633, "population":6}, 
{"name":"Miroslavas", "state":"Alytus", "country":"Lithuania", "latitude":54.3337837, "longitude":23.9014845, "population":382}, 
{"name":"Mišiškės", "state":"Alytus", "country":"Lithuania", "latitude":54.532131, "longitude":24.1246551, "population":11}, 
{"name":"Miškiniai", "state":"Alytus", "country":"Lithuania", "latitude":54.1568961, "longitude":23.5362088, "population":286}, 
{"name":"Mizarai", "state":"Alytus", "country":"Lithuania", "latitude":54.0198472, "longitude":23.9396388, "population":41}, 
{"name":"Mociškėnai", "state":"Alytus", "country":"Lithuania", "latitude":54.3182054, "longitude":23.8498636, "population":22}, 
{"name":"Mockonys", "state":"Alytus", "country":"Lithuania", "latitude":54.2888441, "longitude":23.8199935, "population":8}, 
{"name":"Moliadugnis", "state":"Alytus", "country":"Lithuania", "latitude":54.2296282, "longitude":24.486744, "population":5}, 
{"name":"Moliai", "state":"Alytus", "country":"Lithuania", "latitude":54.3091439, "longitude":24.6668538, "population":7}, 
{"name":"Molinė", "state":"Alytus", "country":"Lithuania", "latitude":54.1120135, "longitude":24.6856521, "population":4}, 
{"name":"Muiželėnai", "state":"Alytus", "country":"Lithuania", "latitude":54.3745646, "longitude":24.1066795, "population":174}, 
{"name":"Musteika", "state":"Alytus", "country":"Lithuania", "latitude":53.955852, "longitude":24.3654526, "population":61}, 
{"name":"Nakrūniškė", "state":"Alytus", "country":"Lithuania", "latitude":54.2589644, "longitude":23.7431307, "population":15}, 
{"name":"Nasūtai", "state":"Alytus", "country":"Lithuania", "latitude":54.0245955, "longitude":23.6201575, "population":13}, 
{"name":"Natalina", "state":"Alytus", "country":"Lithuania", "latitude":54.3388509, "longitude":23.4017792, "population":2}, 
{"name":"Naujasodė", "state":"Alytus", "country":"Lithuania", "latitude":53.9903143, "longitude":24.038308, "population":55}, 
{"name":"Naujasodis", "state":"Alytus", "country":"Lithuania", "latitude":54.1787559, "longitude":23.6810886, "population":4}, 
{"name":"Naujavalakiai", "state":"Alytus", "country":"Lithuania", "latitude":54.3999962, "longitude":23.5142544, "population":5}, 
{"name":"Naujieji Valkininkai", "state":"Alytus", "country":"Lithuania", "latitude":54.3490669, "longitude":24.7205264, "population":370}, 
{"name":"Naujoji Kirsna", "state":"Alytus", "country":"Lithuania", "latitude":54.3301223, "longitude":23.4837245, "population":156}, 
{"name":"Naujokai", "state":"Alytus", "country":"Lithuania", "latitude":54.4462021, "longitude":24.0010351, "population":2}, 
{"name":"Naujosios Naniškės", "state":"Alytus", "country":"Lithuania", "latitude":54.3185342, "longitude":24.8798266, "population":49}, 
{"name":"Navasiolkai", "state":"Alytus", "country":"Lithuania", "latitude":54.457631, "longitude":24.1130864, "population":36}, 
{"name":"Navasodai", "state":"Alytus", "country":"Lithuania", "latitude":54.255222, "longitude":24.148694, "population":5}, 
{"name":"Navasodai I", "state":"Alytus", "country":"Lithuania", "latitude":54.4637398, "longitude":24.2191903, "population":3}, 
{"name":"Navasodai II", "state":"Alytus", "country":"Lithuania", "latitude":54.4663314, "longitude":24.2784578, "population":6}, 
{"name":"Navickai", "state":"Alytus", "country":"Lithuania", "latitude":54.4488458, "longitude":24.0068039, "population":69}, 
{"name":"Navikai", "state":"Alytus", "country":"Lithuania", "latitude":54.0757493, "longitude":23.6346883, "population":5}, 
{"name":"Navikai", "state":"Alytus", "country":"Lithuania", "latitude":54.1302692, "longitude":24.0204841, "population":4}, 
{"name":"Navininkai", "state":"Alytus", "country":"Lithuania", "latitude":54.4497331, "longitude":23.7308806, "population":62}, 
{"name":"Nedzingė", "state":"Alytus", "country":"Lithuania", "latitude":54.2466767, "longitude":24.3294807, "population":244}, 
{"name":"Nekrūnai", "state":"Alytus", "country":"Lithuania", "latitude":54.227133, "longitude":23.5279333, "population":12}, 
{"name":"Neliubonys", "state":"Alytus", "country":"Lithuania", "latitude":54.0452692, "longitude":23.7925975, "population":20}, 
{"name":"Nemajūnai", "state":"Alytus", "country":"Lithuania", "latitude":54.2300734, "longitude":23.5739865, "population":237}, 
{"name":"Nemunaitis", "state":"Alytus", "country":"Lithuania", "latitude":54.3009098, "longitude":24.0243017, "population":153}, 
{"name":"Nemunaitis", "state":"Alytus", "country":"Lithuania", "latitude":54.3077277, "longitude":24.0239556, "population":234}, 
{"name":"Nemunaitis", "state":"Alytus", "country":"Lithuania", "latitude":54.2980941, "longitude":24.0401872, "population":234}, 
{"name":"Neravai", "state":"Alytus", "country":"Lithuania", "latitude":54.0355289, "longitude":24.0254215, "population":965}, 
{"name":"Neravai", "state":"Alytus", "country":"Lithuania", "latitude":54.188841, "longitude":23.5874358, "population":91}, 
{"name":"Netiesos", "state":"Alytus", "country":"Lithuania", "latitude":54.1891643, "longitude":24.0836868, "population":10}, 
{"name":"Noragėliai", "state":"Alytus", "country":"Lithuania", "latitude":54.2440602, "longitude":23.889245, "population":108}, 
{"name":"Norgeliškės", "state":"Alytus", "country":"Lithuania", "latitude":54.4475354, "longitude":24.1141334, "population":74}, 
{"name":"Noruliai", "state":"Alytus", "country":"Lithuania", "latitude":54.1114694, "longitude":24.2207617, "population":28}, 
{"name":"Norūnai", "state":"Alytus", "country":"Lithuania", "latitude":54.3386023, "longitude":23.986894, "population":78}, 
{"name":"Norvydiškės", "state":"Alytus", "country":"Lithuania", "latitude":54.3584602, "longitude":24.6507917, "population":2}, 
{"name":"Noškūnai", "state":"Alytus", "country":"Lithuania", "latitude":54.1269432, "longitude":24.6468661, "population":41}, 
{"name":"Noškūnai", "state":"Alytus", "country":"Lithuania", "latitude":54.260349, "longitude":24.0502681, "population":2}, 
{"name":"Novartiškė", "state":"Alytus", "country":"Lithuania", "latitude":54.06954, "longitude":23.7516, "population":3}, 
{"name":"Novoplenta", "state":"Alytus", "country":"Lithuania", "latitude":54.3507879, "longitude":24.2344638, "population":6}, 
{"name":"Obelaičiai", "state":"Alytus", "country":"Lithuania", "latitude":54.3403585, "longitude":24.146128, "population":6}, 
{"name":"Obelija", "state":"Alytus", "country":"Lithuania", "latitude":54.3017199, "longitude":23.864797, "population":92}, 
{"name":"Obelninkai", "state":"Alytus", "country":"Lithuania", "latitude":54.3072621, "longitude":23.8033811, "population":42}, 
{"name":"Obelninkėliai", "state":"Alytus", "country":"Lithuania", "latitude":54.3078512, "longitude":23.8196393, "population":40}, 
{"name":"Obelytė", "state":"Alytus", "country":"Lithuania", "latitude":54.365463, "longitude":23.763851, "population":30}, 
{"name":"Okta", "state":"Alytus", "country":"Lithuania", "latitude":54.2099743, "longitude":23.8248461, "population":18}, 
{"name":"Olendernė", "state":"Alytus", "country":"Lithuania", "latitude":54.5019523, "longitude":24.280052, "population":42}, 
{"name":"Olendrai", "state":"Alytus", "country":"Lithuania", "latitude":54.377682, "longitude":23.4563256, "population":13}, 
{"name":"Onciškiai", "state":"Alytus", "country":"Lithuania", "latitude":54.2462953, "longitude":23.9141293, "population":43}, 
{"name":"Ostampas", "state":"Alytus", "country":"Lithuania", "latitude":54.4232224, "longitude":23.6575925, "population":78}, 
{"name":"Paąžuolė", "state":"Alytus", "country":"Lithuania", "latitude":54.0684412, "longitude":24.7610763, "population":13}, 
{"name":"Pabaliai", "state":"Alytus", "country":"Lithuania", "latitude":54.5301734, "longitude":24.1939937, "population":47}, 
{"name":"Pabaronė", "state":"Alytus", "country":"Lithuania", "latitude":54.2446571, "longitude":24.7163851, "population":10}, 
{"name":"Paberžinė", "state":"Alytus", "country":"Lithuania", "latitude":54.4509873, "longitude":23.8616342, "population":10}, 
{"name":"Pabezninkai", "state":"Alytus", "country":"Lithuania", "latitude":54.3494875, "longitude":24.559369, "population":2}, 
{"name":"Padaglė", "state":"Alytus", "country":"Lithuania", "latitude":54.5139097, "longitude":24.0080905, "population":5}, 
{"name":"Padaugė", "state":"Alytus", "country":"Lithuania", "latitude":54.3140492, "longitude":24.3937793, "population":23}, 
{"name":"Padumbliai", "state":"Alytus", "country":"Lithuania", "latitude":54.2200001, "longitude":23.4622734, "population":6}, 
{"name":"Padumbliai", "state":"Alytus", "country":"Lithuania", "latitude":54.0308481, "longitude":23.6500068, "population":49}, 
{"name":"Padusys", "state":"Alytus", "country":"Lithuania", "latitude":54.3200652, "longitude":23.6485696, "population":11}, 
{"name":"Padvariškiai", "state":"Alytus", "country":"Lithuania", "latitude":54.4401062, "longitude":24.1252246, "population":49}, 
{"name":"Pagilė", "state":"Alytus", "country":"Lithuania", "latitude":54.3850868, "longitude":24.2906702, "population":42}, 
{"name":"Pagilšys", "state":"Alytus", "country":"Lithuania", "latitude":54.2086258, "longitude":24.1965538, "population":6}, 
{"name":"Pagirės", "state":"Alytus", "country":"Lithuania", "latitude":54.2627661, "longitude":24.3751771, "population":7}, 
{"name":"Pagronyčys", "state":"Alytus", "country":"Lithuania", "latitude":54.25094, "longitude":24.19789, "population":11}, 
{"name":"Pagrūdai", "state":"Alytus", "country":"Lithuania", "latitude":54.3224266, "longitude":23.3825323, "population":23}, 
{"name":"Pagurniai", "state":"Alytus", "country":"Lithuania", "latitude":54.3111915, "longitude":24.1896544, "population":11}, 
{"name":"Pakaniavys", "state":"Alytus", "country":"Lithuania", "latitude":54.131103, "longitude":24.6816599, "population":9}, 
{"name":"Pakaršys", "state":"Alytus", "country":"Lithuania", "latitude":54.2891207, "longitude":24.3686476, "population":45}, 
{"name":"Pakašavas", "state":"Alytus", "country":"Lithuania", "latitude":54.4431644, "longitude":23.9052056, "population":41}, 
{"name":"Pakirsniai", "state":"Alytus", "country":"Lithuania", "latitude":54.3215922, "longitude":23.4835533, "population":54}, 
{"name":"Paklėštarė", "state":"Alytus", "country":"Lithuania", "latitude":54.3527305, "longitude":24.826198, "population":150}, 
{"name":"Pakuliškės", "state":"Alytus", "country":"Lithuania", "latitude":54.1240454, "longitude":24.6577783, "population":7}, 
{"name":"Palačionys", "state":"Alytus", "country":"Lithuania", "latitude":54.0192843, "longitude":23.592246, "population":1}, 
{"name":"Paliepiai", "state":"Alytus", "country":"Lithuania", "latitude":54.4922186, "longitude":24.1519344, "population":64}, 
{"name":"Paliepis", "state":"Alytus", "country":"Lithuania", "latitude":54.006556, "longitude":23.7875523, "population":23}, 
{"name":"Paliūnai", "state":"Alytus", "country":"Lithuania", "latitude":54.1443734, "longitude":23.7518786, "population":13}, 
{"name":"Paliūnai", "state":"Alytus", "country":"Lithuania", "latitude":54.2026828, "longitude":23.7203966, "population":39}, 
{"name":"Paliūnai", "state":"Alytus", "country":"Lithuania", "latitude":54.295977, "longitude":23.385423, "population":89}, 
{"name":"Palkabalis", "state":"Alytus", "country":"Lithuania", "latitude":54.1416753, "longitude":24.6100525, "population":16}, 
{"name":"Pamerkiai", "state":"Alytus", "country":"Lithuania", "latitude":54.3126859, "longitude":24.7130986, "population":87}, 
{"name":"Pamusėliai", "state":"Alytus", "country":"Lithuania", "latitude":54.3577286, "longitude":24.5094356, "population":35}, 
{"name":"Pamusiai", "state":"Alytus", "country":"Lithuania", "latitude":54.3618456, "longitude":24.5003254, "population":62}, 
{"name":"Panara", "state":"Alytus", "country":"Lithuania", "latitude":54.105107, "longitude":24.1105143, "population":213}, 
{"name":"Panarvė", "state":"Alytus", "country":"Lithuania", "latitude":54.2400502, "longitude":23.5422853, "population":43}, 
{"name":"Panedingys", "state":"Alytus", "country":"Lithuania", "latitude":54.2294508, "longitude":24.3116208, "population":9}, 
{"name":"Panemunė", "state":"Alytus", "country":"Lithuania", "latitude":54.1476346, "longitude":23.9911926, "population":9}, 
{"name":"Panemuninkai", "state":"Alytus", "country":"Lithuania", "latitude":54.4960443, "longitude":24.0359402, "population":160}, 
{"name":"Panemuninkėliai", "state":"Alytus", "country":"Lithuania", "latitude":54.4329964, "longitude":24.0687682, "population":135}, 
{"name":"Panočiai", "state":"Alytus", "country":"Lithuania", "latitude":54.1202347, "longitude":24.7562017, "population":284}, 
{"name":"Papalazdijai I", "state":"Alytus", "country":"Lithuania", "latitude":54.1988841, "longitude":23.513405, "population":87}, 
{"name":"Papalazdijai II", "state":"Alytus", "country":"Lithuania", "latitude":54.2080503, "longitude":23.5110521, "population":28}, 
{"name":"Papartėliai", "state":"Alytus", "country":"Lithuania", "latitude":54.3036613, "longitude":23.3608855, "population":96}, 
{"name":"Papečiai", "state":"Alytus", "country":"Lithuania", "latitude":54.2659665, "longitude":23.5464479, "population":57}, 
{"name":"Papėčiai", "state":"Alytus", "country":"Lithuania", "latitude":54.3226721, "longitude":23.7709209, "population":97}, 
{"name":"Papiškės", "state":"Alytus", "country":"Lithuania", "latitude":54.1229367, "longitude":24.03305, "population":8}, 
{"name":"Papiškės", "state":"Alytus", "country":"Lithuania", "latitude":54.2838502, "longitude":24.7509436, "population":29}, 
{"name":"Papiškės", "state":"Alytus", "country":"Lithuania", "latitude":54.1414774, "longitude":24.7924635, "population":39}, 
{"name":"Papiškiai", "state":"Alytus", "country":"Lithuania", "latitude":54.3434833, "longitude":24.4127511, "population":22}, 
{"name":"Paplanskai", "state":"Alytus", "country":"Lithuania", "latitude":54.449166, "longitude":23.9741629, "population":12}, 
{"name":"Paramėlis", "state":"Alytus", "country":"Lithuania", "latitude":54.0104644, "longitude":24.6476087, "population":20}, 
{"name":"Parėčėnai", "state":"Alytus", "country":"Lithuania", "latitude":54.3393031, "longitude":23.7941649, "population":194}, 
{"name":"Paručiai", "state":"Alytus", "country":"Lithuania", "latitude":54.3283571, "longitude":24.5764128, "population":12}, 
{"name":"Parudnia", "state":"Alytus", "country":"Lithuania", "latitude":54.2060847, "longitude":24.2058241, "population":5}, 
{"name":"Paseirė", "state":"Alytus", "country":"Lithuania", "latitude":54.1483527, "longitude":23.8637846, "population":8}, 
{"name":"Paserninkai", "state":"Alytus", "country":"Lithuania", "latitude":54.1981211, "longitude":23.8009832, "population":82}, 
{"name":"Pasgrinda", "state":"Alytus", "country":"Lithuania", "latitude":54.2309115, "longitude":24.7740124, "population":34}, 
{"name":"Pašilis", "state":"Alytus", "country":"Lithuania", "latitude":54.4970981, "longitude":24.406592, "population":8}, 
{"name":"Pasimniai", "state":"Alytus", "country":"Lithuania", "latitude":54.3937776, "longitude":23.6171457, "population":9}, 
{"name":"Paškūniškės", "state":"Alytus", "country":"Lithuania", "latitude":54.4722293, "longitude":24.3386335, "population":1}, 
{"name":"Paterai", "state":"Alytus", "country":"Lithuania", "latitude":54.0958338, "longitude":23.7411037, "population":22}, 
{"name":"Paūliai", "state":"Alytus", "country":"Lithuania", "latitude":54.1621924, "longitude":24.3562131, "population":9}, 
{"name":"Pauosupė", "state":"Alytus", "country":"Lithuania", "latitude":54.0954159, "longitude":24.57922, "population":4}, 
{"name":"Pavardaunys", "state":"Alytus", "country":"Lithuania", "latitude":54.2781383, "longitude":24.4488574, "population":10}, 
{"name":"Pavarėnis", "state":"Alytus", "country":"Lithuania", "latitude":54.3422624, "longitude":24.5207958, "population":3}, 
{"name":"Pavartėnai", "state":"Alytus", "country":"Lithuania", "latitude":54.3366682, "longitude":24.2687596, "population":29}, 
{"name":"Pavartės", "state":"Alytus", "country":"Lithuania", "latitude":54.3108353, "longitude":24.2766094, "population":9}, 
{"name":"Paveisiejai", "state":"Alytus", "country":"Lithuania", "latitude":54.0867334, "longitude":23.6071308, "population":29}, 
{"name":"Paveisininkai", "state":"Alytus", "country":"Lithuania", "latitude":54.0649145, "longitude":23.5974398, "population":7}, 
{"name":"Paversekis", "state":"Alytus", "country":"Lithuania", "latitude":54.2635606, "longitude":24.8232812, "population":41}, 
{"name":"Pazapsiai", "state":"Alytus", "country":"Lithuania", "latitude":54.0986529, "longitude":23.5437193, "population":57}, 
{"name":"Peckūnai", "state":"Alytus", "country":"Lithuania", "latitude":54.4906563, "longitude":24.2003801, "population":9}, 
{"name":"Pėdiškiai", "state":"Alytus", "country":"Lithuania", "latitude":54.3880039, "longitude":23.4785129, "population":25}, 
{"name":"Pelekiškė", "state":"Alytus", "country":"Lithuania", "latitude":54.1922642, "longitude":24.1564173, "population":1}, 
{"name":"Perloja", "state":"Alytus", "country":"Lithuania", "latitude":54.2193985, "longitude":24.4170139, "population":586}, 
{"name":"Peršėkė", "state":"Alytus", "country":"Lithuania", "latitude":54.4595231, "longitude":23.7954069, "population":25}, 
{"name":"Peršėkininkai", "state":"Alytus", "country":"Lithuania", "latitude":54.3840858, "longitude":23.7591371, "population":121}, 
{"name":"Pertakas", "state":"Alytus", "country":"Lithuania", "latitude":53.9508435, "longitude":23.6284269, "population":5}, 
{"name":"Petravičiai", "state":"Alytus", "country":"Lithuania", "latitude":54.2698915, "longitude":23.6490975, "population":41}, 
{"name":"Petroškai", "state":"Alytus", "country":"Lithuania", "latitude":54.0996769, "longitude":23.6454838, "population":126}, 
{"name":"Pieriškiai", "state":"Alytus", "country":"Lithuania", "latitude":54.2369368, "longitude":24.0343983, "population":19}, 
{"name":"Pievagaliai", "state":"Alytus", "country":"Lithuania", "latitude":54.4852173, "longitude":24.0729875, "population":41}, 
{"name":"Pikiškės", "state":"Alytus", "country":"Lithuania", "latitude":54.1583333, "longitude":24.7890896, "population":1}, 
{"name":"Pikuškės", "state":"Alytus", "country":"Lithuania", "latitude":54.4856254, "longitude":24.3152764, "population":3}, 
{"name":"Piliakalnis", "state":"Alytus", "country":"Lithuania", "latitude":54.2650803, "longitude":24.0959665, "population":17}, 
{"name":"Pilvingiai", "state":"Alytus", "country":"Lithuania", "latitude":54.2420915, "longitude":24.2768147, "population":172}, 
{"name":"Pirčiupiai", "state":"Alytus", "country":"Lithuania", "latitude":54.3938449, "longitude":24.9620551, "population":75}, 
{"name":"Pivašiūnai", "state":"Alytus", "country":"Lithuania", "latitude":54.4601094, "longitude":24.3776328, "population":292}, 
{"name":"Plasapninkai", "state":"Alytus", "country":"Lithuania", "latitude":54.5271781, "longitude":24.2291239, "population":89}, 
{"name":"Plenta", "state":"Alytus", "country":"Lithuania", "latitude":54.2648821, "longitude":23.961161, "population":26}, 
{"name":"Plikionys", "state":"Alytus", "country":"Lithuania", "latitude":54.3015987, "longitude":24.177521, "population":17}, 
{"name":"Pocelonys", "state":"Alytus", "country":"Lithuania", "latitude":54.3573401, "longitude":24.2608518, "population":100}, 
{"name":"Pociūniškės", "state":"Alytus", "country":"Lithuania", "latitude":54.2945012, "longitude":24.2683814, "population":13}, 
{"name":"Podubičiai", "state":"Alytus", "country":"Lithuania", "latitude":54.0319705, "longitude":24.7724231, "population":3}, 
{"name":"Ponkiškiai", "state":"Alytus", "country":"Lithuania", "latitude":54.3523891, "longitude":23.695629, "population":67}, 
{"name":"Pošalčiai", "state":"Alytus", "country":"Lithuania", "latitude":54.331096, "longitude":24.8525712, "population":51}, 
{"name":"Pošnia", "state":"Alytus", "country":"Lithuania", "latitude":54.3770393, "longitude":23.8362162, "population":51}, 
{"name":"Pošnia", "state":"Alytus", "country":"Lithuania", "latitude":54.2425423, "longitude":23.8155422, "population":25}, 
{"name":"Poteronys", "state":"Alytus", "country":"Lithuania", "latitude":54.3610999, "longitude":24.1483244, "population":70}, 
{"name":"Praniūnai", "state":"Alytus", "country":"Lithuania", "latitude":54.4698785, "longitude":24.0421199, "population":193}, 
{"name":"Prapuntai", "state":"Alytus", "country":"Lithuania", "latitude":54.2011311, "longitude":23.6790591, "population":24}, 
{"name":"Prauda", "state":"Alytus", "country":"Lithuania", "latitude":54.0965123, "longitude":24.7466216, "population":5}, 
{"name":"Prelomčiškė", "state":"Alytus", "country":"Lithuania", "latitude":54.3114744, "longitude":23.6393176, "population":13}, 
{"name":"Pryga", "state":"Alytus", "country":"Lithuania", "latitude":54.3133063, "longitude":23.6237964, "population":55}, 
{"name":"Pūčkornės", "state":"Alytus", "country":"Lithuania", "latitude":54.3641929, "longitude":24.7579716, "population":20}, 
{"name":"Punia", "state":"Alytus", "country":"Lithuania", "latitude":54.510711, "longitude":24.1042365, "population":600}, 
{"name":"Puodžiai", "state":"Alytus", "country":"Lithuania", "latitude":54.3553051, "longitude":24.6395121, "population":322}, 
{"name":"Puodžiškė", "state":"Alytus", "country":"Lithuania", "latitude":54.1285672, "longitude":23.5325556, "population":18}, 
{"name":"Pupasodis", "state":"Alytus", "country":"Lithuania", "latitude":54.2996692, "longitude":23.9312322, "population":142}, 
{"name":"Purpliai", "state":"Alytus", "country":"Lithuania", "latitude":54.1859143, "longitude":24.2971036, "population":2}, 
{"name":"Purveliai", "state":"Alytus", "country":"Lithuania", "latitude":54.291103, "longitude":24.3227486, "population":5}, 
{"name":"Purviniai", "state":"Alytus", "country":"Lithuania", "latitude":54.0149226, "longitude":23.6158243, "population":3}, 
{"name":"Pušėnai", "state":"Alytus", "country":"Lithuania", "latitude":54.4592903, "longitude":24.2003106, "population":14}, 
{"name":"Puvočiai", "state":"Alytus", "country":"Lithuania", "latitude":54.1120085, "longitude":24.3016634, "population":57}, 
{"name":"Puvočiai", "state":"Alytus", "country":"Lithuania", "latitude":54.119157, "longitude":24.2966716, "population":5}, 
{"name":"Radastai", "state":"Alytus", "country":"Lithuania", "latitude":54.4488072, "longitude":23.658737, "population":15}, 
{"name":"Radvilonys", "state":"Alytus", "country":"Lithuania", "latitude":54.1096169, "longitude":23.7223564, "population":76}, 
{"name":"Radvilonys", "state":"Alytus", "country":"Lithuania", "latitude":54.4407334, "longitude":24.19178, "population":20}, 
{"name":"Radvilonys", "state":"Alytus", "country":"Lithuania", "latitude":54.117187, "longitude":23.943817, "population":15}, 
{"name":"Radyščius", "state":"Alytus", "country":"Lithuania", "latitude":54.1277296, "longitude":24.0611167, "population":44}, 
{"name":"Radžiūnai", "state":"Alytus", "country":"Lithuania", "latitude":54.3625147, "longitude":23.9862525, "population":295}, 
{"name":"Radžiūnai", "state":"Alytus", "country":"Lithuania", "latitude":54.4206462, "longitude":24.6438223, "population":4}, 
{"name":"Raganiškė", "state":"Alytus", "country":"Lithuania", "latitude":54.2078099, "longitude":23.8731966, "population":6}, 
{"name":"Raganiškės", "state":"Alytus", "country":"Lithuania", "latitude":54.4467108, "longitude":24.1378756, "population":11}, 
{"name":"Raičiai", "state":"Alytus", "country":"Lithuania", "latitude":54.2586975, "longitude":23.9177408, "population":41}, 
{"name":"Raitininkai", "state":"Alytus", "country":"Lithuania", "latitude":54.235191, "longitude":24.1236202, "population":24}, 
{"name":"Raitininkai", "state":"Alytus", "country":"Lithuania", "latitude":54.2323798, "longitude":24.1395755, "population":6}, 
{"name":"Raižava", "state":"Alytus", "country":"Lithuania", "latitude":54.4927774, "longitude":24.1966715, "population":7}, 
{"name":"Raižiai", "state":"Alytus", "country":"Lithuania", "latitude":54.4801747, "longitude":24.1869829, "population":107}, 
{"name":"Rakai", "state":"Alytus", "country":"Lithuania", "latitude":53.9740012, "longitude":24.7068018, "population":114}, 
{"name":"Rakatanskai", "state":"Alytus", "country":"Lithuania", "latitude":54.3013182, "longitude":24.300956, "population":15}, 
{"name":"Rakščia", "state":"Alytus", "country":"Lithuania", "latitude":54.3992155, "longitude":24.4525257, "population":2}, 
{"name":"Ramanavas", "state":"Alytus", "country":"Lithuania", "latitude":54.3939357, "longitude":23.4559213, "population":139}, 
{"name":"Randamonys", "state":"Alytus", "country":"Lithuania", "latitude":54.0440836, "longitude":24.1856024, "population":64}, 
{"name":"Randiškė", "state":"Alytus", "country":"Lithuania", "latitude":54.3017761, "longitude":23.591358, "population":30}, 
{"name":"Ratininkai", "state":"Alytus", "country":"Lithuania", "latitude":54.4934719, "longitude":24.3228859, "population":25}, 
{"name":"Ratnyčia", "state":"Alytus", "country":"Lithuania", "latitude":53.9973217, "longitude":24.0227181, "population":4}, 
{"name":"Raubonys", "state":"Alytus", "country":"Lithuania", "latitude":54.4752978, "longitude":24.2060975, "population":40}, 
{"name":"Raudonikiai", "state":"Alytus", "country":"Lithuania", "latitude":54.4587168, "longitude":23.9659355, "population":44}, 
{"name":"Raudonikiai", "state":"Alytus", "country":"Lithuania", "latitude":54.1140533, "longitude":23.9569307, "population":13}, 
{"name":"Razumna", "state":"Alytus", "country":"Lithuania", "latitude":54.1741348, "longitude":24.8091141, "population":25}, 
{"name":"Remeikiai", "state":"Alytus", "country":"Lithuania", "latitude":54.3567664, "longitude":23.8007729, "population":36}, 
{"name":"Remešiškis", "state":"Alytus", "country":"Lithuania", "latitude":54.4778, "longitude":24.32442, "population":10}, 
{"name":"Revai", "state":"Alytus", "country":"Lithuania", "latitude":54.3251056, "longitude":23.9776187, "population":31}, 
{"name":"Ricieliai", "state":"Alytus", "country":"Lithuania", "latitude":54.0798506, "longitude":23.9797801, "population":149}, 
{"name":"Riliškiai", "state":"Alytus", "country":"Lithuania", "latitude":54.1891291, "longitude":24.7522656, "population":25}, 
{"name":"Rimėnai", "state":"Alytus", "country":"Lithuania", "latitude":54.3293402, "longitude":24.3274546, "population":208}, 
{"name":"Rimietis", "state":"Alytus", "country":"Lithuania", "latitude":54.2890649, "longitude":23.5059903, "population":2}, 
{"name":"Ringėliškė", "state":"Alytus", "country":"Lithuania", "latitude":54.052337, "longitude":23.9755736, "population":12}, 
{"name":"Ročkiai", "state":"Alytus", "country":"Lithuania", "latitude":54.2123167, "longitude":23.750938, "population":75}, 
{"name":"Roduka", "state":"Alytus", "country":"Lithuania", "latitude":54.11646, "longitude":24.24529, "population":13}, 
{"name":"Rodžia", "state":"Alytus", "country":"Lithuania", "latitude":54.3922274, "longitude":24.2868912, "population":39}, 
{"name":"Rokančiai", "state":"Alytus", "country":"Lithuania", "latitude":54.2990135, "longitude":24.2855399, "population":10}, 
{"name":"Roliai", "state":"Alytus", "country":"Lithuania", "latitude":54.3214971, "longitude":23.5365771, "population":64}, 
{"name":"Rožučiai", "state":"Alytus", "country":"Lithuania", "latitude":54.3704077, "longitude":23.9351007, "population":28}, 
{"name":"Rūda", "state":"Alytus", "country":"Lithuania", "latitude":54.1146926, "longitude":23.6918997, "population":53}, 
{"name":"Rudamina", "state":"Alytus", "country":"Lithuania", "latitude":54.2890654, "longitude":23.45019, "population":256}, 
{"name":"Rudamina", "state":"Alytus", "country":"Lithuania", "latitude":54.2929088, "longitude":23.4379929, "population":15}, 
{"name":"Rudnia", "state":"Alytus", "country":"Lithuania", "latitude":54.0699522, "longitude":24.6676925, "population":74}, 
{"name":"Rudnia", "state":"Alytus", "country":"Lithuania", "latitude":54.0707109, "longitude":24.3052245, "population":1}, 
{"name":"Rudnia", "state":"Alytus", "country":"Lithuania", "latitude":54.4044749, "longitude":24.496302, "population":3}, 
{"name":"Rudnia", "state":"Alytus", "country":"Lithuania", "latitude":54.1838758, "longitude":24.112184, "population":2}, 
{"name":"Rumbonys", "state":"Alytus", "country":"Lithuania", "latitude":54.4654938, "longitude":24.0539995, "population":37}, 
{"name":"Rūsingė", "state":"Alytus", "country":"Lithuania", "latitude":54.1339557, "longitude":24.0924085, "population":23}, 
{"name":"Rusonys", "state":"Alytus", "country":"Lithuania", "latitude":54.1471916, "longitude":23.8112062, "population":37},