{"name":"Luxembourg","state":"Luxembourg","territory":"","country":"Luxembourg","latitude":49.6112768,"longitude":6.129799,"population":95058,"stateCapital":true,"nationalCapital":true}, 
{"name":"Esch-sur-Alzette","state":"Esch-sur-Alzette","territory":"","country":"Luxembourg","latitude":49.4959628,"longitude":5.9850306,"population":30125,"stateCapital":true}, 
{"name":"Dudelange","state":"Esch-sur-Alzette","territory":"","country":"Luxembourg","latitude":49.4786477,"longitude":6.0847792,"population":18781}, 
{"name":"Schifflange","state":"Esch-sur-Alzette","territory":"","country":"Luxembourg","latitude":49.5062732,"longitude":6.0118175,"population":8922}, 
{"name":"Pétange","state":"Esch-sur-Alzette","territory":"","country":"Luxembourg","latitude":49.5566918,"longitude":5.8776052,"population":7968}, 
{"name":"Bettembourg","state":"Esch-sur-Alzette","territory":"","country":"Luxembourg","latitude":49.5173351,"longitude":6.0966536,"population":7819}, 
{"name":"Strassen","state":"Luxembourg","territory":"","country":"Luxembourg","latitude":49.6196726,"longitude":6.0721393,"population":7399}, 
{"name":"Ettelbruck","state":"Diekirch","territory":"","country":"Luxembourg","latitude":49.8470016,"longitude":6.0984659,"population":6624}, 
{"name":"Diekirch","state":"Diekirch","territory":"","country":"Luxembourg","latitude":49.8690898,"longitude":6.1600549,"population":6318,"stateCapital":true}, 
{"name":"Bertrange","state":"Luxembourg","territory":"","country":"Luxembourg","latitude":49.6106029,"longitude":6.0501598,"population":6213}, 
{"name":"Fousbann","state":"Esch-sur-Alzette","territory":"","country":"Luxembourg","latitude":49.5342076,"longitude":5.8627302,"population":6185}, 
{"name":"Niederkorn","state":"Esch-sur-Alzette","territory":"","country":"Luxembourg","latitude":49.5366182,"longitude":5.8899436,"population":6056}, 
{"name":"Belvaux","state":"Esch-sur-Alzette","territory":"","country":"Luxembourg","latitude":49.5128101,"longitude":5.9354153,"population":5661}, 
{"name":"Rodange","state":"Esch-sur-Alzette","territory":"","country":"Luxembourg","latitude":49.5446067,"longitude":5.839409,"population":5620}, 
{"name":"Differdange","state":"Esch-sur-Alzette","territory":"","country":"Luxembourg","latitude":49.5208469,"longitude":5.889242,"population":5564}, 
{"name":"Mamer","state":"Capellen","territory":"","country":"Luxembourg","latitude":49.6266028,"longitude":6.0229288,"population":5534,"stateCapital":true}, 
{"name":"Soleuvre","state":"Esch-sur-Alzette","territory":"","country":"Luxembourg","latitude":49.5207381,"longitude":5.9410195,"population":5443}, 
{"name":"Echternach","state":"Echternach","territory":"","country":"Luxembourg","latitude":49.8120961,"longitude":6.4214859,"population":5336,"stateCapital":true}, 
{"name":"Bascharage","state":"Capellen","territory":"","country":"Luxembourg","latitude":49.5712686,"longitude":5.912845,"population":5284}, 
{"name":"Howald","state":"Luxembourg","territory":"","country":"Luxembourg","latitude":49.582147,"longitude":6.1443593,"population":5113}, 
{"name":"Rumelange","state":"Esch-sur-Alzette","territory":"","country":"Luxembourg","latitude":49.461113,"longitude":6.0307171,"population":5038}, 
{"name":"Wiltz","state":"Wiltz","territory":"","country":"Luxembourg","latitude":49.9666914,"longitude":5.9321021,"population":4906,"stateCapital":true}, 
{"name":"Kayl","state":"Esch-sur-Alzette","territory":"","country":"Luxembourg","latitude":49.4861302,"longitude":6.041472,"population":4581}, 
{"name":"Grevenmacher","state":"Grevenmacher","territory":"","country":"Luxembourg","latitude":49.679313,"longitude":6.4430979,"population":4368,"stateCapital":true}, 
{"name":"Bereldange","state":"Luxembourg","territory":"","country":"Luxembourg","latitude":49.6552606,"longitude":6.1215966,"population":3961}, 
{"name":"Oberkorn","state":"Esch-sur-Alzette","territory":"","country":"Luxembourg","latitude":49.5135907,"longitude":5.8947993,"population":3718}, 
{"name":"Mersch","state":"Mersch","territory":"","country":"Luxembourg","latitude":49.7506746,"longitude":6.1066591,"population":3547,"stateCapital":true}, 
{"name":"Mondorf-les-Bains","state":"Remich","territory":"","country":"Luxembourg","latitude":49.5071747,"longitude":6.2814238,"population":3414}, 
{"name":"Remich","state":"Remich","territory":"","country":"Luxembourg","latitude":49.5442267,"longitude":6.3676062,"population":3332,"stateCapital":true}, 
{"name":"Mondercange","state":"Esch-sur-Alzette","territory":"","country":"Luxembourg","latitude":49.5320813,"longitude":5.9870253,"population":3296}, 
{"name":"Tétange","state":"Esch-sur-Alzette","territory":"","country":"Luxembourg","latitude":49.4728607,"longitude":6.0401965,"population":3186}, 
{"name":"Sandweiler","state":"Luxembourg","territory":"","country":"Luxembourg","latitude":49.616081,"longitude":6.2173651,"population":3054}, 
{"name":"Bissen","state":"Mersch","territory":"","country":"Luxembourg","latitude":49.7891516,"longitude":6.0662981,"population":2784}, 
{"name":"Wasserbillig","state":"Grevenmacher","territory":"","country":"Luxembourg","latitude":49.7143407,"longitude":6.5013499,"population":2627}, 
{"name":"Junglinster","state":"Grevenmacher","territory":"","country":"Luxembourg","latitude":49.7118482,"longitude":6.2522878,"population":2579}, 
{"name":"Sanem","state":"Esch-sur-Alzette","territory":"","country":"Luxembourg","latitude":49.5476008,"longitude":5.9272714,"population":2513}, 
{"name":"Lamadelaine","state":"Esch-sur-Alzette","territory":"","country":"Luxembourg","latitude":49.5484042,"longitude":5.8550303,"population":2497}, 
{"name":"Bridel","state":"Capellen","territory":"","country":"Luxembourg","latitude":49.6571427,"longitude":6.0811313,"population":2394}, 
{"name":"Helmsange","state":"Luxembourg","territory":"","country":"Luxembourg","latitude":49.6626463,"longitude":6.1370064,"population":2325}, 
{"name":"Hesperange","state":"Luxembourg","territory":"","country":"Luxembourg","latitude":49.5729552,"longitude":6.1615727,"population":2279}, 
{"name":"Fentange","state":"Luxembourg","territory":"","country":"Luxembourg","latitude":49.5673921,"longitude":6.1516345,"population":2223}, 
{"name":"Steinfort","state":"Capellen","territory":"","country":"Luxembourg","latitude":49.6597539,"longitude":5.914723,"population":2221}, 
{"name":"Leudelange","state":"Esch-sur-Alzette","territory":"","country":"Luxembourg","latitude":49.5660842,"longitude":6.0673211,"population":2148}, 
{"name":"Beaufort","state":"Echternach","territory":"","country":"Luxembourg","latitude":49.8350416,"longitude":6.2898933,"population":2040}, 
{"name":"Itzig","state":"Luxembourg","territory":"","country":"Luxembourg","latitude":49.5869326,"longitude":6.1723065,"population":1999}, 
{"name":"Lintgen","state":"Mersch","territory":"","country":"Luxembourg","latitude":49.7223176,"longitude":6.1278945,"population":1999}, 
{"name":"Steinsel","state":"Luxembourg","territory":"","country":"Luxembourg","latitude":49.677469,"longitude":6.1244736,"population":1970}, 
{"name":"Colmar-Berg","state":"Mersch","territory":"","country":"Luxembourg","latitude":49.811143,"longitude":6.0910235,"population":1919}, 
{"name":"Kehlen","state":"Capellen","territory":"","country":"Luxembourg","latitude":49.6675477,"longitude":6.0357089,"population":1911}, 
{"name":"Rollingen","state":"Mersch","territory":"","country":"Luxembourg","latitude":49.7412519,"longitude":6.1136685,"population":1885}, 
{"name":"Eischen","state":"Capellen","territory":"","country":"Luxembourg","latitude":49.6831417,"longitude":5.8767201,"population":1797}, 
{"name":"Clemency","state":"Capellen","territory":"","country":"Luxembourg","latitude":49.5977737,"longitude":5.8749722,"population":1767}, 
{"name":"Mertzig","state":"Diekirch","territory":"","country":"Luxembourg","latitude":49.8309168,"longitude":6.0041083,"population":1746}, 
{"name":"Vianden","state":"Vianden","territory":"","country":"Luxembourg","latitude":49.9336976,"longitude":6.2066715,"population":1731,"stateCapital":true}, 
{"name":"Alzingen","state":"Luxembourg","territory":"","country":"Luxembourg","latitude":49.5677751,"longitude":6.1650753,"population":1721}, 
{"name":"Heisdorf","state":"Luxembourg","territory":"","country":"Luxembourg","latitude":49.6689165,"longitude":6.1409392,"population":1704}, 
{"name":"Frisange","state":"Esch-sur-Alzette","territory":"","country":"Luxembourg","latitude":49.5144142,"longitude":6.1903089,"population":1693}, 
{"name":"Gonderange","state":"Grevenmacher","territory":"","country":"Luxembourg","latitude":49.692659,"longitude":6.2443508,"population":1652}, 
{"name":"Hautcharage","state":"Capellen","territory":"","country":"Luxembourg","latitude":49.5758993,"longitude":5.9098031,"population":1634}, 
{"name":"Troisvierges","state":"Clervaux","territory":"","country":"Luxembourg","latitude":50.1212652,"longitude":6.0020737,"population":1617}, 
{"name":"Larochette","state":"Mersch","territory":"","country":"Luxembourg","latitude":49.7869673,"longitude":6.2189134,"population":1606}, 
{"name":"Bergem","state":"Esch-sur-Alzette","territory":"","country":"Luxembourg","latitude":49.5266724,"longitude":6.0402541,"population":1502}, 
{"name":"Schieren","state":"Diekirch","territory":"","country":"Luxembourg","latitude":49.8300396,"longitude":6.096622,"population":1497}, 
{"name":"Roodt-Syr","state":"Grevenmacher","territory":"","country":"Luxembourg","latitude":49.6655564,"longitude":6.3020341,"population":1477}, 
{"name":"Aspelt","state":"Esch-sur-Alzette","territory":"","country":"Luxembourg","latitude":49.5219947,"longitude":6.2251304,"population":1451}, 
{"name":"Niederanven","state":"Luxembourg","territory":"","country":"Luxembourg","latitude":49.6512224,"longitude":6.2552342,"population":1428}, 
{"name":"Dalheim","state":"Remich","territory":"","country":"Luxembourg","latitude":49.5433592,"longitude":6.2601063,"population":1427}, 
{"name":"Senningerberg","state":"Luxembourg","territory":"","country":"Luxembourg","latitude":49.649554,"longitude":6.2262751,"population":1378}, 
{"name":"Capellen","state":"Capellen","territory":"","country":"Luxembourg","latitude":49.6453476,"longitude":5.9876235,"population":1351}, 
{"name":"Olm","state":"Capellen","territory":"","country":"Luxembourg","latitude":49.6570286,"longitude":5.9993613,"population":1332}, 
{"name":"Redange-sur-Attert","state":"Redange","territory":"","country":"Luxembourg","latitude":49.7650714,"longitude":5.8914033,"population":1317,"stateCapital":true}, 
{"name":"Hobscheid","state":"Capellen","territory":"","country":"Luxembourg","latitude":49.687813,"longitude":5.9139276,"population":1299}, 
{"name":"Canach","state":"Remich","territory":"","country":"Luxembourg","latitude":49.6078937,"longitude":6.3215061,"population":1296}, 
{"name":"Medernach","state":"Diekirch","territory":"","country":"Luxembourg","latitude":49.8090012,"longitude":6.2147878,"population":1285}, 
{"name":"Crauthem","state":"Esch-sur-Alzette","territory":"","country":"Luxembourg","latitude":49.536796,"longitude":6.1456556,"population":1277}, 
{"name":"Consdorf","state":"Echternach","territory":"","country":"Luxembourg","latitude":49.7798323,"longitude":6.3382466,"population":1275}, 
{"name":"Contern","state":"Luxembourg","territory":"","country":"Luxembourg","latitude":49.5858294,"longitude":6.2262883,"population":1273}, 
{"name":"Niederfeulen","state":"Diekirch","territory":"","country":"Luxembourg","latitude":49.8554676,"longitude":6.0457528,"population":1272}, 
{"name":"Moutfort","state":"Luxembourg","territory":"","country":"Luxembourg","latitude":49.5860644,"longitude":6.2597756,"population":1256}, 
{"name":"Schouweiler","state":"Capellen","territory":"","country":"Luxembourg","latitude":49.5807667,"longitude":5.9573114,"population":1226}, 
{"name":"Mertert","state":"Grevenmacher","territory":"","country":"Luxembourg","latitude":49.7002005,"longitude":6.4815968,"population":1225}, 
{"name":"Warken","state":"Diekirch","territory":"","country":"Luxembourg","latitude":49.8594777,"longitude":6.0901686,"population":1207}, 
{"name":"Schrassig","state":"Luxembourg","territory":"","country":"Luxembourg","latitude":49.6107061,"longitude":6.2558038,"population":1152}, 
{"name":"Koerich","state":"Capellen","territory":"","country":"Luxembourg","latitude":49.6697542,"longitude":5.949443,"population":1143}, 
{"name":"Schuttrange","state":"Luxembourg","territory":"","country":"Luxembourg","latitude":49.6226683,"longitude":6.2714312,"population":1143}, 
{"name":"Hagen","state":"Capellen","territory":"","country":"Luxembourg","latitude":49.6491861,"longitude":5.9310772,"population":1132}, 
{"name":"Clervaux","state":"Clervaux","territory":"","country":"Luxembourg","latitude":50.0547912,"longitude":6.0275511,"population":1119,"stateCapital":true}, 
{"name":"Garnich","state":"Capellen","territory":"","country":"Luxembourg","latitude":49.6141671,"longitude":5.9506057,"population":1115}, 
{"name":"Berdorf","state":"Echternach","territory":"","country":"Luxembourg","latitude":49.822329,"longitude":6.35096,"population":1088}, 
{"name":"Beringen","state":"Mersch","territory":"","country":"Luxembourg","latitude":49.7604285,"longitude":6.1162028,"population":1070}, 
{"name":"Bettendorf","state":"Diekirch","territory":"","country":"Luxembourg","latitude":49.8756671,"longitude":6.2171675,"population":1066}, 
{"name":"Erpeldange","state":"Diekirch","territory":"","country":"Luxembourg","latitude":49.8628748,"longitude":6.114372,"population":1063}, 
{"name":"Mullendorf","state":"Luxembourg","territory":"","country":"Luxembourg","latitude":49.6812881,"longitude":6.12554,"population":1043}, 
{"name":"Pontpierre","state":"Esch-sur-Alzette","territory":"","country":"Luxembourg","latitude":49.5344949,"longitude":6.0294737,"population":1032}, 
{"name":"Bettange-sur-Mess","state":"Capellen","territory":"","country":"Luxembourg","latitude":49.5750478,"longitude":5.9842427,"population":1030}, 
{"name":"Gilsdorf","state":"Diekirch","territory":"","country":"Luxembourg","latitude":49.8664616,"longitude":6.1823104,"population":1005}, 
{"name":"Roeser","state":"Esch-sur-Alzette","territory":"","country":"Luxembourg","latitude":49.5423193,"longitude":6.1471163,"population":1004}, 
{"name":"Berchem","state":"Esch-sur-Alzette","territory":"","country":"Luxembourg","latitude":49.5398315,"longitude":6.1295194,"population":1003}, 
{"name":"Bofferdange","state":"Mersch","territory":"","country":"Luxembourg","latitude":49.6885664,"longitude":6.140782,"population":994}, 
{"name":"Noertzange","state":"Esch-sur-Alzette","territory":"","country":"Luxembourg","latitude":49.5086667,"longitude":6.0531258,"population":986}, 
{"name":"Kleinbettingen","state":"Capellen","territory":"","country":"Luxembourg","latitude":49.6446539,"longitude":5.9154984,"population":956}, 
{"name":"Walferdange","state":"Luxembourg","territory":"","country":"Luxembourg","latitude":49.6584806,"longitude":6.1306387,"population":954}, 
{"name":"Lorentzweiler","state":"Mersch","territory":"","country":"Luxembourg","latitude":49.7011902,"longitude":6.1440065,"population":930}, 
{"name":"Mensdorf","state":"Grevenmacher","territory":"","country":"Luxembourg","latitude":49.6550468,"longitude":6.3028809,"population":917}, 
{"name":"Dippach","state":"Capellen","territory":"","country":"Luxembourg","latitude":49.587507,"longitude":5.9814794,"population":914}, 
{"name":"Wormeldange","state":"Grevenmacher","territory":"","country":"Luxembourg","latitude":49.6120221,"longitude":6.4059607,"population":910}, 
{"name":"Hosingen","state":"Clervaux","territory":"","country":"Luxembourg","latitude":50.0143519,"longitude":6.0910943,"population":893}, 
{"name":"Weiswampach","state":"Clervaux","territory":"","country":"Luxembourg","latitude":50.139719,"longitude":6.0753153,"population":884}, 
{"name":"Berbourg","state":"Grevenmacher","territory":"","country":"Luxembourg","latitude":49.7342731,"longitude":6.3930416,"population":872}, 
{"name":"Nospelt","state":"Capellen","territory":"","country":"Luxembourg","latitude":49.6745371,"longitude":6.0079507,"population":855}, 
{"name":"Ehlerange","state":"Esch-sur-Alzette","territory":"","country":"Luxembourg","latitude":49.5233302,"longitude":5.9645461,"population":853}, 
{"name":"Bivange","state":"Esch-sur-Alzette","territory":"","country":"Luxembourg","latitude":49.5455084,"longitude":6.1335439,"population":850}, 
{"name":"Vichten","state":"Redange","territory":"","country":"Luxembourg","latitude":49.8025509,"longitude":5.9963314,"population":848}, 
{"name":"Stadtbredimus","state":"Remich","territory":"","country":"Luxembourg","latitude":49.5650843,"longitude":6.3634808,"population":840}, 
{"name":"Weiler-la-Tour","state":"Luxembourg","territory":"","country":"Luxembourg","latitude":49.5416974,"longitude":6.1995573,"population":818}, 
{"name":"Reckange-sur-Mess","state":"Esch-sur-Alzette","territory":"","country":"Luxembourg","latitude":49.5611874,"longitude":6.0093091,"population":814}, 
{"name":"Rameldange","state":"Luxembourg","territory":"","country":"Luxembourg","latitude":49.6640315,"longitude":6.2305663,"population":800}, 
{"name":"Rosport","state":"Echternach","territory":"","country":"Luxembourg","latitude":49.8047635,"longitude":6.5014359,"population":793}, 
{"name":"Oetrange","state":"Luxembourg","territory":"","country":"Luxembourg","latitude":49.6000724,"longitude":6.2600198,"population":781}, 
{"name":"Grosbous","state":"Redange","territory":"","country":"Luxembourg","latitude":49.8275648,"longitude":5.9644035,"population":774}, 
{"name":"Ingeldorf","state":"Diekirch","territory":"","country":"Luxembourg","latitude":49.8532419,"longitude":6.1340641,"population":773}, 
{"name":"Tuntange","state":"Mersch","territory":"","country":"Luxembourg","latitude":49.7156626,"longitude":6.0137438,"population":767}, 
{"name":"Heffingen","state":"Mersch","territory":"","country":"Luxembourg","latitude":49.7707883,"longitude":6.2405201,"population":758}, 
{"name":"Biwer","state":"Grevenmacher","territory":"","country":"Luxembourg","latitude":49.7058978,"longitude":6.3729847,"population":744}, 
{"name":"Perlé","state":"Redange","territory":"","country":"Luxembourg","latitude":49.8092862,"longitude":5.7651071,"population":737}, 
{"name":"Useldange","state":"Redange","territory":"","country":"Luxembourg","latitude":49.7696681,"longitude":5.9815427,"population":737}, 
{"name":"Brouch","state":"Mersch","territory":"","country":"Luxembourg","latitude":49.7353096,"longitude":6.0210028,"population":732}, 
{"name":"Greiveldange","state":"Remich","territory":"","country":"Luxembourg","latitude":49.5860848,"longitude":6.3595781,"population":716}, 
{"name":"Oberanven","state":"Luxembourg","territory":"","country":"Luxembourg","latitude":49.6573221,"longitude":6.2447955,"population":705}, 
{"name":"Kopstal","state":"Capellen","territory":"","country":"Luxembourg","latitude":49.6645077,"longitude":6.0731924,"population":703}, 
{"name":"Reckange","state":"Mersch","territory":"","country":"Luxembourg","latitude":49.7489257,"longitude":6.0810682,"population":702}, 
{"name":"Elvange","state":"Remich","territory":"","country":"Luxembourg","latitude":49.505652,"longitude":6.3155651,"population":699}, 
{"name":"Boevange-Attert","state":"Mersch","territory":"","country":"Luxembourg","latitude":49.7757093,"longitude":6.0127253,"population":679}, 
{"name":"Beckerich","state":"Redange","territory":"","country":"Luxembourg","latitude":49.7307067,"longitude":5.8830092,"population":671}, 
{"name":"Altwies","state":"Remich","territory":"","country":"Luxembourg","latitude":49.5106707,"longitude":6.2564471,"population":671}, 
{"name":"Bourglinster","state":"Grevenmacher","territory":"","country":"Luxembourg","latitude":49.7031723,"longitude":6.2175255,"population":639}, 
{"name":"Uebersyren","state":"Luxembourg","territory":"","country":"Luxembourg","latitude":49.6318394,"longitude":6.2770155,"population":639}, 
{"name":"Helmdange","state":"Mersch","territory":"","country":"Luxembourg","latitude":49.6926081,"longitude":6.1416258,"population":637}, 
{"name":"Reisdorf","state":"Diekirch","territory":"","country":"Luxembourg","latitude":49.8673199,"longitude":6.2658927,"population":628}, 
{"name":"Peppange","state":"Esch-sur-Alzette","territory":"","country":"Luxembourg","latitude":49.524866,"longitude":6.1324772,"population":628}, 
{"name":"Remerschen","state":"Remich","territory":"","country":"Luxembourg","latitude":49.4885953,"longitude":6.3518205,"population":626}, 
{"name":"Goeblange","state":"Capellen","territory":"","country":"Luxembourg","latitude":49.6696674,"longitude":5.9644045,"population":622}, 
{"name":"Hellange","state":"Esch-sur-Alzette","territory":"","country":"Luxembourg","latitude":49.509256,"longitude":6.1479566,"population":606}, 
{"name":"Steinheim","state":"Echternach","territory":"","country":"Luxembourg","latitude":49.8182577,"longitude":6.4756659,"population":592}, 
{"name":"Marnach","state":"Clervaux","territory":"","country":"Luxembourg","latitude":50.0535944,"longitude":6.0621006,"population":591}, 
{"name":"Bous","state":"Remich","territory":"","country":"Luxembourg","latitude":49.5557996,"longitude":6.3312468,"population":590}, 
{"name":"Holzem","state":"Capellen","territory":"","country":"Luxembourg","latitude":49.615754,"longitude":5.9911426,"population":588}, 
{"name":"Huncherange","state":"Esch-sur-Alzette","territory":"","country":"Luxembourg","latitude":49.5169484,"longitude":6.0633888,"population":587}, 
{"name":"Christnach","state":"Echternach","territory":"","country":"Luxembourg","latitude":49.7890058,"longitude":6.2739808,"population":579}, 
{"name":"Linger","state":"Capellen","territory":"","country":"Luxembourg","latitude":49.5648801,"longitude":5.8858425,"population":577}, 
{"name":"Eschdorf","state":"Wiltz","territory":"","country":"Luxembourg","latitude":49.884479,"longitude":5.9348124,"population":576}, 
{"name":"Bech-Kleinmacher","state":"Remich","territory":"","country":"Luxembourg","latitude":49.5317776,"longitude":6.3541214,"population":570}, 
{"name":"Manternach","state":"Grevenmacher","territory":"","country":"Luxembourg","latitude":49.7071605,"longitude":6.4243373,"population":563}, 
{"name":"Syren","state":"Luxembourg","territory":"","country":"Luxembourg","latitude":49.563559,"longitude":6.2195943,"population":562}, 
{"name":"Munsbach","state":"Luxembourg","territory":"","country":"Luxembourg","latitude":49.6319031,"longitude":6.2672692,"population":560}, 
{"name":"Wellenstein","state":"Remich","territory":"","country":"Luxembourg","latitude":49.5248352,"longitude":6.342525,"population":556}, 
{"name":"Bigonville","state":"Redange","territory":"","country":"Luxembourg","latitude":49.8498408,"longitude":5.7923719,"population":550}, 
{"name":"Hassel","state":"Luxembourg","territory":"","country":"Luxembourg","latitude":49.5515468,"longitude":6.2065685,"population":549}, 
{"name":"Schengen","state":"Remich","territory":"","country":"Luxembourg","latitude":49.4716,"longitude":6.3659008,"population":548}, 
{"name":"Platen","state":"Redange","territory":"","country":"Luxembourg","latitude":49.7932083,"longitude":5.935136,"population":543}, 
{"name":"Heinerscheid","state":"Clervaux","territory":"","country":"Luxembourg","latitude":50.0943633,"longitude":6.087004,"population":541}, 
{"name":"Keispelt","state":"Capellen","territory":"","country":"Luxembourg","latitude":49.6943078,"longitude":6.0683638,"population":536}, 
{"name":"Cruchten","state":"Mersch","territory":"","country":"Luxembourg","latitude":49.7996586,"longitude":6.1312383,"population":536}, 
{"name":"Blaschette","state":"Mersch","territory":"","country":"Luxembourg","latitude":49.7019674,"longitude":6.1677816,"population":531}, 
{"name":"Heiderscheid","state":"Wiltz","territory":"","country":"Luxembourg","latitude":#N/A,"longitude":#N/A,"population":531}, 
{"name":"Noerdange","state":"Redange","territory":"","country":"Luxembourg","latitude":49.7418119,"longitude":5.9241757,"population":510}, 
{"name":"Erpeldange","state":"Remich","territory":"","country":"Luxembourg","latitude":49.5455492,"longitude":6.3273928,"population":507}, 
{"name":"Gosseldange","state":"Mersch","territory":"","country":"Luxembourg","latitude":49.7241218,"longitude":6.1154456,"population":503}, 
{"name":"Boulaide","state":"Wiltz","territory":"","country":"Luxembourg","latitude":49.8869853,"longitude":5.8151538,"population":495}, 
{"name":"Ehlange","state":"Esch-sur-Alzette","territory":"","country":"Luxembourg","latitude":49.5481442,"longitude":6.0156756,"population":490}, 
{"name":"Flaxweiler","state":"Grevenmacher","territory":"","country":"Luxembourg","latitude":49.6663359,"longitude":6.341955,"population":488}, 
{"name":"Bastendorf","state":"Vianden","territory":"","country":"Luxembourg","latitude":49.8907959,"longitude":6.1642081,"population":488}, 
{"name":"Godbrange","state":"Grevenmacher","territory":"","country":"Luxembourg","latitude":49.7348105,"longitude":6.2305532,"population":483}, 
{"name":"Wecker-Gare","state":"Grevenmacher","territory":"","country":"Luxembourg","latitude":49.7014899,"longitude":6.3911993,"population":461}, 
{"name":"Burden","state":"Diekirch","territory":"","country":"Luxembourg","latitude":49.8822678,"longitude":6.0974931,"population":459}, 
{"name":"Olingen","state":"Grevenmacher","territory":"","country":"Luxembourg","latitude":49.6807764,"longitude":6.3158164,"population":453}, 
{"name":"Scheidgen","state":"Echternach","territory":"","country":"Luxembourg","latitude":49.7805908,"longitude":6.3602739,"population":445}, 
{"name":"Ehnen","state":"Grevenmacher","territory":"","country":"Luxembourg","latitude":49.6020397,"longitude":6.3866958,"population":445}, 
{"name":"Harlange","state":"Wiltz","territory":"","country":"Luxembourg","latitude":49.9313844,"longitude":5.7876377,"population":443}, 
{"name":"Hunsdorf","state":"Mersch","territory":"","country":"Luxembourg","latitude":49.696364,"longitude":6.1303632,"population":439}, 
{"name":"Everlange","state":"Redange","territory":"","country":"Luxembourg","latitude":49.7748444,"longitude":5.954446,"population":437}, 
{"name":"Buschdorf","state":"Mersch","territory":"","country":"Luxembourg","latitude":49.7509296,"longitude":6.0065355,"population":436}, 
{"name":"Goetzingen","state":"Capellen","territory":"","country":"Luxembourg","latitude":49.6598447,"longitude":5.9812219,"population":435}, 
{"name":"Oberpallen","state":"Redange","territory":"","country":"Luxembourg","latitude":49.7311188,"longitude":5.8408299,"population":434}, 
{"name":"Waldbillig","state":"Echternach","territory":"","country":"Luxembourg","latitude":49.7952998,"longitude":6.2865589,"population":432}, 
{"name":"Niederpallen","state":"Redange","territory":"","country":"Luxembourg","latitude":49.7544254,"longitude":5.9116659,"population":432}, 
{"name":"Pratz","state":"Redange","territory":"","country":"Luxembourg","latitude":49.8023544,"longitude":5.9371695,"population":431}, 
{"name":"Stegen","state":"Diekirch","territory":"","country":"Luxembourg","latitude":49.8294011,"longitude":6.1704715,"population":430}, 
{"name":"Ell","state":"Redange","territory":"","country":"Luxembourg","latitude":49.7628457,"longitude":5.854027,"population":422}, 
{"name":"Wolwelange","state":"Redange","territory":"","country":"Luxembourg","latitude":49.8278112,"longitude":5.7638754,"population":421}, 
{"name":"Senningen","state":"Luxembourg","territory":"","country":"Luxembourg","latitude":49.6461134,"longitude":6.239363,"population":419}, 
{"name":"Wintrange","state":"Remich","territory":"","country":"Luxembourg","latitude":49.5014547,"longitude":6.3512706,"population":419}, 
{"name":"Moestroff","state":"Diekirch","territory":"","country":"Luxembourg","latitude":49.8677927,"longitude":6.2377274,"population":418}, 
{"name":"Huldange","state":"Clervaux","territory":"","country":"Luxembourg","latitude":50.1637143,"longitude":6.014087,"population":417}, 
{"name":"Hoscheid","state":"Clervaux","territory":"","country":"Luxembourg","latitude":49.9492448,"longitude":6.0813652,"population":416}, 
{"name":"Gostingen","state":"Grevenmacher","territory":"","country":"Luxembourg","latitude":49.6213981,"longitude":6.3540451,"population":414}, 
{"name":"Dahlem","state":"Capellen","territory":"","country":"Luxembourg","latitude":49.5978119,"longitude":5.9461806,"population":412}, 
{"name":"Eselborn","state":"Clervaux","territory":"","country":"Luxembourg","latitude":50.0624375,"longitude":6.0015233,"population":412}, 
{"name":"Lasauvage","state":"Esch-sur-Alzette","territory":"","country":"Luxembourg","latitude":49.5221314,"longitude":5.8358283,"population":412}, 
{"name":"Angelsberg","state":"Mersch","territory":"","country":"Luxembourg","latitude":49.7648732,"longitude":6.1620138,"population":412}, 
{"name":"Fingig","state":"Capellen","territory":"","country":"Luxembourg","latitude":49.602859,"longitude":5.900194,"population":409}, 
{"name":"Ernzen","state":"Mersch","territory":"","country":"Luxembourg","latitude":49.7719523,"longitude":6.221686,"population":406}, 
{"name":"Rambrouch","state":"Redange","territory":"","country":"Luxembourg","latitude":49.8298505,"longitude":5.8494252,"population":404}, 
{"name":"Bech","state":"Echternach","territory":"","country":"Luxembourg","latitude":49.7520112,"longitude":6.3626568,"population":398}, 
{"name":"Foetz","state":"Esch-sur-Alzette","territory":"","country":"Luxembourg","latitude":49.5219642,"longitude":6.0118671,"population":398}, 
{"name":"Saeul","state":"Redange","territory":"","country":"Luxembourg","latitude":49.7277779,"longitude":5.9854867,"population":397}, 
{"name":"Fouhren","state":"Vianden","territory":"","country":"Luxembourg","latitude":49.9137955,"longitude":6.1951192,"population":386}, 
{"name":"Hostert","state":"Luxembourg","territory":"","country":"Luxembourg","latitude":49.6580055,"longitude":6.2333394,"population":383}, 
{"name":"Hostert","state":"Redange","territory":"","country":"Luxembourg","latitude":49.8101761,"longitude":5.8657938,"population":381}, 
{"name":"Osweiler","state":"Echternach","territory":"","country":"Luxembourg","latitude":49.7857994,"longitude":6.440125,"population":380}, 
{"name":"Bourscheid","state":"Diekirch","territory":"","country":"Luxembourg","latitude":49.9099274,"longitude":6.0645251,"population":378}, 
{"name":"Waldbredimus","state":"Remich","territory":"","country":"Luxembourg","latitude":49.5572304,"longitude":6.287091,"population":376}, 
{"name":"Sprinkange","state":"Capellen","territory":"","country":"Luxembourg","latitude":49.5798472,"longitude":5.9649706,"population":374}, 
{"name":"Moersdorf","state":"Echternach","territory":"","country":"Luxembourg","latitude":49.7450372,"longitude":6.5012604,"population":364}, 
{"name":"Filsdorf","state":"Remich","territory":"","country":"Luxembourg","latitude":49.5346286,"longitude":6.2475073,"population":356}, 
{"name":"Asselborn","state":"Clervaux","territory":"","country":"Luxembourg","latitude":50.0974663,"longitude":5.9721893,"population":355}, 
{"name":"Limpach","state":"Esch-sur-Alzette","territory":"","country":"Luxembourg","latitude":49.5581701,"longitude":5.980019,"population":354}, 
{"name":"Schwebsange","state":"Remich","territory":"","country":"Luxembourg","latitude":49.5108072,"longitude":6.3561931,"population":354}, 
{"name":"Septfontaines","state":"Capellen","territory":"","country":"Luxembourg","latitude":49.7007895,"longitude":5.9665551,"population":351}, 
{"name":"Machtum","state":"Grevenmacher","territory":"","country":"Luxembourg","latitude":49.6590681,"longitude":6.4353938,"population":350}, 
{"name":"Wahlhausen","state":"Clervaux","territory":"","country":"Luxembourg","latitude":49.9848271,"longitude":6.1253081,"population":349}, 
{"name":"Boxhorn","state":"Clervaux","territory":"","country":"Luxembourg","latitude":50.0824172,"longitude":5.9913797,"population":348}, 
{"name":"Niederdonven","state":"Grevenmacher","territory":"","country":"Luxembourg","latitude":49.6334648,"longitude":6.4025808,"population":348}, 
{"name":"Lenningen","state":"Remich","territory":"","country":"Luxembourg","latitude":49.602187,"longitude":6.3667908,"population":348}, 
{"name":"Ermsdorf","state":"Diekirch","territory":"","country":"Luxembourg","latitude":49.8288206,"longitude":6.2214025,"population":347}, 
{"name":"Beyren","state":"Grevenmacher","territory":"","country":"Luxembourg","latitude":49.6306673,"longitude":6.3358677,"population":341}, 
{"name":"Moesdorf","state":"Mersch","territory":"","country":"Luxembourg","latitude":49.7685931,"longitude":6.1148399,"population":340}, 
{"name":"Noertrange","state":"Wiltz","territory":"","country":"Luxembourg","latitude":49.979292,"longitude":5.9094527,"population":338}, 
{"name":"Ospern","state":"Redange","territory":"","country":"Luxembourg","latitude":49.7832892,"longitude":5.9029086,"population":330}, 
{"name":"Derenbach","state":"Clervaux","territory":"","country":"Luxembourg","latitude":50.0138393,"longitude":5.887628,"population":328}, 
{"name":"Esch-sur-Sûre","state":"Wiltz","territory":"","country":"Luxembourg","latitude":49.9112543,"longitude":5.9351159,"population":322}, 
{"name":"Nocher","state":"Wiltz","territory":"","country":"Luxembourg","latitude":49.9462442,"longitude":5.9785252,"population":318}, 
{"name":"Born","state":"Echternach","territory":"","country":"Luxembourg","latitude":49.7596482,"longitude":6.5127637,"population":317}, 
{"name":"Fennange","state":"Esch-sur-Alzette","territory":"","country":"Luxembourg","latitude":49.5187583,"longitude":6.0771412,"population":317}, 
{"name":"Folschette","state":"Redange","territory":"","country":"Luxembourg","latitude":49.8137761,"longitude":5.8735947,"population":316}, 
{"name":"Bettel","state":"Vianden","territory":"","country":"Luxembourg","latitude":49.917164,"longitude":6.2265645,"population":316}, 
{"name":"Oberfeulen","state":"Diekirch","territory":"","country":"Luxembourg","latitude":49.8477461,"longitude":6.0337063,"population":313}, 
{"name":"Roedgen","state":"Esch-sur-Alzette","territory":"","country":"Luxembourg","latitude":49.5741994,"longitude":6.034698,"population":313}, 
{"name":"Arsdorf","state":"Redange","territory":"","country":"Luxembourg","latitude":49.8602932,"longitude":5.8427926,"population":312}, 
{"name":"Schrondweiler","state":"Mersch","territory":"","country":"Luxembourg","latitude":49.805821,"longitude":6.1556417,"population":309}, 
{"name":"Ellange","state":"Remich","territory":"","country":"Luxembourg","latitude":49.5210112,"longitude":6.2977065,"population":308}, 
{"name":"Michelau","state":"Diekirch","territory":"","country":"Luxembourg","latitude":49.8995874,"longitude":6.0903111,"population":306}, 
{"name":"Ernster","state":"Luxembourg","territory":"","country":"Luxembourg","latitude":49.6803532,"longitude":6.2468762,"population":305}, 
{"name":"Hovelange","state":"Redange","territory":"","country":"Luxembourg","latitude":49.7217004,"longitude":5.9065268,"population":305}, 
{"name":"Livange","state":"Esch-sur-Alzette","territory":"","country":"Luxembourg","latitude":49.5307092,"longitude":6.1206081,"population":301}, 
{"name":"Wilwerdange","state":"Clervaux","territory":"","country":"Luxembourg","latitude":50.1394707,"longitude":6.0227585,"population":299}, 
{"name":"Goesdorf","state":"Wiltz","territory":"","country":"Luxembourg","latitude":49.9206113,"longitude":5.9668241,"population":299}, 
{"name":"Troine","state":"Clervaux","territory":"","country":"Luxembourg","latitude":50.0638245,"longitude":5.882146,"population":298}, 
{"name":"Imbringen","state":"Grevenmacher","territory":"","country":"Luxembourg","latitude":49.7000235,"longitude":6.1931571,"population":297}, 
{"name":"Bollendorf-Pont","state":"Echternach","territory":"","country":"Luxembourg","latitude":49.8497881,"longitude":6.3582275,"population":296}, 
{"name":"Nommern","state":"Mersch","territory":"","country":"Luxembourg","latitude":49.7938754,"longitude":6.1737271,"population":295}, 
{"name":"Tarchamps","state":"Wiltz","territory":"","country":"Luxembourg","latitude":49.9502968,"longitude":5.7947753,"population":292}, 
{"name":"Wormeldange-Haut","state":"Grevenmacher","territory":"","country":"Luxembourg","latitude":49.6097402,"longitude":6.4007367,"population":290}, 
{"name":"Lehbusch","state":"Grevenmacher","territory":"","country":"Luxembourg","latitude":49.6039938,"longitude":6.3933295,"population":288}, 
{"name":"Dahl","state":"Wiltz","territory":"","country":"Luxembourg","latitude":49.9350122,"longitude":5.974212,"population":288}, 
{"name":"Trintange","state":"Remich","territory":"","country":"Luxembourg","latitude":49.5714197,"longitude":6.280436,"population":285}, 
{"name":"Haller","state":"Echternach","territory":"","country":"Luxembourg","latitude":49.8197535,"longitude":6.2827266,"population":284}, 
{"name":"Hollenfels","state":"Mersch","territory":"","country":"Luxembourg","latitude":49.7128161,"longitude":6.0483652,"population":280}, 
{"name":"Reuland","state":"Mersch","territory":"","country":"Luxembourg","latitude":49.7525547,"longitude":6.2615784,"population":274}, 
{"name":"Hoffelt","state":"Clervaux","territory":"","country":"Luxembourg","latitude":50.0993086,"longitude":5.9207491,"population":273}, 
{"name":"Wahl","state":"Redange","territory":"","country":"Luxembourg","latitude":49.8356744,"longitude":5.9054353,"population":273}, 
{"name":"Eschweiler","state":"Wiltz","territory":"","country":"Luxembourg","latitude":49.9965829,"longitude":5.9482244,"population":271}, 
{"name":"Grevels / Brattert / Rindschleiden","state":"Redange","territory":"","country":"Luxembourg","latitude":49.8514998,"longitude":5.9136079,"population":268}, 
{"name":"Consthum","state":"Clervaux","territory":"","country":"Luxembourg","latitude":49.9739101,"longitude":6.0525454,"population":262}, 
{"name":"Weilerbach","state":"Echternach","territory":"","country":"Luxembourg","latitude":49.8328511,"longitude":6.383081,"population":260}, 
{"name":"Baschleiden","state":"Wiltz","territory":"","country":"Luxembourg","latitude":49.8994395,"longitude":5.8187084,"population":260}, 
{"name":"Wilwerwiltz","state":"Wiltz","territory":"","country":"Luxembourg","latitude":49.9876952,"longitude":6.0002581,"population":260}, 
{"name":"Eisenbach","state":"Clervaux","territory":"","country":"Luxembourg","latitude":50.0049255,"longitude":6.146208,"population":259}, 
{"name":"Altrier","state":"Echternach","territory":"","country":"Luxembourg","latitude":49.7510661,"longitude":6.3275859,"population":259}, 
{"name":"Knaphoscheid","state":"Wiltz","territory":"","country":"Luxembourg","latitude":50.0119363,"longitude":5.9629051,"population":256}, 
{"name":"Meispelt","state":"Capellen","territory":"","country":"Luxembourg","latitude":49.6905684,"longitude":6.0553641,"population":255}, 
{"name":"Hupperdange","state":"Clervaux","territory":"","country":"Luxembourg","latitude":50.0959489,"longitude":6.0568365,"population":251}, 
{"name":"Erpeldange","state":"Wiltz","territory":"","country":"Luxembourg","latitude":49.9781688,"longitude":5.9477465,"population":249}, 
{"name":"Lieler","state":"Clervaux","territory":"","country":"Luxembourg","latitude":50.1249085,"longitude":6.1090378,"population":242}, 
{"name":"Lipperscheid","state":"Diekirch","territory":"","country":"Luxembourg","latitude":49.9172892,"longitude":6.0852531,"population":239}, 
{"name":"Kockelscheuer","state":"Esch-sur-Alzette","territory":"","country":"Luxembourg","latitude":49.5553859,"longitude":6.1056884,"population":239}, 
{"name":"Bettborn","state":"Redange","territory":"","country":"Luxembourg","latitude":49.7949702,"longitude":5.9393932,"population":238}, 
{"name":"Fischbach","state":"Mersch","territory":"","country":"Luxembourg","latitude":49.7462374,"longitude":6.1866614,"population":235}, 
{"name":"Colpach-Haut","state":"Redange","territory":"","country":"Luxembourg","latitude":49.7673876,"longitude":5.8197833,"population":234}, 
{"name":"Doncols","state":"Wiltz","territory":"","country":"Luxembourg","latitude":49.9734048,"longitude":5.8427834,"population":234}, 
{"name":"Burmerange","state":"Remich","territory":"","country":"Luxembourg","latitude":49.4855145,"longitude":6.3209572,"population":232}, 
{"name":"Holzthum","state":"Clervaux","territory":"","country":"Luxembourg","latitude":49.9850142,"longitude":6.0734226,"population":231}, 
{"name":"Roodt","state":"Redange","territory":"","country":"Luxembourg","latitude":49.7942406,"longitude":5.8217518,"population":230}, 
{"name":"Neuhäusgen","state":"Luxembourg","territory":"","country":"Luxembourg","latitude":49.6235312,"longitude":6.2396728,"population":227}, 
{"name":"Holtz","state":"Redange","territory":"","country":"Luxembourg","latitude":49.8062237,"longitude":5.7903298,"population":227}, 
{"name":"Eppeldorf","state":"Diekirch","territory":"","country":"Luxembourg","latitude":49.8457757,"longitude":6.2478059,"population":223}, 
{"name":"Boevange-Clervaux","state":"Clervaux","territory":"","country":"Luxembourg","latitude":50.048016,"longitude":5.929826,"population":218}, 
{"name":"Betzdorf","state":"Grevenmacher","territory":"","country":"Luxembourg","latitude":49.68738,"longitude":6.3507938,"population":216}, 
{"name":"Rombach","state":"Redange","territory":"","country":"Luxembourg","latitude":49.8341173,"longitude":5.7419097,"population":215}, 
{"name":"Surré","state":"Wiltz","territory":"","country":"Luxembourg","latitude":49.9020779,"longitude":5.7789604,"population":215}, 
{"name":"Kahler","state":"Capellen","territory":"","country":"Luxembourg","latitude":49.6315445,"longitude":5.917651,"population":214}, 
{"name":"Brandenbourg","state":"Vianden","territory":"","country":"Luxembourg","latitude":49.9111152,"longitude":6.1389134,"population":213}, 
{"name":"Beidweiler","state":"Grevenmacher","territory":"","country":"Luxembourg","latitude":49.7282221,"longitude":6.3021683,"population":212}, 
{"name":"Schoenfels","state":"Mersch","territory":"","country":"Luxembourg","latitude":49.7185866,"longitude":6.0904384,"population":211}, 
{"name":"Schoos","state":"Mersch","territory":"","country":"Luxembourg","latitude":49.7506504,"longitude":6.1690343,"population":211}, 
{"name":"Reuler","state":"Clervaux","territory":"","country":"Luxembourg","latitude":50.0586563,"longitude":6.0362606,"population":209}, 
{"name":"Nagem","state":"Redange","territory":"","country":"Luxembourg","latitude":49.7866325,"longitude":5.8561339,"population":208}, 
{"name":"Gralingen","state":"Vianden","territory":"","country":"Luxembourg","latitude":49.9364665,"longitude":6.0997258,"population":204}, 
{"name":"Nothum","state":"Wiltz","territory":"","country":"Luxembourg","latitude":49.9404562,"longitude":5.882023,"population":204}, 
{"name":"Wincrange","state":"Clervaux","territory":"","country":"Luxembourg","latitude":50.0534489,"longitude":5.9149576,"population":203}, 
{"name":"Hoscheid-Dickt / Unterschindler","state":"Clervaux","territory":"","country":"Luxembourg","latitude":49.9719134,"longitude":6.0905533,"population":202}, 
{"name":"Pettingen","state":"Mersch","territory":"","country":"Luxembourg","latitude":49.7703854,"longitude":6.1071883,"population":201}, 
{"name":"Greisch","state":"Capellen","territory":"","country":"Luxembourg","latitude":49.7101093,"longitude":5.9882445,"population":198}, 
{"name":"Drauffelt","state":"Clervaux","territory":"","country":"Luxembourg","latitude":50.0169268,"longitude":6.0057723,"population":198}, 
{"name":"Oberwampach","state":"Clervaux","territory":"","country":"Luxembourg","latitude":50.0147471,"longitude":5.8600036,"population":198}, 
{"name":"Schweich","state":"Redange","territory":"","country":"Luxembourg","latitude":49.7229383,"longitude":5.9266907,"population":198}, 
{"name":"Weicherdange","state":"Clervaux","territory":"","country":"Luxembourg","latitude":50.0379777,"longitude":5.9875001,"population":196}, 
{"name":"Wecker","state":"Grevenmacher","territory":"","country":"Luxembourg","latitude":49.6956944,"longitude":6.3878176,"population":196}, 
{"name":"Roodt","state":"Capellen","territory":"","country":"Luxembourg","latitude":49.6926363,"longitude":6.0015455,"population":195}, 
{"name":"Merscheid","state":"Wiltz","territory":"","country":"Luxembourg","latitude":49.8711374,"longitude":5.9716901,"population":192}, 
{"name":"Kaundorf","state":"Wiltz","territory":"","country":"Luxembourg","latitude":49.9201383,"longitude":5.9012876,"population":191}, 
{"name":"Grevenknapp-Finsterthal","state":"Mersch","territory":"","country":"Luxembourg","latitude":49.7587852,"longitude":6.0394427,"population":190}, 
{"name":"Binsfeld","state":"Clervaux","territory":"","country":"Luxembourg","latitude":50.1172636,"longitude":6.0372194,"population":189}, 
{"name":"Insenborn","state":"Wiltz","territory":"","country":"Luxembourg","latitude":49.8993724,"longitude":5.8837911,"population":189}, 
{"name":"Munshausen","state":"Clervaux","territory":"","country":"Luxembourg","latitude":50.0330344,"longitude":6.0373049,"population":188}, 
{"name":"Dillingen","state":"Echternach","territory":"","country":"Luxembourg","latitude":49.8529402,"longitude":6.3196036,"population":186}, 
{"name":"Rippweiler","state":"Redange","territory":"","country":"Luxembourg","latitude":49.7504327,"longitude":5.9556113,"population":183}, 
{"name":"Pintsch","state":"Wiltz","territory":"","country":"Luxembourg","latitude":49.9936497,"longitude":6.011206,"population":182}, 
{"name":"Wallendorf-Pont","state":"Diekirch","territory":"","country":"Luxembourg","latitude":49.8742048,"longitude":6.2903665,"population":181}, 
{"name":"Brachtenbach","state":"Clervaux","territory":"","country":"Luxembourg","latitude":50.0203164,"longitude":5.9107547,"population":180}, 
{"name":"Ahn","state":"Grevenmacher","territory":"","country":"Luxembourg","latitude":49.6275608,"longitude":6.421059,"population":180}, 
{"name":"Reimberg","state":"Redange","territory":"","country":"Luxembourg","latitude":49.7959582,"longitude":5.9520428,"population":180}, 
{"name":"Schandel","state":"Redange","territory":"","country":"Luxembourg","latitude":49.7919689,"longitude":5.9748723,"population":180}, 
{"name":"Hersberg / Kobenbour / Graulinster / Blumenthal","state":"Echternach","territory":"","country":"Luxembourg","latitude":49.7571514,"longitude":6.3282435,"population":178}, 
{"name":"Oberdonven","state":"Grevenmacher","territory":"","country":"Luxembourg","latitude":49.6505368,"longitude":6.3999397,"population":178}, 
{"name":"Stolzembourg","state":"Vianden","territory":"","country":"Luxembourg","latitude":49.9657021,"longitude":6.1674898,"population":178}, 
{"name":"Munschecker","state":"Grevenmacher","territory":"","country":"Luxembourg","latitude":49.699166,"longitude":6.4414163,"population":177}, 
{"name":"Niederwampach","state":"Clervaux","territory":"","country":"Luxembourg","latitude":50.0098866,"longitude":5.8408837,"population":176}, 
{"name":"Berg","state":"Grevenmacher","territory":"","country":"Luxembourg","latitude":49.6826832,"longitude":6.3586902,"population":173}, 
{"name":"Tadler / Ringel / Dirbach","state":"Wiltz","territory":"","country":"Luxembourg","latitude":49.9106016,"longitude":5.9935001,"population":170}, 
{"name":"Assel","state":"Remich","territory":"","country":"Luxembourg","latitude":49.5546656,"longitude":6.3140326,"population":169}, 
{"name":"Koetschette","state":"Redange","territory":"","country":"Luxembourg","latitude":49.8384624,"longitude":5.839242,"population":167}, 
{"name":"Herborn","state":"Echternach","territory":"","country":"Luxembourg","latitude":49.7475118,"longitude":6.4280311,"population":166}, 
{"name":"Merscheid","state":"Vianden","territory":"","country":"Luxembourg","latitude":49.954078,"longitude":6.1051045,"population":165}, 
{"name":"Hamiville","state":"Clervaux","territory":"","country":"Luxembourg","latitude":50.0457411,"longitude":5.9025332,"population":163}, 
{"name":"Hachiville","state":"Clervaux","territory":"","country":"Luxembourg","latitude":50.107473,"longitude":5.9231694,"population":162}, 
{"name":"Hautbellain","state":"Clervaux","territory":"","country":"Luxembourg","latitude":50.1559422,"longitude":5.9773143,"population":160}, 
{"name":"Dondelange","state":"Capellen","territory":"","country":"Luxembourg","latitude":49.6888582,"longitude":6.0310397,"population":159}, 
{"name":"Welscheid","state":"Diekirch","territory":"","country":"Luxembourg","latitude":49.8869484,"longitude":6.0655768,"population":159}, 
{"name":"Welfrange","state":"Remich","territory":"","country":"Luxembourg","latitude":49.5399853,"longitude":6.285526,"population":159}, 
{"name":"Enscherange","state":"Wiltz","territory":"","country":"Luxembourg","latitude":49.9989181,"longitude":5.9895173,"population":158}, 
{"name":"Ersange","state":"Remich","territory":"","country":"Luxembourg","latitude":49.5763872,"longitude":6.2756939,"population":157}, 
{"name":"Winseler","state":"Wiltz","territory":"","country":"Luxembourg","latitude":49.9669968,"longitude":5.8899696,"population":155}, 
{"name":"Schlindermanderscheid","state":"Diekirch","territory":"","country":"Luxembourg","latitude":49.9323297,"longitude":6.0614598,"population":154}, 
{"name":"Buderscheid","state":"Wiltz","territory":"","country":"Luxembourg","latitude":49.9345,"longitude":5.9366771,"population":153}, 
{"name":"Lellig","state":"Grevenmacher","territory":"","country":"Luxembourg","latitude":49.7205332,"longitude":6.4347807,"population":149}, 
{"name":"Nocher-Route","state":"Wiltz","territory":"","country":"Luxembourg","latitude":49.9471446,"longitude":5.9634742,"population":143}, 
{"name":"Doennange","state":"Clervaux","territory":"","country":"Luxembourg","latitude":50.0614381,"longitude":5.9549219,"population":142}, 
{"name":"Hoesdorf","state":"Diekirch","territory":"","country":"Luxembourg","latitude":49.8825932,"longitude":6.2567988,"population":141}, 
{"name":"Weiler","state":"Vianden","territory":"","country":"Luxembourg","latitude":49.9624908,"longitude":6.1231458,"population":141}, 
{"name":"Michelbouch","state":"Redange","territory":"","country":"Luxembourg","latitude":49.8186815,"longitude":6.0190477,"population":140}, 
{"name":"Reichlange","state":"Redange","territory":"","country":"Luxembourg","latitude":49.7730254,"longitude":5.9269974,"population":139}, 
{"name":"Kautenbach","state":"Wiltz","territory":"","country":"Luxembourg","latitude":49.9528348,"longitude":6.0180937,"population":139}, 
{"name":"Basbellain","state":"Clervaux","territory":"","country":"Luxembourg","latitude":50.1451768,"longitude":5.9844215,"population":137}, 
{"name":"Rolling","state":"Remich","territory":"","country":"Luxembourg","latitude":49.5503714,"longitude":6.3167592,"population":137}, 
{"name":"Drinklange","state":"Clervaux","territory":"","country":"Luxembourg","latitude":50.1331371,"longitude":6.0173885,"population":134}, 
{"name":"Bavigne","state":"Wiltz","territory":"","country":"Luxembourg","latitude":49.9210375,"longitude":5.8480567,"population":134}, 
{"name":"Calmus","state":"Redange","territory":"","country":"Luxembourg","latitude":49.724936,"longitude":5.9634329,"population":133}, 
{"name":"Mompach","state":"Echternach","territory":"","country":"Luxembourg","latitude":49.7520823,"longitude":6.4644926,"population":132}, 
{"name":"Altlinster","state":"Grevenmacher","territory":"","country":"Luxembourg","latitude":49.721522,"longitude":6.216248,"population":132}, 
{"name":"Neidhausen","state":"Clervaux","territory":"","country":"Luxembourg","latitude":50.0285451,"longitude":6.0655924,"population":129}, 
{"name":"Watrange","state":"Wiltz","territory":"","country":"Luxembourg","latitude":49.943722,"longitude":5.7865338,"population":126}, 
{"name":"Petit-Nobressart","state":"Redange","territory":"","country":"Luxembourg","latitude":49.7791588,"longitude":5.8104519,"population":124}, 
{"name":"Stockem","state":"Clervaux","territory":"","country":"Luxembourg","latitude":50.0781566,"longitude":5.9568503,"population":122}, 
{"name":"Eisenborn","state":"Grevenmacher","territory":"","country":"Luxembourg","latitude":49.6912214,"longitude":6.1845239,"population":122}, 
{"name":"Eschweiler","state":"Grevenmacher","territory":"","country":"Luxembourg","latitude":49.7164002,"longitude":6.3099919,"population":121}, 
{"name":"Putscheid","state":"Vianden","territory":"","country":"Luxembourg","latitude":49.9593737,"longitude":6.1412236,"population":121}, 
{"name":"Hivange","state":"Capellen","territory":"","country":"Luxembourg","latitude":49.60564,"longitude":5.9299356,"population":120}, 
{"name":"Lullange","state":"Clervaux","territory":"","country":"Luxembourg","latitude":50.0582011,"longitude":5.9410604,"population":117}, 
{"name":"Beiler","state":"Clervaux","territory":"","country":"Luxembourg","latitude":50.1627588,"longitude":6.0889894,"population":116}, 
{"name":"Girst","state":"Echternach","territory":"","country":"Luxembourg","latitude":49.7736506,"longitude":6.4988273,"population":116}, 
{"name":"Marienthal","state":"Mersch","territory":"","country":"Luxembourg","latitude":49.7096772,"longitude":6.0606549,"population":116}, 
{"name":"Neunhausen","state":"Wiltz","territory":"","country":"Luxembourg","latitude":49.8765964,"longitude":5.8862118,"population":115}, 
{"name":"Bilsdorf","state":"Redange","territory":"","country":"Luxembourg","latitude":49.8565541,"longitude":5.8246298,"population":114}, 
{"name":"Dickweiler","state":"Echternach","territory":"","country":"Luxembourg","latitude":49.7837121,"longitude":6.4721211,"population":113}, 
{"name":"Dellen","state":"Redange","territory":"","country":"Luxembourg","latitude":49.8582292,"longitude":5.9598545,"population":113}, 
{"name":"Rodenbourg","state":"Grevenmacher","territory":"","country":"Luxembourg","latitude":49.6868765,"longitude":6.2904101,"population":110}, 
{"name":"Biwisch","state":"Clervaux","territory":"","country":"Luxembourg","latitude":50.1176471,"longitude":5.9780272,"population":109}, 
{"name":"Medingen","state":"Luxembourg","territory":"","country":"Luxembourg","latitude":49.5750028,"longitude":6.2486902,"population":109}, 
{"name":"Bivels","state":"Vianden","territory":"","country":"Luxembourg","latitude":49.9587943,"longitude":6.1915901,"population":109}, 
{"name":"Rodershausen","state":"Clervaux","territory":"","country":"Luxembourg","latitude":50.037913,"longitude":6.1309992,"population":108}, 
{"name":"Lannen","state":"Redange","territory":"","country":"Luxembourg","latitude":49.788523,"longitude":5.8381975,"population":107}, 
{"name":"Lellingen","state":"Wiltz","territory":"","country":"Luxembourg","latitude":49.9831719,"longitude":6.0137961,"population":107}, 
{"name":"Prettange","state":"Mersch","territory":"","country":"Luxembourg","latitude":49.7170162,"longitude":6.1195552,"population":103}, 
{"name":"Buschrodt","state":"Redange","territory":"","country":"Luxembourg","latitude":49.8260698,"longitude":5.9341053,"population":103}, 
{"name":"Merkholtz","state":"Wiltz","territory":"","country":"Luxembourg","latitude":49.9622044,"longitude":5.9803842,"population":101}, 
{"name":"Fischbach","state":"Clervaux","territory":"","country":"Luxembourg","latitude":50.0739703,"longitude":6.0671393,"population":100}, 
{"name":"Kehmen","state":"Diekirch","territory":"","country":"Luxembourg","latitude":49.9000432,"longitude":6.036158,"population":100}, 
{"name":"Pommerloch","state":"Wiltz","territory":"","country":"Luxembourg","latitude":49.959534,"longitude":5.8606531,"population":100}, 
{"name":"Graulinster","state":"Grevenmacher","territory":"","country":"Luxembourg","latitude":49.7400083,"longitude":6.287662,"population":98}, 
{"name":"Deiffelt","state":"Clervaux","territory":"","country":"Luxembourg","latitude":50.0650166,"longitude":5.9626492,"population":97}, 
{"name":"Kuborn","state":"Redange","territory":"","country":"Luxembourg","latitude":49.8695713,"longitude":5.900803,"population":97}, 
{"name":"Elvange","state":"Redange","territory":"","country":"Luxembourg","latitude":49.7247398,"longitude":5.917439,"population":96}, 
{"name":"Tandel","state":"Vianden","territory":"","country":"Luxembourg","latitude":49.8974652,"longitude":6.1824934,"population":96}, 
{"name":"Urspelt","state":"Clervaux","territory":"","country":"Luxembourg","latitude":50.0750761,"longitude":6.0463143,"population":95}, 
{"name":"Rippig","state":"Echternach","territory":"","country":"Luxembourg","latitude":49.739953,"longitude":6.3183782,"population":95}, 
{"name":"Dorscheid","state":"Clervaux","territory":"","country":"Luxembourg","latitude":50.036388,"longitude":6.0730046,"population":94}, 
{"name":"Bigelbach","state":"Diekirch","territory":"","country":"Luxembourg","latitude":49.8603403,"longitude":6.2867287,"population":93}, 
{"name":"Grumelscheid","state":"Wiltz","territory":"","country":"Luxembourg","latitude":49.9852827,"longitude":5.8723935,"population":92}, 
{"name":"Berlé","state":"Wiltz","territory":"","country":"Luxembourg","latitude":49.9521537,"longitude":5.8569906,"population":91}, 
{"name":"Rumlange","state":"Clervaux","territory":"","country":"Luxembourg","latitude":50.0797473,"longitude":5.9737823,"population":89}, 
{"name":"Emerange","state":"Remich","territory":"","country":"Luxembourg","latitude":49.4866576,"longitude":6.2907534,"population":89}, 
{"name":"Hemstal","state":"Echternach","territory":"","country":"Luxembourg","latitude":49.7398122,"longitude":6.3348459,"population":87}, 
{"name":"Pissange","state":"Esch-sur-Alzette","territory":"","country":"Luxembourg","latitude":49.5484564,"longitude":6.0002642,"population":84}, 
{"name":"Heispelt","state":"Redange","territory":"","country":"Luxembourg","latitude":49.8564149,"longitude":5.8790841,"population":84}, 
{"name":"Liefrange","state":"Wiltz","territory":"","country":"Luxembourg","latitude":49.9101126,"longitude":5.8763585,"population":84}, 
{"name":"Windhof","state":"Capellen","territory":"","country":"Luxembourg","latitude":49.6471021,"longitude":5.9578187,"population":83}, 
{"name":"Wickrange","state":"Esch-sur-Alzette","territory":"","country":"Luxembourg","latitude":49.5423438,"longitude":6.0198557,"population":83}, 
{"name":"Findel","state":"Luxembourg","territory":"","country":"Luxembourg","latitude":49.6262974,"longitude":6.1976957,"population":83}, 
{"name":"Roedt","state":"Remich","territory":"","country":"Luxembourg","latitude":49.5699,"longitude":6.2847078,"population":83}, 
{"name":"Allerborn","state":"Clervaux","territory":"","country":"Luxembourg","latitude":50.0356425,"longitude":5.8701521,"population":81}, 
{"name":"Abweiler","state":"Esch-sur-Alzette","territory":"","country":"Luxembourg","latitude":49.532978,"longitude":6.080064,"population":81}, 
{"name":"Colpach-Bas","state":"Redange","territory":"","country":"Luxembourg","latitude":49.7575046,"longitude":5.8257055,"population":79}, 
{"name":"Leithum","state":"Clervaux","territory":"","country":"Luxembourg","latitude":50.1604741,"longitude":6.1083913,"population":78}, 
{"name":"Schwebach","state":"Redange","territory":"","country":"Luxembourg","latitude":49.7457142,"longitude":5.9718663,"population":77}, 
{"name":"Nachtmanderscheid","state":"Vianden","territory":"","country":"Luxembourg","latitude":49.9476946,"longitude":6.1282738,"population":77}, 
{"name":"Boudler","state":"Grevenmacher","territory":"","country":"Luxembourg","latitude":49.7225215,"longitude":6.3542075,"population":76}, 
{"name":"Selscheid","state":"Wiltz","territory":"","country":"Luxembourg","latitude":50.0175305,"longitude":5.9471163,"population":76}, 
{"name":"Bour","state":"Mersch","territory":"","country":"Luxembourg","latitude":49.7002782,"longitude":6.0172013,"population":74}, 
{"name":"Lanscheid","state":"Vianden","territory":"","country":"Luxembourg","latitude":49.9245457,"longitude":6.1274064,"population":72}, 
{"name":"Longsdorf","state":"Vianden","territory":"","country":"Luxembourg","latitude":49.8969614,"longitude":6.2061514,"population":72}, 
{"name":"Roder","state":"Clervaux","territory":"","country":"Luxembourg","latitude":50.0554624,"longitude":6.0827797,"population":71}, 
{"name":"Hinkel","state":"Echternach","territory":"","country":"Luxembourg","latitude":49.7834439,"longitude":6.5149128,"population":70}, 
{"name":"Kalborn","state":"Clervaux","territory":"","country":"Luxembourg","latitude":50.1026695,"longitude":6.1121588,"population":69}, 
{"name":"Mecher","state":"Wiltz","territory":"","country":"Luxembourg","latitude":49.9229571,"longitude":5.8725301,"population":69}, 
{"name":"Breidweiler","state":"Echternach","territory":"","country":"Luxembourg","latitude":49.7778197,"longitude":6.3033165,"population":68}, 
{"name":"Lentzweiler","state":"Clervaux","territory":"","country":"Luxembourg","latitude":50.0694924,"longitude":5.9752596,"population":67}, 
{"name":"Givenich","state":"Echternach","territory":"","country":"Luxembourg","latitude":49.7475613,"longitude":6.4791126,"population":66}, 
{"name":"Levelange","state":"Redange","territory":"","country":"Luxembourg","latitude":49.7388886,"longitude":5.8556572,"population":64}, 
{"name":"Holler","state":"Clervaux","territory":"","country":"Luxembourg","latitude":50.1226686,"longitude":6.0474938,"population":61}, 
{"name":"Zittig","state":"Echternach","territory":"","country":"Luxembourg","latitude":49.745113,"longitude":6.3439722,"population":61}, 
{"name":"Walsdorf","state":"Vianden","territory":"","country":"Luxembourg","latitude":49.925288,"longitude":6.1725916,"population":59}, 
{"name":"Bockholtz","state":"Wiltz","territory":"","country":"Luxembourg","latitude":49.9230106,"longitude":5.9961209,"population":59}, 
{"name":"Sibenaler","state":"Clervaux","territory":"","country":"Luxembourg","latitude":50.010087,"longitude":6.0261269,"population":56}, 
{"name":"Heiderscheid-Fond","state":"Wiltz","territory":"","country":"Luxembourg","latitude":49.886851,"longitude":5.9774229,"population":54}, 
{"name":"Breinert","state":"Grevenmacher","territory":"","country":"Luxembourg","latitude":49.7116865,"longitude":6.3425718,"population":53}, 
{"name":"Brouch","state":"Grevenmacher","territory":"","country":"Luxembourg","latitude":49.7283208,"longitude":6.3402616,"population":53}, 
{"name":"Alscheid","state":"Wiltz","territory":"","country":"Luxembourg","latitude":49.9699596,"longitude":6.0071631,"population":52}, 
{"name":"Schimpach","state":"Clervaux","territory":"","country":"Luxembourg","latitude":50.0096768,"longitude":5.848252,"population":49}, 
{"name":"Sonlez","state":"Wiltz","territory":"","country":"Luxembourg","latitude":49.9642414,"longitude":5.8236598,"population":49}, 
{"name":"Kapweiler","state":"Redange","territory":"","country":"Luxembourg","latitude":49.7397514,"longitude":5.9705857,"population":48}, 
{"name":"Grass","state":"Capellen","territory":"","country":"Luxembourg","latitude":49.6306221,"longitude":5.8923953,"population":47}, 
{"name":"Mullerthal","state":"Echternach","territory":"","country":"Luxembourg","latitude":49.7902688,"longitude":6.3071067,"population":47}, 
{"name":"Goedange","state":"Clervaux","territory":"","country":"Luxembourg","latitude":50.148149,"longitude":6.0125711,"population":46}, 
{"name":"Bockholtz","state":"Clervaux","territory":"","country":"Luxembourg","latitude":50.0118077,"longitude":6.0513055,"population":41}, 
{"name":"Sassel","state":"Clervaux","territory":"","country":"Luxembourg","latitude":50.0996616,"longitude":5.9949473,"population":41}, 
{"name":"Ansembourg","state":"Mersch","territory":"","country":"Luxembourg","latitude":49.7019441,"longitude":6.0397258,"population":38}, 
{"name":"Oberglabach / Niederglabach","state":"Mersch","territory":"","country":"Luxembourg","latitude":49.7848259,"longitude":6.1492319,"population":38}, 
{"name":"Blumenthal ","state":"Grevenmacher","territory":"","country":"Luxembourg","latitude":49.7326417,"longitude":6.2533554,"population":37}, 
{"name":"Masseler","state":"Wiltz","territory":"","country":"Luxembourg","latitude":49.9297776,"longitude":6.0348705,"population":37}, 
{"name":"Schiltzberg","state":"Mersch","territory":"","country":"Luxembourg","latitude":49.7385488,"longitude":6.2218925,"population":36}, 
{"name":"Colbette ","state":"Echternach","territory":"","country":"Luxembourg","latitude":49.7676517,"longitude":6.3005843,"population":35}, 
{"name":"Breidfeld","state":"Clervaux","territory":"","country":"Luxembourg","latitude":50.1233975,"longitude":6.0621855,"population":34}, 
{"name":"Weiler","state":"Clervaux","territory":"","country":"Luxembourg","latitude":50.1032718,"longitude":5.9442009,"population":34}, 
{"name":"Boudlerbach","state":"Grevenmacher","territory":"","country":"Luxembourg","latitude":49.7175389,"longitude":6.3536649,"population":31}, 
{"name":"Eltz","state":"Redange","territory":"","country":"Luxembourg","latitude":49.7780867,"longitude":5.8933745,"population":31}, 
{"name":"Eschette","state":"Redange","territory":"","country":"Luxembourg","latitude":49.8228029,"longitude":5.8872417,"population":31}, 
{"name":"Grundhof","state":"Echternach","territory":"","country":"Luxembourg","latitude":49.8352307,"longitude":6.3304612,"population":28}, 
{"name":"Grundhof","state":"Echternach","territory":"","country":"Luxembourg","latitude":49.8352307,"longitude":6.3304612,"population":27}, 
{"name":"Hierheck","state":"Wiltz","territory":"","country":"Luxembourg","latitude":49.8721473,"longitude":5.9294678,"population":27}, 
{"name":"Kalkesbach","state":"Echternach","territory":"","country":"Luxembourg","latitude":49.8015331,"longitude":6.3544598,"population":25}, 
{"name":"Lultzhausen","state":"Wiltz","territory":"","country":"Luxembourg","latitude":49.9087765,"longitude":5.8898706,"population":25}, 
{"name":"Folkendange","state":"Diekirch","territory":"","country":"Luxembourg","latitude":49.8419518,"longitude":6.2026914,"population":23}, 
{"name":"Weydig","state":"Grevenmacher","territory":"","country":"Luxembourg","latitude":49.7166441,"longitude":6.3300145,"population":23}, 
{"name":"Haut-Martelange","state":"Redange","territory":"","country":"Luxembourg","latitude":49.8248257,"longitude":5.7494577,"population":23}, 
{"name":"Savelborn","state":"Diekirch","territory":"","country":"Luxembourg","latitude":49.8117915,"longitude":6.2535045,"population":21}, 
{"name":"Scheerbach","state":"Mersch","territory":"","country":"Luxembourg","latitude":49.7822236,"longitude":6.2238914,"population":21}, 
{"name":"Grindhausen","state":"Clervaux","territory":"","country":"Luxembourg","latitude":50.0825192,"longitude":6.0586656,"population":20}, 
{"name":"Keiwelbach","state":"Diekirch","territory":"","country":"Luxembourg","latitude":49.8494148,"longitude":6.2338886,"population":20}, 
{"name":"Boursdorf","state":"Echternach","territory":"","country":"Luxembourg","latitude":49.764649,"longitude":6.4779772,"population":20}, 
{"name":"Ehner","state":"Redange","territory":"","country":"Luxembourg","latitude":49.7171679,"longitude":5.9504721,"population":18}, 
{"name":"Essingen","state":"Mersch","territory":"","country":"Luxembourg","latitude":49.7788958,"longitude":6.1156809,"population":17}, 
{"name":"Biwerbach","state":"Grevenmacher","territory":"","country":"Luxembourg","latitude":49.7094019,"longitude":6.3672745,"population":16}, 
{"name":"Scherfenhof","state":"Mersch","territory":"","country":"Luxembourg","latitude":49.7836752,"longitude":6.2341632,"population":15}, 
{"name":"Huttange","state":"Redange","territory":"","country":"Luxembourg","latitude":49.7357544,"longitude":5.8977509,"population":15}, 
{"name":"Cinqfontaines","state":"Clervaux","territory":"","country":"Luxembourg","latitude":50.1073447,"longitude":6.0075127,"population":14}, 
{"name":"Girsterklaus","state":"Echternach","territory":"","country":"Luxembourg","latitude":49.7846891,"longitude":6.498724,"population":12}, 
{"name":"Crendal","state":"Clervaux","territory":"","country":"Luxembourg","latitude":50.0568945,"longitude":5.8974779,"population":10}, 
{"name":"Maulusmühle","state":"Clervaux","territory":"","country":"Luxembourg","latitude":50.0948864,"longitude":6.0258312,"population":9}, 
{"name":"Hinterhassel","state":"Clervaux","territory":"","country":"Luxembourg","latitude":50.0569265,"longitude":5.8638116,"population":8}, 
{"name":"Kapenacker","state":"Grevenmacher","territory":"","country":"Luxembourg","latitude":49.6378793,"longitude":6.3550682,"population":8}, 
{"name":"Dreiborn","state":"Grevenmacher","territory":"","country":"Luxembourg","latitude":49.6196298,"longitude":6.3937938,"population":7}, 
{"name":"Waldhof","state":"Luxembourg","territory":"","country":"Luxembourg","latitude":49.6572415,"longitude":6.1888823,"population":6}, 
{"name":"Schleif","state":"Wiltz","territory":"","country":"Luxembourg","latitude":49.990154,"longitude":5.8569234,"population":5}, 
