{"name":"Ábelová","state":"Banskobystrický","country":"Slovakia","latitude":48.4420021,"longitude":19.4155669,"population":221}, 
{"name":"Abovce","state":"Banskobystrický","country":"Slovakia","latitude":48.3113407,"longitude":20.3442652,"population":593}, 
{"name":"Abrahám","state":"Trnavský","country":"Slovakia","latitude":48.2464436,"longitude":17.627731,"population":1065}, 
{"name":"Abrahámovce","state":"Prešovský","country":"Slovakia","latitude":49.0437358,"longitude":20.4501425,"population":365}, 
{"name":"Abrahámovce","state":"Prešovský","country":"Slovakia","latitude":49.0437358,"longitude":20.4501425,"population":244}, 
{"name":"Abramová","state":"Žilinský","country":"Slovakia","latitude":48.928793,"longitude":18.7829783,"population":101}, 
{"name":"Abranovce","state":"Prešovský","country":"Slovakia","latitude":48.9376531,"longitude":21.3538211,"population":619}, 
{"name":"Adamov","state":"Trnavský","country":"Slovakia","latitude":48.7235278,"longitude":17.0430802,"population":19}, 
{"name":"Adamovce","state":"Trenčiansky","country":"Slovakia","latitude":48.8527644,"longitude":17.9355401,"population":348}, 
{"name":"Adidovce","state":"Prešovský","country":"Slovakia","latitude":49.0222279,"longitude":22.0623639,"population":212}, 
{"name":"Albínov","state":"Košický","country":"Slovakia","latitude":48.7308615,"longitude":21.6663958,"population":167}, 
{"name":"Alekšince","state":"Nitriansky","country":"Slovakia","latitude":48.3546396,"longitude":17.955205,"population":1673}, 
{"name":"Alexandrov Dvor","state":"Nitriansky","country":"Slovakia","latitude":48.2948785,"longitude":17.8944545,"population":119}, 
{"name":"Alžbetin Dvor","state":"Bratislavský","country":"Slovakia","latitude":48.0871353,"longitude":17.3129864,"population":1464}, 
{"name":"Amadeho Kračany","state":"Trnavský","country":"Slovakia","latitude":47.959165,"longitude":17.5785954,"population":420}, 
{"name":"Ambrušovce","state":"Prešovský","country":"Slovakia","latitude":49.1762587,"longitude":21.163178,"population":0}, 
{"name":"Aňala","state":"Nitriansky","country":"Slovakia","latitude":47.9574298,"longitude":18.138703,"population":215}, 
{"name":"Aňalské Záhrady","state":"Nitriansky","country":"Slovakia","latitude":47.965564,"longitude":18.1478149,"population":26}, 
{"name":"Andač","state":"Nitriansky","country":"Slovakia","latitude":48.3777499,"longitude":17.9725451,"population":240}, 
{"name":"Andice","state":"Žilinský","country":"Slovakia","latitude":49.0734856,"longitude":19.5528078,"population":138}, 
{"name":"Andovce","state":"Nitriansky","country":"Slovakia","latitude":47.9918219,"longitude":18.0899,"population":1358}, 
{"name":"Andrejová","state":"Prešovský","country":"Slovakia","latitude":49.3378962,"longitude":21.336245,"population":362}, 
{"name":"Andrejovka","state":"Prešovský","country":"Slovakia","latitude":49.2869504,"longitude":20.8978329,"population":102}, 
{"name":"Arad","state":"Nitriansky","country":"Slovakia","latitude":47.8794252,"longitude":18.469766,"population":61}, 
{"name":"Ardanovce","state":"Nitriansky","country":"Slovakia","latitude":48.5490304,"longitude":17.8987983,"population":223}, 
{"name":"Ardovo","state":"Košický","country":"Slovakia","latitude":48.5263242,"longitude":20.4292583,"population":159}, 
{"name":"Arma","state":"Nitriansky","country":"Slovakia","latitude":48.061172,"longitude":18.5005669,"population":14}, 
{"name":"Arnutovce","state":"Košický","country":"Slovakia","latitude":48.9800296,"longitude":20.4951505,"population":698}, 
{"name":"Babie","state":"Prešovský","country":"Slovakia","latitude":49.0670892,"longitude":21.4913372,"population":252}, 
{"name":"Babín","state":"Žilinský","country":"Slovakia","latitude":49.3238845,"longitude":19.3768075,"population":1403}, 
{"name":"Babin Potok","state":"Prešovský","country":"Slovakia","latitude":49.125837,"longitude":21.2081984,"population":80}, 
{"name":"Babiná","state":"Banskobystrický","country":"Slovakia","latitude":48.4338913,"longitude":19.0535856,"population":522}, 
{"name":"Babindol","state":"Nitriansky","country":"Slovakia","latitude":48.2878748,"longitude":18.2343834,"population":667}, 
{"name":"Babinec","state":"Banskobystrický","country":"Slovakia","latitude":48.5246094,"longitude":20.0055203,"population":69}, 
{"name":"Babiše","state":"Žilinský","country":"Slovakia","latitude":49.334472,"longitude":18.505159,"population":104}, 
{"name":"Babkov","state":"Žilinský","country":"Slovakia","latitude":49.1494625,"longitude":18.6323773,"population":631}, 
{"name":"Babulicov Vrch","state":"Trenčiansky","country":"Slovakia","latitude":48.7356287,"longitude":17.6565505,"population":112}, 
{"name":"Báč","state":"Trnavský","country":"Slovakia","latitude":48.0077005,"longitude":17.3769917,"population":553}, 
{"name":"Bačala","state":"Nitriansky","country":"Slovakia","latitude":48.1889601,"longitude":17.9942318,"population":24}, 
{"name":"Bačka","state":"Košický","country":"Slovakia","latitude":48.4510061,"longitude":22.0536613,"population":653}, 
{"name":"Bačkov","state":"Košický","country":"Slovakia","latitude":48.7586345,"longitude":21.6035891,"population":637}, 
{"name":"Bačkovík","state":"Košický","country":"Slovakia","latitude":48.7845972,"longitude":21.4345109,"population":475}, 
{"name":"Báčovce","state":"Banskobystrický","country":"Slovakia","latitude":48.2371506,"longitude":18.9097412,"population":54}, 
{"name":"Bacúch","state":"Banskobystrický","country":"Slovakia","latitude":48.8466999,"longitude":19.7937834,"population":1013}, 
{"name":"Bacúrov","state":"Banskobystrický","country":"Slovakia","latitude":48.5166002,"longitude":19.0428314,"population":153}, 
{"name":"Baďan","state":"Banskobystrický","country":"Slovakia","latitude":48.3393098,"longitude":18.8443736,"population":160}, 
{"name":"Bádice","state":"Nitriansky","country":"Slovakia","latitude":48.3972721,"longitude":18.1345526,"population":322}, 
{"name":"Badín","state":"Banskobystrický","country":"Slovakia","latitude":48.6732725,"longitude":19.0805907,"population":1831}, 
{"name":"Báhoň","state":"Bratislavský","country":"Slovakia","latitude":48.3058718,"longitude":17.4273025,"population":1704}, 
{"name":"Bajany","state":"Košický","country":"Slovakia","latitude":48.5944821,"longitude":22.1124365,"population":506}, 
{"name":"Bajč","state":"Nitriansky","country":"Slovakia","latitude":47.9260952,"longitude":18.2218167,"population":945}, 
{"name":"Bajerov","state":"Prešovský","country":"Slovakia","latitude":48.9544746,"longitude":21.1123092,"population":448}, 
{"name":"Bajerovce","state":"Prešovský","country":"Slovakia","latitude":49.2077778,"longitude":20.7912256,"population":306}, 
{"name":"Bajka","state":"Nitriansky","country":"Slovakia","latitude":48.1543396,"longitude":18.5040411,"population":324}, 
{"name":"Bajtava","state":"Nitriansky","country":"Slovakia","latitude":47.852675,"longitude":18.7444804,"population":403}, 
{"name":"Baka","state":"Trnavský","country":"Slovakia","latitude":47.8932351,"longitude":17.5147119,"population":1114}, 
{"name":"Bakta","state":"Banskobystrický","country":"Slovakia","latitude":48.3917625,"longitude":20.0949428,"population":306}, 
{"name":"Baláže","state":"Banskobystrický","country":"Slovakia","latitude":48.8285549,"longitude":19.1899754,"population":208}, 
{"name":"Baldovce","state":"Prešovský","country":"Slovakia","latitude":48.9919548,"longitude":20.7142964,"population":179}, 
{"name":"Balog nad Ipľom","state":"Banskobystrický","country":"Slovakia","latitude":48.0816571,"longitude":19.1254579,"population":846}, 
{"name":"Baloň","state":"Trnavský","country":"Slovakia","latitude":47.8422123,"longitude":17.6529022,"population":756}, 
{"name":"Balvany","state":"Nitriansky","country":"Slovakia","latitude":47.8537607,"longitude":17.9988985,"population":272}, 
{"name":"Baňa","state":"Prešovský","country":"Slovakia","latitude":49.2166419,"longitude":21.6088731,"population":169}, 
{"name":"Banka","state":"Trnavský","country":"Slovakia","latitude":48.5782837,"longitude":17.8600882,"population":2131}, 
{"name":"Banky","state":"Trenčiansky","country":"Slovakia","latitude":48.7804609,"longitude":18.5030342,"population":308}, 
{"name":"Banky","state":"Banskobystrický","country":"Slovakia","latitude":48.48973,"longitude":18.8529689,"population":78}, 
{"name":"Bánov","state":"Nitriansky","country":"Slovakia","latitude":48.0477618,"longitude":18.1917346,"population":3730}, 
{"name":"Bánová","state":"Žilinský","country":"Slovakia","latitude":49.1931952,"longitude":18.7023557,"population":1810}, 
{"name":"Bánovce nad Bebravou","state":"Trenčiansky","country":"Slovakia","latitude":48.7241334,"longitude":18.2653716,"population":17258}, 
{"name":"Bánovce nad Ondavou","state":"Košický","country":"Slovakia","latitude":48.6700055,"longitude":21.8160556,"population":699}, 
{"name":"Banská","state":"Trenčiansky","country":"Slovakia","latitude":48.7682874,"longitude":18.6565856,"population":2}, 
{"name":"Banská Belá","state":"Banskobystrický","country":"Slovakia","latitude":48.4850618,"longitude":18.9569032,"population":1244}, 
{"name":"Banská Bystrica","state":"Banskobystrický","country":"Slovakia","latitude":48.7308876,"longitude":19.1531321,"population":16455,"stateCapital":true}, 
{"name":"Banská Hodruša","state":"Banskobystrický","country":"Slovakia","latitude":48.4601275,"longitude":18.8276685,"population":673}, 
{"name":"Banská Štiavnica","state":"Banskobystrický","country":"Slovakia","latitude":48.444269,"longitude":18.9067544,"population":8755}, 
{"name":"Banské","state":"Prešovský","country":"Slovakia","latitude":48.8219322,"longitude":21.5585741,"population":1713}, 
{"name":"Banský Studenec","state":"Banskobystrický","country":"Slovakia","latitude":48.453365,"longitude":18.9701898,"population":452}, 
{"name":"Baranie","state":"Prešovský","country":"Slovakia","latitude":49.1719263,"longitude":21.145404,"population":0}, 
{"name":"Barca","state":"Banskobystrický","country":"Slovakia","latitude":48.364619,"longitude":20.2342725,"population":512}, 
{"name":"Barca","state":"Košický","country":"Slovakia","latitude":48.669563,"longitude":21.2698402,"population":3361}, 
{"name":"Bardejov","state":"Prešovský","country":"Slovakia","latitude":49.304609,"longitude":21.2730944,"population":30408}, 
{"name":"Bardejovská Nová Ves","state":"Prešovský","country":"Slovakia","latitude":49.3046133,"longitude":21.3247371,"population":1606}, 
{"name":"Bardoňovo","state":"Nitriansky","country":"Slovakia","latitude":48.1114945,"longitude":18.4194759,"population":786}, 
{"name":"Bartošova Lehôtka","state":"Banskobystrický","country":"Slovakia","latitude":48.6509455,"longitude":18.9125757,"population":399}, 
{"name":"Bartošovce","state":"Prešovský","country":"Slovakia","latitude":49.2026604,"longitude":21.271783,"population":724}, 
{"name":"Baška","state":"Košický","country":"Slovakia","latitude":48.7097273,"longitude":21.1807331,"population":437}, 
{"name":"Baškovce","state":"Prešovský","country":"Slovakia","latitude":49.0310424,"longitude":21.843298,"population":428}, 
{"name":"Baškovce","state":"Košický","country":"Slovakia","latitude":48.7867912,"longitude":22.198879,"population":259}, 
{"name":"Bašovce","state":"Trnavský","country":"Slovakia","latitude":48.6308637,"longitude":17.8073873,"population":340}, 
{"name":"Baštín","state":"Trenčiansky","country":"Slovakia","latitude":48.5583647,"longitude":18.2363507,"population":106}, 
{"name":"Batizovce","state":"Prešovský","country":"Slovakia","latitude":49.080768,"longitude":20.1794142,"population":2322}, 
{"name":"Bátka","state":"Banskobystrický","country":"Slovakia","latitude":48.3684483,"longitude":20.1605168,"population":968}, 
{"name":"Bátorová","state":"Banskobystrický","country":"Slovakia","latitude":48.1357403,"longitude":19.2691108,"population":362}, 
{"name":"Bátovce","state":"Nitriansky","country":"Slovakia","latitude":48.2899125,"longitude":18.7719422,"population":985}, 
{"name":"Becherov","state":"Prešovský","country":"Slovakia","latitude":49.4337937,"longitude":21.3101274,"population":279}, 
{"name":"Beckov","state":"Trenčiansky","country":"Slovakia","latitude":48.7850781,"longitude":17.9071433,"population":1343}, 
{"name":"Beckovská Vieska","state":"Trenčiansky","country":"Slovakia","latitude":48.7474374,"longitude":17.8908025,"population":523}, 
{"name":"Bečov","state":"Banskobystrický","country":"Slovakia","latitude":48.6501504,"longitude":19.2525025,"population":164}, 
{"name":"Beharovce","state":"Prešovský","country":"Slovakia","latitude":49.0069168,"longitude":20.819686,"population":178}, 
{"name":"Behynce","state":"Nitriansky","country":"Slovakia","latitude":48.5215329,"longitude":17.9672648,"population":392}, 
{"name":"Behynce","state":"Banskobystrický","country":"Slovakia","latitude":48.4271646,"longitude":20.291407,"population":442}, 
{"name":"Beketfa","state":"Trnavský","country":"Slovakia","latitude":47.9918454,"longitude":17.5025182,"population":91}, 
{"name":"Belá","state":"Nitriansky","country":"Slovakia","latitude":47.8284303,"longitude":18.5819504,"population":370}, 
{"name":"Belá","state":"Žilinský","country":"Slovakia","latitude":48.9787325,"longitude":19.0389896,"population":958}, 
{"name":"Belá","state":"Žilinský","country":"Slovakia","latitude":48.9787325,"longitude":19.0389896,"population":3092}, 
{"name":"Belá nad Cirochou","state":"Prešovský","country":"Slovakia","latitude":48.9683543,"longitude":22.1053804,"population":3373}, 
{"name":"Beladice","state":"Nitriansky","country":"Slovakia","latitude":48.3360567,"longitude":18.2858269,"population":327}, 
{"name":"Belejov","state":"Trenčiansky","country":"Slovakia","latitude":49.23154,"longitude":18.3246517,"population":88}, 
{"name":"Belejovce","state":"Prešovský","country":"Slovakia","latitude":49.3744104,"longitude":21.5422851,"population":23}, 
{"name":"Belín","state":"Banskobystrický","country":"Slovakia","latitude":48.3430833,"longitude":20.1105699,"population":193}, 
{"name":"Belina","state":"Banskobystrický","country":"Slovakia","latitude":48.2361934,"longitude":19.8504416,"population":642}, 
{"name":"Belince","state":"Nitriansky","country":"Slovakia","latitude":48.4625085,"longitude":18.0930518,"population":316}, 
{"name":"Bellova Ves","state":"Trnavský","country":"Slovakia","latitude":48.0872024,"longitude":17.5141599,"population":229}, 
{"name":"Beloveža","state":"Prešovský","country":"Slovakia","latitude":49.3046301,"longitude":21.3618267,"population":829}, 
{"name":"Beluj","state":"Banskobystrický","country":"Slovakia","latitude":48.3545125,"longitude":18.8915368,"population":131}, 
{"name":"Beluša","state":"Trenčiansky","country":"Slovakia","latitude":49.0556143,"longitude":18.3479951,"population":4878}, 
{"name":"Belža","state":"Košický","country":"Slovakia","latitude":48.5850164,"longitude":21.2713123,"population":379}, 
{"name":"Beňadiková","state":"Žilinský","country":"Slovakia","latitude":49.0812126,"longitude":19.6849008,"population":466}, 
{"name":"Beňadikovce","state":"Prešovský","country":"Slovakia","latitude":49.2298693,"longitude":21.5502169,"population":230}, 
{"name":"Beňadovo","state":"Žilinský","country":"Slovakia","latitude":49.4336912,"longitude":19.3560028,"population":772}, 
{"name":"Beňatina","state":"Košický","country":"Slovakia","latitude":48.799602,"longitude":22.3320168,"population":199}, 
{"name":"Beniakovce","state":"Košický","country":"Slovakia","latitude":48.7652225,"longitude":21.3123388,"population":619}, 
{"name":"Benice","state":"Žilinský","country":"Slovakia","latitude":49.0761122,"longitude":19.5569957,"population":153}, 
{"name":"Benice","state":"Žilinský","country":"Slovakia","latitude":49.0761122,"longitude":19.5569957,"population":324}, 
{"name":"Benkova Potôň","state":"Trnavský","country":"Slovakia","latitude":48.0461597,"longitude":17.512533,"population":729}, 
{"name":"Benkovce","state":"Prešovský","country":"Slovakia","latitude":48.9417778,"longitude":21.7092948,"population":532}, 
{"name":"Beňova Lehota","state":"Žilinský","country":"Slovakia","latitude":49.2432356,"longitude":19.261676,"population":164}, 
{"name":"Beňuš","state":"Banskobystrický","country":"Slovakia","latitude":48.8383087,"longitude":19.7346376,"population":547}, 
{"name":"Beňušovce","state":"Žilinský","country":"Slovakia","latitude":49.1428765,"longitude":19.5524139,"population":7}, 
{"name":"Bernátovce","state":"Košický","country":"Slovakia","latitude":48.641208,"longitude":21.2962779,"population":946}, 
{"name":"Bernolákovo","state":"Bratislavský","country":"Slovakia","latitude":48.196847,"longitude":17.3017393,"population":5385}, 
{"name":"Bertotovce","state":"Prešovský","country":"Slovakia","latitude":49.0233392,"longitude":21.01828,"population":491}, 
{"name":"Beša","state":"Nitriansky","country":"Slovakia","latitude":48.150587,"longitude":18.4032961,"population":343}, 
{"name":"Beša","state":"Košický","country":"Slovakia","latitude":48.5305047,"longitude":21.9480361,"population":363}, 
{"name":"Bešeňov","state":"Nitriansky","country":"Slovakia","latitude":48.0440138,"longitude":18.271796,"population":1695}, 
{"name":"Bešeňová","state":"Žilinský","country":"Slovakia","latitude":49.1143907,"longitude":19.4410989,"population":562}, 
{"name":"Besné","state":"Trenčiansky","country":"Slovakia","latitude":49.2200874,"longitude":18.3689262,"population":234}, 
{"name":"Betlanovce","state":"Košický","country":"Slovakia","latitude":48.9632555,"longitude":20.350316,"population":678}, 
{"name":"Betlenovce","state":"Košický","country":"Slovakia","latitude":48.7252236,"longitude":21.9167751,"population":8}, 
{"name":"Betliar","state":"Košický","country":"Slovakia","latitude":48.7237373,"longitude":20.5268512,"population":931}, 
{"name":"Bežovce","state":"Košický","country":"Slovakia","latitude":48.6476995,"longitude":22.1294953,"population":1023}, 
{"name":"Bidovce","state":"Košický","country":"Slovakia","latitude":48.742707,"longitude":21.4376214,"population":1371}, 
{"name":"Biel","state":"Košický","country":"Slovakia","latitude":48.405496,"longitude":22.0575345,"population":1474}, 
{"name":"Biela","state":"Žilinský","country":"Slovakia","latitude":49.2436038,"longitude":19.1378402,"population":177}, 
{"name":"Biela Voda","state":"Trenčiansky","country":"Slovakia","latitude":49.2023604,"longitude":18.1584677,"population":55}, 
{"name":"Biele Vody","state":"Banskobystrický","country":"Slovakia","latitude":48.6222551,"longitude":19.6238038,"population":21}, 
{"name":"Biele Vody","state":"Košický","country":"Slovakia","latitude":48.8679607,"longitude":20.3983637,"population":182}, 
{"name":"Bielovce","state":"Nitriansky","country":"Slovakia","latitude":47.9943284,"longitude":18.771429,"population":232}, 
{"name":"Biely Kostol","state":"Trnavský","country":"Slovakia","latitude":48.3651838,"longitude":17.5286566,"population":1453}, 
{"name":"Biely Potok","state":"Žilinský","country":"Slovakia","latitude":49.024008,"longitude":19.2777807,"population":1392}, 
{"name":"Bijacovce","state":"Prešovský","country":"Slovakia","latitude":49.0437021,"longitude":20.8115678,"population":898}, 
{"name":"Bílkove Humence","state":"Trnavský","country":"Slovakia","latitude":48.5896704,"longitude":17.2415101,"population":221}, 
{"name":"Bíňa","state":"Nitriansky","country":"Slovakia","latitude":47.9244304,"longitude":18.6475848,"population":1407}, 
{"name":"Bindt","state":"Košický","country":"Slovakia","latitude":48.8706316,"longitude":20.5787888,"population":32}, 
{"name":"Bíňovce","state":"Trnavský","country":"Slovakia","latitude":48.4969869,"longitude":17.4970506,"population":669}, 
{"name":"Biskupice","state":"Trenčiansky","country":"Slovakia","latitude":48.7079428,"longitude":18.2516193,"population":366}, 
{"name":"Biskupice","state":"Trenčiansky","country":"Slovakia","latitude":48.7079428,"longitude":18.2516193,"population":674}, 
{"name":"Biskupice","state":"Banskobystrický","country":"Slovakia","latitude":48.2456549,"longitude":19.8257322,"population":1138}, 
{"name":"Biskupová","state":"Nitriansky","country":"Slovakia","latitude":48.4626783,"longitude":17.9837505,"population":220}, 
{"name":"Bitarová","state":"Žilinský","country":"Slovakia","latitude":49.2086517,"longitude":18.6710679,"population":675}, 
{"name":"Blahová","state":"Trnavský","country":"Slovakia","latitude":48.0939217,"longitude":17.5550136,"population":356}, 
{"name":"Blatná na Ostrove","state":"Trnavský","country":"Slovakia","latitude":47.994433,"longitude":17.4358444,"population":860}, 
{"name":"Blatná Polianka","state":"Košický","country":"Slovakia","latitude":48.6887622,"longitude":22.1084801,"population":169}, 
{"name":"Blatné","state":"Bratislavský","country":"Slovakia","latitude":48.2708974,"longitude":17.4082253,"population":1626}, 
{"name":"Blatné Remety","state":"Košický","country":"Slovakia","latitude":48.7095239,"longitude":22.1019964,"population":623}, 
{"name":"Blatné Revištia","state":"Košický","country":"Slovakia","latitude":48.7355755,"longitude":22.0769881,"population":217}, 
{"name":"Blatnica","state":"Žilinský","country":"Slovakia","latitude":48.9234284,"longitude":18.987868,"population":911}, 
{"name":"Blato","state":"Banskobystrický","country":"Slovakia","latitude":48.6864866,"longitude":19.8080173,"population":126}, 
{"name":"Blažice","state":"Košický","country":"Slovakia","latitude":48.6718614,"longitude":21.417727,"population":559}, 
{"name":"Blažkov","state":"Žilinský","country":"Slovakia","latitude":49.3744847,"longitude":18.8432299,"population":634}, 
{"name":"Blažov","state":"Trnavský","country":"Slovakia","latitude":47.9811478,"longitude":17.6705842,"population":277}, 
{"name":"Blažovce","state":"Žilinský","country":"Slovakia","latitude":48.9398525,"longitude":18.8445931,"population":163}, 
{"name":"Blesovce","state":"Nitriansky","country":"Slovakia","latitude":48.5574934,"longitude":18.040027,"population":334}, 
{"name":"Blhovce","state":"Banskobystrický","country":"Slovakia","latitude":48.2714086,"longitude":19.9404587,"population":791}, 
{"name":"Bobot","state":"Trenčiansky","country":"Slovakia","latitude":48.8324028,"longitude":18.1999201,"population":462}, 
{"name":"Bobotská Lehota","state":"Trenčiansky","country":"Slovakia","latitude":48.8078215,"longitude":18.2052498,"population":293}, 
{"name":"Bobrov","state":"Žilinský","country":"Slovakia","latitude":49.4511303,"longitude":19.5570085,"population":1643}, 
{"name":"Bobrovček","state":"Žilinský","country":"Slovakia","latitude":49.1435552,"longitude":19.600219,"population":174}, 
{"name":"Bobrovec","state":"Žilinský","country":"Slovakia","latitude":49.1647291,"longitude":19.6232441,"population":1781}, 
{"name":"Bobrovník","state":"Žilinský","country":"Slovakia","latitude":49.1206864,"longitude":19.4804997,"population":76}, 
{"name":"Bočiar","state":"Košický","country":"Slovakia","latitude":48.5922255,"longitude":21.2360589,"population":226}, 
{"name":"Bodice","state":"Žilinský","country":"Slovakia","latitude":49.0529521,"longitude":19.568224,"population":420}, 
{"name":"Bodíky","state":"Trnavský","country":"Slovakia","latitude":47.9145568,"longitude":17.458427,"population":288}, 
{"name":"Bodiná","state":"Trenčiansky","country":"Slovakia","latitude":49.1095952,"longitude":18.5655371,"population":496}, 
{"name":"Bodok","state":"Nitriansky","country":"Slovakia","latitude":48.5060463,"longitude":18.0608301,"population":93}, 
{"name":"Bodorová","state":"Žilinský","country":"Slovakia","latitude":48.9042738,"longitude":18.8592741,"population":200}, 
{"name":"Bodovce","state":"Prešovský","country":"Slovakia","latitude":49.1308666,"longitude":21.1754161,"population":319}, 
{"name":"Bodrog","state":"Košický","country":"Slovakia","latitude":48.4320837,"longitude":21.8446505,"population":275}, 
{"name":"Bodružal","state":"Prešovský","country":"Slovakia","latitude":49.3519242,"longitude":21.7106924,"population":59}, 
{"name":"Bodza","state":"Nitriansky","country":"Slovakia","latitude":47.8510967,"longitude":17.8609071,"population":372}, 
{"name":"Bodzianske Lúky","state":"Nitriansky","country":"Slovakia","latitude":47.8889507,"longitude":17.9018307,"population":203}, 
{"name":"Bogliarka","state":"Prešovský","country":"Slovakia","latitude":49.2722839,"longitude":21.1390599,"population":136}, 
{"name":"Bohatá","state":"Nitriansky","country":"Slovakia","latitude":47.8945871,"longitude":18.2192913,"population":2255}, 
{"name":"Bohdanovce","state":"Košický","country":"Slovakia","latitude":48.6544222,"longitude":21.4040332,"population":1033}, 
{"name":"Bohdanovce nad Trnavou","state":"Trnavský","country":"Slovakia","latitude":48.4336114,"longitude":17.5489275,"population":1171}, 
{"name":"Boheľov","state":"Trnavský","country":"Slovakia","latitude":47.9077532,"longitude":17.6975514,"population":351}, 
{"name":"Bohunice","state":"Trnavský","country":"Slovakia","latitude":48.4779551,"longitude":17.6460576,"population":1350}, 
{"name":"Bohunice","state":"Trenčiansky","country":"Slovakia","latitude":49.0264051,"longitude":18.1864273,"population":734}, 
{"name":"Bohunice","state":"Nitriansky","country":"Slovakia","latitude":48.3490838,"longitude":18.7576208,"population":140}, 
{"name":"Bohúňovo","state":"Košický","country":"Slovakia","latitude":48.5120362,"longitude":20.3990053,"population":227}, 
{"name":"Bojná","state":"Nitriansky","country":"Slovakia","latitude":48.6022894,"longitude":18.0336697,"population":1632}, 
{"name":"Bojnice","state":"Trenčiansky","country":"Slovakia","latitude":48.7920343,"longitude":18.5821731,"population":3791}, 
{"name":"Bojnice-kúpele","state":"Trenčiansky","country":"Slovakia","latitude":48.7749971,"longitude":18.5723864,"population":70}, 
{"name":"Bojničky","state":"Trnavský","country":"Slovakia","latitude":48.3903326,"longitude":17.8023672,"population":1341}, 
{"name":"Bokroš","state":"Nitriansky","country":"Slovakia","latitude":47.7596092,"longitude":18.2663271,"population":7}, 
{"name":"Bokša","state":"Prešovský","country":"Slovakia","latitude":49.2098913,"longitude":21.6207751,"population":403}, 
{"name":"Boľ","state":"Košický","country":"Slovakia","latitude":48.475561,"longitude":21.9463866,"population":725}, 
{"name":"Boldog","state":"Bratislavský","country":"Slovakia","latitude":48.2352643,"longitude":17.4326715,"population":428}, 
{"name":"Boleráz","state":"Trnavský","country":"Slovakia","latitude":48.4702783,"longitude":17.4896985,"population":1688}, 
{"name":"Bolešov","state":"Trenčiansky","country":"Slovakia","latitude":49.0061577,"longitude":18.1316028,"population":1526}, 
{"name":"Boliarov","state":"Košický","country":"Slovakia","latitude":48.8105817,"longitude":21.4346755,"population":780}, 
{"name":"Boľkovce","state":"Banskobystrický","country":"Slovakia","latitude":48.3365828,"longitude":19.7421063,"population":650}, 
{"name":"Borčany","state":"Trenčiansky","country":"Slovakia","latitude":48.6620316,"longitude":18.2225459,"population":236}, 
{"name":"Borčice","state":"Trenčiansky","country":"Slovakia","latitude":48.9915662,"longitude":18.1290475,"population":420}, 
{"name":"Borcová","state":"Žilinský","country":"Slovakia","latitude":48.9256403,"longitude":18.8492203,"population":126}, 
{"name":"Borda","state":"Košický","country":"Slovakia","latitude":48.7545075,"longitude":21.5078833,"population":71}, 
{"name":"Borinka","state":"Bratislavský","country":"Slovakia","latitude":48.2630107,"longitude":17.1107073,"population":628}, 
{"name":"Bôrka","state":"Košický","country":"Slovakia","latitude":48.6442385,"longitude":20.7850585,"population":516}, 
{"name":"Borov","state":"Prešovský","country":"Slovakia","latitude":49.3116763,"longitude":21.8892315,"population":228}, 
{"name":"Borová","state":"Trnavský","country":"Slovakia","latitude":48.3877679,"longitude":17.4358242,"population":396}, 
{"name":"Borovce","state":"Trnavský","country":"Slovakia","latitude":48.5800414,"longitude":17.7303388,"population":991}, 
{"name":"Borša","state":"Košický","country":"Slovakia","latitude":48.3950356,"longitude":21.7030765,"population":1214}, 
{"name":"Borský Mikuláš","state":"Trnavský","country":"Slovakia","latitude":48.6190836,"longitude":17.2141194,"population":2333}, 
{"name":"Borský Peter","state":"Trnavský","country":"Slovakia","latitude":48.6276975,"longitude":17.2514718,"population":1600}, 
{"name":"Borský Svätý Jur","state":"Trnavský","country":"Slovakia","latitude":48.5984645,"longitude":17.0511583,"population":1628}, 
{"name":"Bory","state":"Nitriansky","country":"Slovakia","latitude":48.1911657,"longitude":18.750174,"population":313}, 
{"name":"Bošáca","state":"Trenčiansky","country":"Slovakia","latitude":48.8508197,"longitude":17.8317704,"population":1250}, 
{"name":"Bošany","state":"Trenčiansky","country":"Slovakia","latitude":48.5802963,"longitude":18.2488386,"population":4066}, 
{"name":"Bošianska Neporadza","state":"Trenčiansky","country":"Slovakia","latitude":48.8323394,"longitude":18.1539013,"population":440}, 
{"name":"Boťany","state":"Košický","country":"Slovakia","latitude":48.4528079,"longitude":22.0947805,"population":1207}, 
{"name":"Bottovo","state":"Banskobystrický","country":"Slovakia","latitude":48.3203022,"longitude":20.1446928,"population":204}, 
{"name":"Božčice","state":"Košický","country":"Slovakia","latitude":48.7557615,"longitude":21.74788,"population":140}, 
{"name":"Bracovce","state":"Košický","country":"Slovakia","latitude":48.6392023,"longitude":21.8279548,"population":960}, 
{"name":"Brádno","state":"Banskobystrický","country":"Slovakia","latitude":48.5732074,"longitude":20.0110521,"population":27}, 
{"name":"Branč","state":"Nitriansky","country":"Slovakia","latitude":48.2084893,"longitude":18.1481663,"population":1057}, 
{"name":"Branovo","state":"Nitriansky","country":"Slovakia","latitude":48.0215201,"longitude":18.304441,"population":590}, 
{"name":"Bratislava","state":"Bratislavský","country":"Slovakia","latitude":48.1516988,"longitude":17.1093063,"population":411228,"stateCapital":true,"nationalCapital":true}, 
{"name":"Bratkovica","state":"Banskobystrický","country":"Slovakia","latitude":48.5902165,"longitude":19.6270806,"population":29}, 
{"name":"Braväcovo","state":"Banskobystrický","country":"Slovakia","latitude":48.8546387,"longitude":19.7520948,"population":722}, 
{"name":"Brdárka","state":"Košický","country":"Slovakia","latitude":48.7605413,"longitude":20.3401938,"population":79}, 
{"name":"Brehov","state":"Košický","country":"Slovakia","latitude":48.4877606,"longitude":21.8078922,"population":623}, 
{"name":"Brehy","state":"Banskobystrický","country":"Slovakia","latitude":48.3991938,"longitude":18.6695053,"population":1087}, 
{"name":"Brekov","state":"Prešovský","country":"Slovakia","latitude":48.9035053,"longitude":21.83962,"population":1336}, 
{"name":"Brestina","state":"Banskobystrický","country":"Slovakia","latitude":48.5399166,"longitude":19.5472372,"population":43}, 
{"name":"Brestov","state":"Prešovský","country":"Slovakia","latitude":48.8730566,"longitude":21.3492654,"population":573}, 
{"name":"Brestov","state":"Prešovský","country":"Slovakia","latitude":48.8730566,"longitude":21.3492654,"population":443}, 
{"name":"Brestov nad Laborcom","state":"Prešovský","country":"Slovakia","latitude":49.1118917,"longitude":21.9500543,"population":105}, 
{"name":"Brestovany","state":"Trnavský","country":"Slovakia","latitude":48.3855572,"longitude":17.690227,"population":1782}, 
{"name":"Brestové","state":"Trenčiansky","country":"Slovakia","latitude":48.8385636,"longitude":17.769172,"population":298}, 
{"name":"Brestovec","state":"Trenčiansky","country":"Slovakia","latitude":48.8008981,"longitude":17.5479508,"population":943}, 
{"name":"Brestovec","state":"Nitriansky","country":"Slovakia","latitude":47.8786861,"longitude":17.8366143,"population":473}, 
{"name":"Bretejovce","state":"Prešovský","country":"Slovakia","latitude":48.8309859,"longitude":21.2795474,"population":374}, 
{"name":"Bretka","state":"Košický","country":"Slovakia","latitude":48.4926679,"longitude":20.336973,"population":375}, 
{"name":"Breza","state":"Žilinský","country":"Slovakia","latitude":49.3983305,"longitude":19.3666062,"population":1572}, 
{"name":"Brezany","state":"Trenčiansky","country":"Slovakia","latitude":48.8186247,"longitude":18.6851993,"population":1265}, 
{"name":"Brezany","state":"Žilinský","country":"Slovakia","latitude":49.1880544,"longitude":18.6632207,"population":524}, 
{"name":"Brežany","state":"Prešovský","country":"Slovakia","latitude":48.9788289,"longitude":21.1098336,"population":156}, 
{"name":"Brezina","state":"Košický","country":"Slovakia","latitude":48.5516344,"longitude":21.5580488,"population":711}, 
{"name":"Breznica","state":"Prešovský","country":"Slovakia","latitude":49.1555709,"longitude":21.6700775,"population":777}, 
{"name":"Breznička","state":"Banskobystrický","country":"Slovakia","latitude":48.4153894,"longitude":19.7331569,"population":784}, 
{"name":"Breznička","state":"Prešovský","country":"Slovakia","latitude":49.2258294,"longitude":21.7083611,"population":135}, 
{"name":"Brezno","state":"Banskobystrický","country":"Slovakia","latitude":48.8394452,"longitude":19.6955611,"population":13283}, 
{"name":"Brezolupy","state":"Trenčiansky","country":"Slovakia","latitude":48.7015087,"longitude":18.3090793,"population":392}, 
{"name":"Brezov","state":"Prešovský","country":"Slovakia","latitude":49.142765,"longitude":21.509607,"population":402}, 
{"name":"Brezová pod Bradlom","state":"Trenčiansky","country":"Slovakia","latitude":48.6719853,"longitude":17.5564215,"population":5110}, 
{"name":"Brezovec","state":"Prešovský","country":"Slovakia","latitude":48.9411572,"longitude":22.3927614,"population":49}, 
{"name":"Brezovica","state":"Žilinský","country":"Slovakia","latitude":49.3216963,"longitude":19.6730737,"population":1304}, 
{"name":"Brezovica","state":"Prešovský","country":"Slovakia","latitude":49.1375884,"longitude":20.835506,"population":1701}, 
{"name":"Brezovička","state":"Prešovský","country":"Slovakia","latitude":49.117388,"longitude":20.8341184,"population":429}, 
{"name":"Brezovka","state":"Prešovský","country":"Slovakia","latitude":49.2731913,"longitude":21.4157824,"population":106}, 
{"name":"Brhlovce","state":"Nitriansky","country":"Slovakia","latitude":48.2164446,"longitude":18.7401464,"population":286}, 
{"name":"Briestenné","state":"Trenčiansky","country":"Slovakia","latitude":49.0065185,"longitude":18.5116912,"population":26}, 
{"name":"Brieštie","state":"Žilinský","country":"Slovakia","latitude":48.920561,"longitude":18.7193337,"population":146}, 
{"name":"Brišovka","state":"Žilinský","country":"Slovakia","latitude":49.365341,"longitude":19.1777246,"population":508}, 
{"name":"Brnice","state":"Žilinský","country":"Slovakia","latitude":49.1393896,"longitude":19.5119656,"population":3}, 
{"name":"Brodno","state":"Žilinský","country":"Slovakia","latitude":49.261589,"longitude":18.768832,"population":1253}, 
{"name":"Brodské","state":"Trnavský","country":"Slovakia","latitude":48.6950145,"longitude":17.0217612,"population":2350}, 
{"name":"Brodzany","state":"Trenčiansky","country":"Slovakia","latitude":48.5998656,"longitude":18.3528169,"population":807}, 
{"name":"Bršlica","state":"Žilinský","country":"Slovakia","latitude":49.3021162,"longitude":18.5065942,"population":0}, 
{"name":"Bruchačka","state":"Banskobystrický","country":"Slovakia","latitude":48.8837059,"longitude":19.5833543,"population":39}, 
{"name":"Brunovce","state":"Trenčiansky","country":"Slovakia","latitude":48.6782501,"longitude":17.8497965,"population":557}, 
{"name":"Brusnica","state":"Prešovský","country":"Slovakia","latitude":49.1490864,"longitude":21.7089704,"population":417}, 
{"name":"Brusník","state":"Banskobystrický","country":"Slovakia","latitude":48.3027679,"longitude":19.4175716,"population":34}, 
{"name":"Brusník","state":"Banskobystrický","country":"Slovakia","latitude":48.3027679,"longitude":19.4175716,"population":105}, 
{"name":"Brusno","state":"Trenčiansky","country":"Slovakia","latitude":48.7608158,"longitude":18.719161,"population":732}, 
{"name":"Brusno","state":"Banskobystrický","country":"Slovakia","latitude":48.8270612,"longitude":19.389056,"population":947}, 
{"name":"Brusno-kúpele","state":"Banskobystrický","country":"Slovakia","latitude":48.785687,"longitude":19.3955392,"population":14}, 
{"name":"Brutovce","state":"Prešovský","country":"Slovakia","latitude":49.0908221,"longitude":20.7959716,"population":197}, 
{"name":"Bruty","state":"Nitriansky","country":"Slovakia","latitude":47.9131785,"longitude":18.5697027,"population":618}, 
{"name":"Brvnište","state":"Trenčiansky","country":"Slovakia","latitude":49.2137357,"longitude":18.4233556,"population":1182}, 
{"name":"Brzotín","state":"Košický","country":"Slovakia","latitude":48.627856,"longitude":20.496516,"population":1316}, 
{"name":"Búč","state":"Nitriansky","country":"Slovakia","latitude":47.8042168,"longitude":18.471514,"population":1190}, 
{"name":"Bučany","state":"Trnavský","country":"Slovakia","latitude":48.4136959,"longitude":17.6887096,"population":2267}, 
{"name":"Bučina","state":"Žilinský","country":"Slovakia","latitude":49.3737722,"longitude":19.1769347,"population":180}, 
{"name":"Bučkovec","state":"Trenčiansky","country":"Slovakia","latitude":48.8495732,"longitude":17.758332,"population":260}, 
{"name":"Buclovany","state":"Prešovský","country":"Slovakia","latitude":49.1599743,"longitude":21.3714495,"population":219}, 
{"name":"Bučuháza","state":"Trnavský","country":"Slovakia","latitude":48.0312503,"longitude":17.3466774,"population":52}, 
{"name":"Budatín","state":"Žilinský","country":"Slovakia","latitude":49.2378868,"longitude":18.7490896,"population":1561}, 
{"name":"Budatínska Lehota","state":"Žilinský","country":"Slovakia","latitude":49.2982241,"longitude":18.8350926,"population":639}, 
{"name":"Budča","state":"Banskobystrický","country":"Slovakia","latitude":48.5753366,"longitude":19.0448349,"population":1266}, 
{"name":"Budička","state":"Banskobystrický","country":"Slovakia","latitude":48.5992795,"longitude":19.015236,"population":59}, 
{"name":"Budikovany","state":"Banskobystrický","country":"Slovakia","latitude":48.4915436,"longitude":20.0931929,"population":50}, 
{"name":"Budimír","state":"Košický","country":"Slovakia","latitude":48.79651,"longitude":21.2927799,"population":1042}, 
{"name":"Budiná","state":"Banskobystrický","country":"Slovakia","latitude":48.470587,"longitude":19.4531112,"population":263}, 
{"name":"Budince","state":"Košický","country":"Slovakia","latitude":48.5461257,"longitude":22.1207425,"population":230}, 
{"name":"Budiš","state":"Žilinský","country":"Slovakia","latitude":48.8537461,"longitude":18.7326569,"population":208}, 
{"name":"Budkovce","state":"Košický","country":"Slovakia","latitude":48.6364689,"longitude":21.9342318,"population":1339}, 
{"name":"Budmerice","state":"Bratislavský","country":"Slovakia","latitude":48.3608443,"longitude":17.4061362,"population":2230}, 
{"name":"Budulov","state":"Košický","country":"Slovakia","latitude":48.5810971,"longitude":20.9884347,"population":522}, 
{"name":"Budzín","state":"Prešovský","country":"Slovakia","latitude":49.1548731,"longitude":20.9421808,"population":97}, 
{"name":"Buglovce","state":"Prešovský","country":"Slovakia","latitude":48.9848148,"longitude":20.6925613,"population":269}, 
{"name":"Bujakovo","state":"Banskobystrický","country":"Slovakia","latitude":48.820615,"longitude":19.6850136,"population":229}, 
{"name":"Buková","state":"Trnavský","country":"Slovakia","latitude":48.537315,"longitude":17.3930949,"population":665}, 
{"name":"Buková","state":"Žilinský","country":"Slovakia","latitude":48.999645,"longitude":19.6658839,"population":269}, 
{"name":"Bukovce","state":"Prešovský","country":"Slovakia","latitude":49.265805,"longitude":21.7123961,"population":524}, 
{"name":"Bukovec","state":"Trenčiansky","country":"Slovakia","latitude":48.695432,"longitude":17.4952654,"population":420}, 
{"name":"Bukovec","state":"Banskobystrický","country":"Slovakia","latitude":48.8900652,"longitude":20.1993286,"population":127}, 
{"name":"Bukovec","state":"Košický","country":"Slovakia","latitude":48.7149076,"longitude":21.1422394,"population":777}, 
{"name":"Bukovina","state":"Žilinský","country":"Slovakia","latitude":49.1350202,"longitude":19.4715234,"population":112}, 
{"name":"Bukovina","state":"Banskobystrický","country":"Slovakia","latitude":48.540528,"longitude":18.7173548,"population":196}, 
{"name":"Bukovina","state":"Banskobystrický","country":"Slovakia","latitude":48.540528,"longitude":18.7173548,"population":179}, 
{"name":"Bukovinka","state":"Banskobystrický","country":"Slovakia","latitude":48.4532047,"longitude":19.8068196,"population":86}, 
{"name":"Bukovinka","state":"Prešovský","country":"Slovakia","latitude":49.2837792,"longitude":21.5769694,"population":166}, 
{"name":"Bulhary","state":"Banskobystrický","country":"Slovakia","latitude":48.2944023,"longitude":19.8547924,"population":305}, 
{"name":"Bunde","state":"Prešovský","country":"Slovakia","latitude":49.0255186,"longitude":21.0607137,"population":88}, 
{"name":"Bunetice","state":"Košický","country":"Slovakia","latitude":48.8630728,"longitude":21.3947335,"population":85}, 
{"name":"Bunkovce","state":"Košický","country":"Slovakia","latitude":48.7207914,"longitude":22.120204,"population":361}, 
{"name":"Bušince","state":"Banskobystrický","country":"Slovakia","latitude":48.1839133,"longitude":19.4932438,"population":1451}, 
{"name":"Bušovce","state":"Prešovský","country":"Slovakia","latitude":49.2231041,"longitude":20.4795321,"population":313}, 
{"name":"Búštelek","state":"Trnavský","country":"Slovakia","latitude":48.1485685,"longitude":17.3853295,"population":117}, 
{"name":"Buzica","state":"Košický","country":"Slovakia","latitude":48.52671,"longitude":21.0952052,"population":1195}, 
{"name":"Buzice","state":"Košický","country":"Slovakia","latitude":48.6407258,"longitude":21.28912,"population":1635}, 
{"name":"Buzitka","state":"Banskobystrický","country":"Slovakia","latitude":48.3271663,"longitude":19.8249023,"population":368}, 
{"name":"Byšta","state":"Košický","country":"Slovakia","latitude":48.52739,"longitude":21.550659,"population":162}, 
{"name":"Byster","state":"Košický","country":"Slovakia","latitude":48.7160878,"longitude":21.3601193,"population":839}, 
{"name":"Bystrá","state":"Banskobystrický","country":"Slovakia","latitude":48.8872026,"longitude":19.6206406,"population":203}, 
{"name":"Bystrá","state":"Prešovský","country":"Slovakia","latitude":49.2445285,"longitude":21.8204104,"population":30}, 
{"name":"Bystrany","state":"Košický","country":"Slovakia","latitude":48.9592948,"longitude":20.7524785,"population":3188}, 
{"name":"Bystré","state":"Prešovský","country":"Slovakia","latitude":49.0071106,"longitude":21.5387674,"population":2669}, 
{"name":"Bystričany","state":"Trenčiansky","country":"Slovakia","latitude":48.6388144,"longitude":18.5610787,"population":1508}, 
{"name":"Bystrička","state":"Nitriansky","country":"Slovakia","latitude":47.7634511,"longitude":18.3580285,"population":7}, 
{"name":"Bystrička","state":"Žilinský","country":"Slovakia","latitude":49.0597475,"longitude":18.8459825,"population":1413}, 
{"name":"Bystrička","state":"Banskobystrický","country":"Slovakia","latitude":48.4652982,"longitude":19.7061084,"population":189}, 
{"name":"Bytča","state":"Žilinský","country":"Slovakia","latitude":49.2235748,"longitude":18.5586825,"population":11318}, 
{"name":"Bytčica","state":"Žilinský","country":"Slovakia","latitude":49.1810909,"longitude":18.7377103,"population":2245}, 
{"name":"Bžany","state":"Prešovský","country":"Slovakia","latitude":49.0831434,"longitude":21.627691,"population":164}, 
{"name":"Bzenica","state":"Banskobystrický","country":"Slovakia","latitude":48.5148217,"longitude":18.7530725,"population":344}, 
{"name":"Bzenov","state":"Prešovský","country":"Slovakia","latitude":48.9584761,"longitude":21.1606621,"population":754}, 
{"name":"Bzince","state":"Nitriansky","country":"Slovakia","latitude":48.5237939,"longitude":17.9320672,"population":212}, 
{"name":"Bzince pod Javorinou","state":"Trenčiansky","country":"Slovakia","latitude":48.78734,"longitude":17.7717047,"population":1267}, 
{"name":"Bziny","state":"Žilinský","country":"Slovakia","latitude":49.2203069,"longitude":19.3357714,"population":546}, 
{"name":"Bzovík","state":"Banskobystrický","country":"Slovakia","latitude":48.3176055,"longitude":19.0844389,"population":1103}, 
{"name":"Bzovská Lehôtka","state":"Banskobystrický","country":"Slovakia","latitude":48.4024041,"longitude":19.132101,"population":134}, 
{"name":"Čab","state":"Nitriansky","country":"Slovakia","latitude":48.3993641,"longitude":17.992467,"population":781}, 
{"name":"Cabaj","state":"Nitriansky","country":"Slovakia","latitude":48.2314628,"longitude":18.026054,"population":2550}, 
{"name":"Čabalovce","state":"Prešovský","country":"Slovakia","latitude":49.2290821,"longitude":21.969924,"population":358}, 
{"name":"Čabiny","state":"Prešovský","country":"Slovakia","latitude":49.1857548,"longitude":21.9100492,"population":391}, 
{"name":"Cabov","state":"Prešovský","country":"Slovakia","latitude":48.7941814,"longitude":21.6204103,"population":410}, 
{"name":"Čabradský Vrbovok","state":"Banskobystrický","country":"Slovakia","latitude":48.2441721,"longitude":19.0890352,"population":271}, 
{"name":"Čachtice","state":"Trenčiansky","country":"Slovakia","latitude":48.721018,"longitude":17.7850031,"population":3986}, 
{"name":"Čačín","state":"Banskobystrický","country":"Slovakia","latitude":48.6765533,"longitude":19.2582243,"population":155}, 
{"name":"Čáčov","state":"Trnavský","country":"Slovakia","latitude":48.6776988,"longitude":17.3376623,"population":1047}, 
{"name":"Čadca","state":"Žilinský","country":"Slovakia","latitude":49.441168,"longitude":18.7981757,"population":6747}, 
{"name":"Čadečka","state":"Žilinský","country":"Slovakia","latitude":49.4541426,"longitude":18.7876248,"population":1558}, 
{"name":"Čajakovo","state":"Nitriansky","country":"Slovakia","latitude":47.9892452,"longitude":18.6471612,"population":511}, 
{"name":"Čajkov","state":"Nitriansky","country":"Slovakia","latitude":48.3152456,"longitude":18.6148252,"population":1013}, 
{"name":"Čaka","state":"Nitriansky","country":"Slovakia","latitude":48.0382844,"longitude":18.4785557,"population":805}, 
{"name":"Čakajovce","state":"Nitriansky","country":"Slovakia","latitude":48.3750798,"longitude":18.0440622,"population":1112}, 
{"name":"Čakanovce","state":"Banskobystrický","country":"Slovakia","latitude":48.2112091,"longitude":19.7871212,"population":1111}, 
{"name":"Čakanovce","state":"Košický","country":"Slovakia","latitude":48.7748734,"longitude":21.4357605,"population":618}, 
{"name":"Čakany","state":"Trnavský","country":"Slovakia","latitude":48.1159396,"longitude":17.3716422,"population":570}, 
{"name":"Čaklov","state":"Prešovský","country":"Slovakia","latitude":48.8980392,"longitude":21.6160014,"population":2442}, 
{"name":"Cakov","state":"Banskobystrický","country":"Slovakia","latitude":48.3336214,"longitude":20.2163051,"population":296}, 
{"name":"Čalovec","state":"Nitriansky","country":"Slovakia","latitude":47.8453042,"longitude":17.9629596,"population":1096}, 
{"name":"Čamovce","state":"Banskobystrický","country":"Slovakia","latitude":48.232235,"longitude":19.886164,"population":577}, 
{"name":"Čaňa","state":"Košický","country":"Slovakia","latitude":48.6085847,"longitude":21.3139754,"population":5493}, 
{"name":"Čankov","state":"Nitriansky","country":"Slovakia","latitude":48.1926013,"longitude":18.7154899,"population":283}, 
{"name":"Čápor","state":"Nitriansky","country":"Slovakia","latitude":48.2493482,"longitude":18.0087561,"population":1301}, 
{"name":"Čaradice","state":"Nitriansky","country":"Slovakia","latitude":48.37226,"longitude":18.5064373,"population":511}, 
{"name":"Čáry","state":"Trnavský","country":"Slovakia","latitude":48.6667063,"longitude":17.0800323,"population":1268}, 
{"name":"Častá","state":"Bratislavský","country":"Slovakia","latitude":48.4052093,"longitude":17.3195717,"population":2153}, 
{"name":"Částa","state":"Nitriansky","country":"Slovakia","latitude":47.8997467,"longitude":17.9141398,"population":145}, 
{"name":"Častkov","state":"Trnavský","country":"Slovakia","latitude":48.7541482,"longitude":17.3550634,"population":597}, 
{"name":"Častkovce","state":"Trenčiansky","country":"Slovakia","latitude":48.6844812,"longitude":17.7703852,"population":1107}, 
{"name":"Čata","state":"Nitriansky","country":"Slovakia","latitude":47.955534,"longitude":18.6459868,"population":1074}, 
{"name":"Čataj","state":"Bratislavský","country":"Slovakia","latitude":48.2660963,"longitude":17.481443,"population":1085}, 
{"name":"Čavoj","state":"Trenčiansky","country":"Slovakia","latitude":48.8935288,"longitude":18.4873556,"population":473}, 
{"name":"Čebovce","state":"Banskobystrický","country":"Slovakia","latitude":48.2055764,"longitude":19.2316857,"population":1063}, 
{"name":"Čečehov","state":"Košický","country":"Slovakia","latitude":48.7215961,"longitude":22.0006234,"population":365}, 
{"name":"Čečejovce","state":"Košický","country":"Slovakia","latitude":48.594217,"longitude":21.0635579,"population":1943}, 
{"name":"Čechánky","state":"Banskobystrický","country":"Slovakia","latitude":48.5487128,"longitude":19.5905212,"population":63}, 
{"name":"Čechová","state":"Trnavský","country":"Slovakia","latitude":48.0115565,"longitude":17.4814243,"population":183}, 
{"name":"Čechy","state":"Nitriansky","country":"Slovakia","latitude":48.0414892,"longitude":18.3707994,"population":299}, 
{"name":"Čechynce","state":"Nitriansky","country":"Slovakia","latitude":48.2545467,"longitude":18.164698,"population":1050}, 
{"name":"Čečínska Potôň","state":"Trnavský","country":"Slovakia","latitude":48.0648012,"longitude":17.5547065,"population":450}, 
{"name":"Cejkov","state":"Košický","country":"Slovakia","latitude":48.4575571,"longitude":21.7645419,"population":1200}, 
{"name":"Čekovce","state":"Banskobystrický","country":"Slovakia","latitude":48.3619286,"longitude":19.1330753,"population":436}, 
{"name":"Čeľadice","state":"Nitriansky","country":"Slovakia","latitude":48.3131553,"longitude":18.2417596,"population":914}, 
{"name":"Čeľadince","state":"Nitriansky","country":"Slovakia","latitude":48.5119185,"longitude":18.1701389,"population":446}, 
{"name":"Čeláre","state":"Banskobystrický","country":"Slovakia","latitude":48.1366817,"longitude":19.4804345,"population":304}, 
{"name":"Čelkova Lehota","state":"Trenčiansky","country":"Slovakia","latitude":49.0079075,"longitude":18.5225484,"population":136}, 
{"name":"Čelovce","state":"Banskobystrický","country":"Slovakia","latitude":48.1926406,"longitude":19.1135226,"population":438}, 
{"name":"Čelovce","state":"Prešovský","country":"Slovakia","latitude":49.0722213,"longitude":21.4028949,"population":313}, 
{"name":"Čeľovce","state":"Košický","country":"Slovakia","latitude":48.6010116,"longitude":21.6319225,"population":540}, 
{"name":"Celulózka","state":"Žilinský","country":"Slovakia","latitude":49.2162796,"longitude":18.7664079,"population":693}, 
{"name":"Čemerné","state":"Prešovský","country":"Slovakia","latitude":48.8675209,"longitude":21.6706658,"population":3351}, 
{"name":"Cemjata","state":"Prešovský","country":"Slovakia","latitude":48.9836876,"longitude":21.1750832,"population":226}, 
{"name":"Čenkesfa","state":"Trnavský","country":"Slovakia","latitude":47.9692573,"longitude":17.6504264,"population":115}, 
{"name":"Čenkov","state":"Nitriansky","country":"Slovakia","latitude":47.7677122,"longitude":18.5313513,"population":51}, 
{"name":"Čenkovce","state":"Trnavský","country":"Slovakia","latitude":48.0960706,"longitude":17.4534179,"population":909}, 
{"name":"Čereňany","state":"Trenčiansky","country":"Slovakia","latitude":48.6263601,"longitude":18.5351365,"population":1708}, 
{"name":"Čerenčany","state":"Banskobystrický","country":"Slovakia","latitude":48.4091885,"longitude":19.996288,"population":550}, 
{"name":"Čergov","state":"Nitriansky","country":"Slovakia","latitude":47.8713919,"longitude":18.0485304,"population":2}, 
{"name":"Čerhát","state":"Nitriansky","country":"Slovakia","latitude":47.7877113,"longitude":18.0111599,"population":76}, 
{"name":"Čerhov","state":"Košický","country":"Slovakia","latitude":48.4631744,"longitude":21.6433806,"population":819}, 
{"name":"Čerín","state":"Banskobystrický","country":"Slovakia","latitude":48.6633075,"longitude":19.2540362,"population":290}, 
{"name":"Čermany","state":"Nitriansky","country":"Slovakia","latitude":48.4718606,"longitude":18.0346927,"population":383}, 
{"name":"Černík","state":"Nitriansky","country":"Slovakia","latitude":48.1631583,"longitude":18.2274113,"population":1013}, 
{"name":"Cernina","state":"Prešovský","country":"Slovakia","latitude":49.2954112,"longitude":21.475629,"population":578}, 
{"name":"Černina","state":"Prešovský","country":"Slovakia","latitude":49.0548664,"longitude":21.8276661,"population":181}, 
{"name":"Černochov","state":"Košický","country":"Slovakia","latitude":48.4455022,"longitude":21.7286443,"population":208}, 
{"name":"Černochov Vrch","state":"Trenčiansky","country":"Slovakia","latitude":48.7633074,"longitude":17.6445968,"population":194}, 
{"name":"Černová","state":"Žilinský","country":"Slovakia","latitude":49.0714174,"longitude":19.2396407,"population":1540}, 
{"name":"Cerová","state":"Trnavský","country":"Slovakia","latitude":48.5868089,"longitude":17.380381,"population":632}, 
{"name":"Cerová","state":"Trenčiansky","country":"Slovakia","latitude":48.5693057,"longitude":18.5181292,"population":51}, 
{"name":"Ceroviny","state":"Nitriansky","country":"Slovakia","latitude":48.4261469,"longitude":17.9423567,"population":47}, 
{"name":"Cerovo","state":"Banskobystrický","country":"Slovakia","latitude":48.2538008,"longitude":19.1732016,"population":586}, 
{"name":"Čertižné","state":"Prešovský","country":"Slovakia","latitude":49.3613522,"longitude":21.8230292,"population":375}, 
{"name":"Červeň","state":"Banskobystrický","country":"Slovakia","latitude":48.4076322,"longitude":19.7454797,"population":0}, 
{"name":"Červená Skala","state":"Banskobystrický","country":"Slovakia","latitude":48.8195996,"longitude":20.1367971,"population":114}, 
{"name":"Červená Voda","state":"Prešovský","country":"Slovakia","latitude":49.1361223,"longitude":21.083618,"population":484}, 
{"name":"Červeňany","state":"Banskobystrický","country":"Slovakia","latitude":48.3811041,"longitude":19.380415,"population":124}, 
{"name":"Červeňany","state":"Banskobystrický","country":"Slovakia","latitude":48.3811041,"longitude":19.380415,"population":44}, 
{"name":"Červenica","state":"Prešovský","country":"Slovakia","latitude":48.8974923,"longitude":21.4561079,"population":881}, 
{"name":"Červenica pri Sabinove","state":"Prešovský","country":"Slovakia","latitude":49.1440657,"longitude":21.0223595,"population":824}, 
{"name":"Červeník","state":"Trnavský","country":"Slovakia","latitude":48.4653854,"longitude":17.7621062,"population":1596}, 
{"name":"Červený Hrádok","state":"Nitriansky","country":"Slovakia","latitude":48.3005493,"longitude":18.390794,"population":411}, 
{"name":"Červený Kameň","state":"Bratislavský","country":"Slovakia","latitude":48.3939062,"longitude":17.3351812,"population":17}, 
{"name":"Červený Kameň","state":"Trenčiansky","country":"Slovakia","latitude":49.1071084,"longitude":18.1523595,"population":716}, 
{"name":"Červený Kláštor","state":"Prešovský","country":"Slovakia","latitude":49.3989028,"longitude":20.4171628,"population":171}, 
{"name":"Červený Kláštor-kúpele","state":"Prešovský","country":"Slovakia","latitude":49.3899714,"longitude":20.4214919,"population":66}, 
{"name":"České Brezovo","state":"Banskobystrický","country":"Slovakia","latitude":48.5081577,"longitude":19.786453,"population":422}, 
{"name":"Cestice","state":"Košický","country":"Slovakia","latitude":48.5810432,"longitude":21.0968288,"population":824}, 
{"name":"Cetuna","state":"Trenčiansky","country":"Slovakia","latitude":48.8298977,"longitude":17.7261788,"population":255}, 
{"name":"Chalmová","state":"Trenčiansky","country":"Slovakia","latitude":48.6681574,"longitude":18.4744117,"population":135}, 
{"name":"Chanava","state":"Banskobystrický","country":"Slovakia","latitude":48.33287,"longitude":20.292718,"population":710}, 
{"name":"Chľaba","state":"Nitriansky","country":"Slovakia","latitude":47.8367279,"longitude":18.8163483,"population":695}, 
{"name":"Chladná Studňa","state":"Banskobystrický","country":"Slovakia","latitude":48.1542547,"longitude":19.1344166,"population":0}, 
{"name":"Chlebnice","state":"Žilinský","country":"Slovakia","latitude":49.2242045,"longitude":19.4832532,"population":1587}, 
{"name":"Chlmec","state":"Prešovský","country":"Slovakia","latitude":48.8840693,"longitude":21.9398407,"population":559}, 
{"name":"Chmeľnica","state":"Prešovský","country":"Slovakia","latitude":49.285576,"longitude":20.734768,"population":946}, 
{"name":"Chmeľov","state":"Prešovský","country":"Slovakia","latitude":49.0657625,"longitude":21.4372919,"population":821}, 
{"name":"Chmeľová","state":"Prešovský","country":"Slovakia","latitude":49.4035394,"longitude":21.3011104,"population":398}, 
{"name":"Chmeľovec","state":"Prešovský","country":"Slovakia","latitude":49.0875604,"longitude":21.3732166,"population":436}, 
{"name":"Chmiňany","state":"Prešovský","country":"Slovakia","latitude":48.9992432,"longitude":21.0660117,"population":867}, 
{"name":"Chminianska Nová Ves","state":"Prešovský","country":"Slovakia","latitude":49.0204787,"longitude":21.0700865,"population":1155}, 
{"name":"Chminianske Jakubovany","state":"Prešovský","country":"Slovakia","latitude":48.992576,"longitude":21.0019331,"population":1913}, 
{"name":"Choča","state":"Nitriansky","country":"Slovakia","latitude":48.3534937,"longitude":18.3233968,"population":514}, 
{"name":"Chocholná","state":"Trenčiansky","country":"Slovakia","latitude":48.8680601,"longitude":17.943812,"population":1203}, 
{"name":"Choňkovce","state":"Košický","country":"Slovakia","latitude":48.7998982,"longitude":22.2483576,"population":577}, 
{"name":"Chorvatice","state":"Nitriansky","country":"Slovakia","latitude":48.1267735,"longitude":18.9101141,"population":258}, 
{"name":"Chorvátsky Grob","state":"Bratislavský","country":"Slovakia","latitude":48.2216593,"longitude":17.2720924,"population":3789}, 
{"name":"Chorváty","state":"Košický","country":"Slovakia","latitude":48.5612683,"longitude":20.870188,"population":102}, 
{"name":"Chotár","state":"Banskobystrický","country":"Slovakia","latitude":48.3969041,"longitude":20.0524034,"population":70}, 
{"name":"Chotča","state":"Prešovský","country":"Slovakia","latitude":49.2409806,"longitude":21.699158,"population":552}, 
{"name":"Chotín","state":"Nitriansky","country":"Slovakia","latitude":47.8104385,"longitude":18.227961,"population":1383}, 
{"name":"Chrabrany","state":"Nitriansky","country":"Slovakia","latitude":48.5209147,"longitude":18.1391918,"population":763}, 
{"name":"Chrámec","state":"Banskobystrický","country":"Slovakia","latitude":48.2719901,"longitude":20.1719681,"population":418}, 
{"name":"Chrasť","state":"Nitriansky","country":"Slovakia","latitude":47.9171098,"longitude":18.2586726,"population":123}, 
{"name":"Chrasť nad Hornádom","state":"Košický","country":"Slovakia","latitude":48.917015,"longitude":20.6991059,"population":840}, 
{"name":"Chrastince","state":"Banskobystrický","country":"Slovakia","latitude":48.0946573,"longitude":19.2371339,"population":242}, 
{"name":"Chrastné","state":"Košický","country":"Slovakia","latitude":48.7963556,"longitude":21.3595002,"population":440}, 
{"name":"Chrenovec","state":"Trenčiansky","country":"Slovakia","latitude":48.7967645,"longitude":18.7447639,"population":651}, 
{"name":"Chropov","state":"Trnavský","country":"Slovakia","latitude":48.7903059,"longitude":17.3501414,"population":374}, 
{"name":"Chrťany","state":"Banskobystrický","country":"Slovakia","latitude":48.2953806,"longitude":19.4582589,"population":151}, 
{"name":"Chtelnica","state":"Trnavský","country":"Slovakia","latitude":48.582566,"longitude":17.6075243,"population":2589}, 
{"name":"Chudá Lehota","state":"Trenčiansky","country":"Slovakia","latitude":48.6429958,"longitude":18.19949,"population":201}, 
{"name":"Chvalová","state":"Banskobystrický","country":"Slovakia","latitude":48.5131445,"longitude":20.1655653,"population":174}, 
{"name":"Chvatimech","state":"Banskobystrický","country":"Slovakia","latitude":48.8052417,"longitude":19.5545692,"population":45}, 
{"name":"Chvojnica","state":"Trenčiansky","country":"Slovakia","latitude":48.8001613,"longitude":17.3985188,"population":373}, 
{"name":"Chvojnica","state":"Trenčiansky","country":"Slovakia","latitude":48.8001613,"longitude":17.3985188,"population":249}, 
{"name":"Chym","state":"Košický","country":"Slovakia","latitude":48.5276173,"longitude":21.1604634,"population":329}, 
{"name":"Chynorany","state":"Trenčiansky","country":"Slovakia","latitude":48.6138115,"longitude":18.2799858,"population":2754}, 
{"name":"Chyzerovce","state":"Nitriansky","country":"Slovakia","latitude":48.3682187,"longitude":18.3842402,"population":948}, 
{"name":"Chyžné","state":"Banskobystrický","country":"Slovakia","latitude":48.6893264,"longitude":20.2030191,"population":420}, 
{"name":"Čiakov","state":"Žilinský","country":"Slovakia","latitude":49.3269111,"longitude":18.5278676,"population":117}, 
{"name":"Čičarovce","state":"Košický","country":"Slovakia","latitude":48.5404005,"longitude":22.0121729,"population":891}, 
{"name":"Čičava","state":"Prešovský","country":"Slovakia","latitude":48.9284071,"longitude":21.6685854,"population":1192}, 
{"name":"Čičmany","state":"Žilinský","country":"Slovakia","latitude":48.964386,"longitude":18.518587,"population":170}, 
{"name":"Číčov","state":"Nitriansky","country":"Slovakia","latitude":47.7856765,"longitude":17.754608,"population":1270}, 
{"name":"Čierna","state":"Košický","country":"Slovakia","latitude":48.4360398,"longitude":22.1174178,"population":486}, 
{"name":"Čierná Hora","state":"Košický","country":"Slovakia","latitude":48.843452,"longitude":20.5859542,"population":5}, 
{"name":"Čierna Lehota","state":"Trenčiansky","country":"Slovakia","latitude":48.8707203,"longitude":18.337248,"population":131}, 
{"name":"Čierna Lehota","state":"Košický","country":"Slovakia","latitude":48.739002,"longitude":20.2269043,"population":666}, 
{"name":"Čierna nad Tisou","state":"Košický","country":"Slovakia","latitude":48.4186217,"longitude":22.0863243,"population":3885}, 
{"name":"Čierna Voda","state":"Trnavský","country":"Slovakia","latitude":48.1216905,"longitude":17.6399429,"population":1397}, 
{"name":"Čierne","state":"Žilinský","country":"Slovakia","latitude":49.4959139,"longitude":18.830388,"population":1}, 
{"name":"Čierne","state":"Žilinský","country":"Slovakia","latitude":49.4959139,"longitude":18.830388,"population":4390}, 
{"name":"Čierne","state":"Žilinský","country":"Slovakia","latitude":49.4959139,"longitude":18.830388,"population":101}, 
{"name":"Čierne Kľačany","state":"Nitriansky","country":"Slovakia","latitude":48.3603897,"longitude":18.4444405,"population":1084}, 
{"name":"Čierne nad Topľou","state":"Prešovský","country":"Slovakia","latitude":48.9869429,"longitude":21.5640494,"population":757}, 
{"name":"Čierne Pole","state":"Košický","country":"Slovakia","latitude":48.5817766,"longitude":22.0713108,"population":306}, 
{"name":"Čierny Balog","state":"Banskobystrický","country":"Slovakia","latitude":48.7208117,"longitude":19.6763294,"population":747}, 
{"name":"Čierny Brod","state":"Trnavský","country":"Slovakia","latitude":48.1533396,"longitude":17.6557392,"population":1592}, 
{"name":"Čierny Potok","state":"Banskobystrický","country":"Slovakia","latitude":48.3036625,"longitude":19.943318,"population":156}, 
{"name":"Čierny Váh","state":"Žilinský","country":"Slovakia","latitude":49.0139366,"longitude":19.9406772,"population":21}, 
{"name":"Čifáre","state":"Nitriansky","country":"Slovakia","latitude":48.2411925,"longitude":18.4071145,"population":604}, 
{"name":"Cífer","state":"Trnavský","country":"Slovakia","latitude":48.3203589,"longitude":17.4979303,"population":3521}, 
{"name":"Cigeľ","state":"Trenčiansky","country":"Slovakia","latitude":48.7059305,"longitude":18.6698781,"population":1190}, 
{"name":"Cigeľka","state":"Prešovský","country":"Slovakia","latitude":49.41209,"longitude":21.1415566,"population":525}, 
{"name":"Cigla","state":"Prešovský","country":"Slovakia","latitude":49.3601015,"longitude":21.3915951,"population":108}, 
{"name":"Čiky","state":"Nitriansky","country":"Slovakia","latitude":48.0610949,"longitude":18.0989349,"population":16}, 
{"name":"Čilistov","state":"Trnavský","country":"Slovakia","latitude":48.0067808,"longitude":17.3119506,"population":169}, 
{"name":"Čiližská Radvaň","state":"Trnavský","country":"Slovakia","latitude":47.8317246,"longitude":17.7067518,"population":1093}, 
{"name":"Cimenná","state":"Trenčiansky","country":"Slovakia","latitude":48.7286311,"longitude":18.1298555,"population":93}, 
{"name":"Čimhová","state":"Žilinský","country":"Slovakia","latitude":49.3517475,"longitude":19.6987727,"population":662}, 
{"name":"Cinobaňa","state":"Banskobystrický","country":"Slovakia","latitude":48.4841785,"longitude":19.6291771,"population":1526}, 
{"name":"Čirč","state":"Prešovský","country":"Slovakia","latitude":49.2756912,"longitude":20.9475476,"population":1240}, 
{"name":"Číž","state":"Banskobystrický","country":"Slovakia","latitude":48.3123793,"longitude":20.2714151,"population":652}, 
{"name":"Čižatice","state":"Košický","country":"Slovakia","latitude":48.7926657,"longitude":21.3884079,"population":379}, 
{"name":"Číž-kúpele","state":"Banskobystrický","country":"Slovakia","latitude":48.3139838,"longitude":20.2780046,"population":14}, 
{"name":"Čoltovo","state":"Košický","country":"Slovakia","latitude":48.4877802,"longitude":20.395913,"population":485}, 
{"name":"Čremošné","state":"Žilinský","country":"Slovakia","latitude":48.8294197,"longitude":18.9438948,"population":94}, 
{"name":"Čučma","state":"Košický","country":"Slovakia","latitude":48.7125917,"longitude":20.5555717,"population":652}, 
{"name":"Čukalovce","state":"Prešovský","country":"Slovakia","latitude":49.0943855,"longitude":22.1603841,"population":158}, 
{"name":"Čukárska Paka","state":"Trnavský","country":"Slovakia","latitude":48.0306466,"longitude":17.3871592,"population":109}, 
{"name":"Čuklasovce","state":"Trenčiansky","country":"Slovakia","latitude":48.7407269,"longitude":18.1327782,"population":190}, 
{"name":"Cunín","state":"Trnavský","country":"Slovakia","latitude":48.7651214,"longitude":17.1014213,"population":3}, 
{"name":"Ďačov","state":"Prešovský","country":"Slovakia","latitude":49.1423945,"longitude":20.9234464,"population":655}, 
{"name":"Dačov Lom","state":"Banskobystrický","country":"Slovakia","latitude":48.3243639,"longitude":19.2500907,"population":414}, 
{"name":"Daletice","state":"Prešovský","country":"Slovakia","latitude":49.0336766,"longitude":21.069591,"population":99}, 
{"name":"Dancov Potok","state":"Košický","country":"Slovakia","latitude":48.5620966,"longitude":21.562141,"population":33}, 
{"name":"Danišovce","state":"Košický","country":"Slovakia","latitude":48.9612455,"longitude":20.6185817,"population":516}, 
{"name":"Ďanová","state":"Žilinský","country":"Slovakia","latitude":48.9779547,"longitude":18.9226587,"population":529}, 
{"name":"Ďapalovce","state":"Prešovský","country":"Slovakia","latitude":49.071685,"longitude":21.7471436,"population":473}, 
{"name":"Dargov","state":"Košický","country":"Slovakia","latitude":48.7502602,"longitude":21.573693,"population":592}, 
{"name":"Dargovských hrdinov","state":"Košický","country":"Slovakia","latitude":48.7388517,"longitude":21.282077,"population":27477}, 
{"name":"Davidov","state":"Prešovský","country":"Slovakia","latitude":48.8241698,"longitude":21.6196715,"population":794}, 
{"name":"Debraď","state":"Košický","country":"Slovakia","latitude":48.6512092,"longitude":20.9756662,"population":375}, 
{"name":"Dechtice","state":"Trnavský","country":"Slovakia","latitude":48.5493074,"longitude":17.5736488,"population":1865}, 
{"name":"Dedačov","state":"Prešovský","country":"Slovakia","latitude":49.0340084,"longitude":21.9830898,"population":172}, 
{"name":"Dedina Mládeže","state":"Nitriansky","country":"Slovakia","latitude":47.9513441,"longitude":17.9905286,"population":352}, 
{"name":"Dedinka","state":"Nitriansky","country":"Slovakia","latitude":48.0651402,"longitude":18.410792,"population":658}, 
{"name":"Dedinka pri Dunaji","state":"Bratislavský","country":"Slovakia","latitude":48.1834119,"longitude":17.347328,"population":1399}, 
{"name":"Dedinky","state":"Košický","country":"Slovakia","latitude":48.8622714,"longitude":20.3847793,"population":232}, 
{"name":"Dekýš","state":"Banskobystrický","country":"Slovakia","latitude":48.394707,"longitude":18.8161354,"population":199}, 
{"name":"Delava","state":"Košický","country":"Slovakia","latitude":48.8179123,"longitude":20.5401422,"population":75}, 
{"name":"Demandice","state":"Nitriansky","country":"Slovakia","latitude":48.1235552,"longitude":18.7866887,"population":1008}, 
{"name":"Demänová","state":"Žilinský","country":"Slovakia","latitude":49.0528851,"longitude":19.586698,"population":985}, 
{"name":"Demänová","state":"Žilinský","country":"Slovakia","latitude":49.0528851,"longitude":19.586698,"population":5}, 
{"name":"Demänovská Dolina","state":"Žilinský","country":"Slovakia","latitude":48.9881627,"longitude":19.5867209,"population":285}, 
{"name":"Demjata","state":"Prešovský","country":"Slovakia","latitude":49.1138751,"longitude":21.3184224,"population":1093}, 
{"name":"Demkovská","state":"Žilinský","country":"Slovakia","latitude":49.2675288,"longitude":19.1186681,"population":31}, 
{"name":"Dešná","state":"Trenčiansky","country":"Slovakia","latitude":49.2091463,"longitude":18.163082,"population":245}, 
{"name":"Detrík","state":"Prešovský","country":"Slovakia","latitude":49.0441188,"longitude":21.6263185,"population":57}, 
{"name":"Detva","state":"Banskobystrický","country":"Slovakia","latitude":48.554826,"longitude":19.4179975,"population":6160}, 
{"name":"Detva-sídlisko","state":"Banskobystrický","country":"Slovakia","latitude":48.5445998,"longitude":19.4053317,"population":6201}, 
{"name":"Detvianska Huta","state":"Banskobystrický","country":"Slovakia","latitude":48.5676106,"longitude":19.5986547,"population":562}, 
{"name":"Devičany","state":"Nitriansky","country":"Slovakia","latitude":48.3222116,"longitude":18.7047074,"population":393}, 
{"name":"Devičie","state":"Banskobystrický","country":"Slovakia","latitude":48.3141811,"longitude":19.0225508,"population":306}, 
{"name":"Dežerice","state":"Trenčiansky","country":"Slovakia","latitude":48.7755391,"longitude":18.2131187,"population":507}, 
{"name":"Diaková","state":"Žilinský","country":"Slovakia","latitude":49.0576682,"longitude":18.9709508,"population":268}, 
{"name":"Diakovce","state":"Nitriansky","country":"Slovakia","latitude":48.1340128,"longitude":17.8092632,"population":2204}, 
{"name":"Diel","state":"Banskobystrický","country":"Slovakia","latitude":48.8316979,"longitude":20.1140987,"population":0}, 
{"name":"Diva","state":"Nitriansky","country":"Slovakia","latitude":47.8715044,"longitude":18.5673282,"population":82}, 
{"name":"Diviacka Nová Ves","state":"Trenčiansky","country":"Slovakia","latitude":48.748584,"longitude":18.491547,"population":1306}, 
{"name":"Diviaky","state":"Žilinský","country":"Slovakia","latitude":48.8759729,"longitude":18.8374251,"population":1276}, 
{"name":"Diviaky nad Nitricou","state":"Trenčiansky","country":"Slovakia","latitude":48.7654656,"longitude":18.4864309,"population":823}, 
{"name":"Divín","state":"Banskobystrický","country":"Slovakia","latitude":48.460918,"longitude":19.5169351,"population":2061}, 
{"name":"Divina","state":"Žilinský","country":"Slovakia","latitude":49.3024293,"longitude":18.6871505,"population":1999}, 
{"name":"Divinka","state":"Žilinský","country":"Slovakia","latitude":49.2589196,"longitude":18.7054204,"population":486}, 
{"name":"Divínske Lazy","state":"Banskobystrický","country":"Slovakia","latitude":48.4773596,"longitude":19.4746828,"population":5}, 
{"name":"Dlhá","state":"Trnavský","country":"Slovakia","latitude":48.4106869,"longitude":17.4225977,"population":382}, 
{"name":"Dlhá Lúka","state":"Žilinský","country":"Slovakia","latitude":49.1740768,"longitude":19.5268791,"population":210}, 
{"name":"Dlhá Lúka","state":"Prešovský","country":"Slovakia","latitude":49.3357947,"longitude":21.2884886,"population":1682}, 
{"name":"Dlhá nad Kysucou","state":"Žilinský","country":"Slovakia","latitude":49.3676155,"longitude":18.6600023,"population":633}, 
{"name":"Dlhá nad Oravou","state":"Žilinský","country":"Slovakia","latitude":49.2781371,"longitude":19.4601192,"population":1379}, 
{"name":"Dlhá nad Váhom","state":"Nitriansky","country":"Slovakia","latitude":48.1817847,"longitude":17.8590615,"population":865}, 
{"name":"Dlhá Ves","state":"Košický","country":"Slovakia","latitude":48.4957301,"longitude":20.4414599,"population":586}, 
{"name":"Dlhé Klčovo","state":"Prešovský","country":"Slovakia","latitude":48.8162763,"longitude":21.7386828,"population":1410}, 
{"name":"Dlhé nad Cirochou","state":"Prešovský","country":"Slovakia","latitude":48.9708645,"longitude":22.0665787,"population":2040}, 
{"name":"Dlhé Pole","state":"Žilinský","country":"Slovakia","latitude":49.3203055,"longitude":18.6314979,"population":1845}, 
{"name":"Dlhé Stráže","state":"Prešovský","country":"Slovakia","latitude":49.0282657,"longitude":20.5228823,"population":541}, 
{"name":"Dlhoňa","state":"Prešovský","country":"Slovakia","latitude":49.4184063,"longitude":21.5679484,"population":69}, 
{"name":"Dlžín","state":"Trenčiansky","country":"Slovakia","latitude":48.8184765,"longitude":18.5197017,"population":175}, 
{"name":"Dobogov","state":"Nitriansky","country":"Slovakia","latitude":48.1723588,"longitude":18.6271094,"population":135}, 
{"name":"Dobrá","state":"Trenčiansky","country":"Slovakia","latitude":48.9184565,"longitude":18.1120396,"population":655}, 
{"name":"Dobrá","state":"Košický","country":"Slovakia","latitude":48.4060393,"longitude":22.0212464,"population":432}, 
{"name":"Dobrá Niva","state":"Banskobystrický","country":"Slovakia","latitude":48.4724627,"longitude":19.0937212,"population":1859}, 
{"name":"Dobrá Voda","state":"Trnavský","country":"Slovakia","latitude":48.6042367,"longitude":17.5400014,"population":831}, 
{"name":"Dobrá Voľa","state":"Košický","country":"Slovakia","latitude":48.9722388,"longitude":20.780747,"population":149}, 
{"name":"Dobroč","state":"Banskobystrický","country":"Slovakia","latitude":48.5045428,"longitude":19.5607969,"population":805}, 
{"name":"Dobroč","state":"Banskobystrický","country":"Slovakia","latitude":48.5045428,"longitude":19.5607969,"population":605}, 
{"name":"Dobročná","state":"Trenčiansky","country":"Slovakia","latitude":48.8340757,"longitude":18.4873377,"population":338}, 
{"name":"Dobrohošť","state":"Trnavský","country":"Slovakia","latitude":47.9861035,"longitude":17.3616413,"population":428}, 
{"name":"Dobroslava","state":"Prešovský","country":"Slovakia","latitude":49.3690402,"longitude":21.6157748,"population":34}, 
{"name":"Dobrý Potok","state":"Banskobystrický","country":"Slovakia","latitude":48.5579747,"longitude":19.6760204,"population":20}, 
{"name":"Dobšiná","state":"Košický","country":"Slovakia","latitude":48.8384657,"longitude":20.3454855,"population":5702}, 
{"name":"Dobšinská Ľadová Jaskyňa","state":"Košický","country":"Slovakia","latitude":48.8738505,"longitude":20.3023913,"population":44}, 
{"name":"Dobšinská Maša","state":"Košický","country":"Slovakia","latitude":48.859047,"longitude":20.3707552,"population":59}, 
{"name":"Dohňany","state":"Trenčiansky","country":"Slovakia","latitude":49.1450941,"longitude":18.273064,"population":1270}, 
{"name":"Dojč","state":"Trnavský","country":"Slovakia","latitude":48.6845934,"longitude":17.2605984,"population":1266}, 
{"name":"Doľany","state":"Bratislavský","country":"Slovakia","latitude":48.4271403,"longitude":17.3538695,"population":1041}, 
{"name":"Doľany","state":"Prešovský","country":"Slovakia","latitude":49.0212766,"longitude":20.6475207,"population":176}, 
{"name":"Dolina","state":"Žilinský","country":"Slovakia","latitude":49.2766601,"longitude":19.1283971,"population":333}, 
{"name":"Dolina","state":"Prešovský","country":"Slovakia","latitude":49.1173355,"longitude":21.7298986,"population":159}, 
{"name":"Dolinka","state":"Banskobystrický","country":"Slovakia","latitude":48.0936505,"longitude":19.1618863,"population":480}, 
{"name":"Dolinky","state":"Trenčiansky","country":"Slovakia","latitude":49.2159596,"longitude":18.2565899,"population":51}, 
{"name":"Dolinky","state":"Žilinský","country":"Slovakia","latitude":49.1066941,"longitude":19.7282918,"population":33}, 
{"name":"Dolinky","state":"Banskobystrický","country":"Slovakia","latitude":48.5826903,"longitude":20.2373898,"population":21}, 
{"name":"Dolná Breznica","state":"Trenčiansky","country":"Slovakia","latitude":49.0826153,"longitude":18.2581642,"population":857}, 
{"name":"Dolná Bzová","state":"Banskobystrický","country":"Slovakia","latitude":48.5200675,"longitude":19.5004335,"population":105}, 
{"name":"Dolná Krupá","state":"Trnavský","country":"Slovakia","latitude":48.4694338,"longitude":17.5556433,"population":2284}, 
{"name":"Dolná Lehota","state":"Žilinský","country":"Slovakia","latitude":49.2701291,"longitude":19.3700824,"population":582}, 
{"name":"Dolná Lehota","state":"Banskobystrický","country":"Slovakia","latitude":48.8853617,"longitude":19.5323154,"population":784}, 
{"name":"Dolná Mariková","state":"Trenčiansky","country":"Slovakia","latitude":49.2206317,"longitude":18.3289833,"population":1170}, 
{"name":"Dolná Mičiná","state":"Banskobystrický","country":"Slovakia","latitude":48.6714323,"longitude":19.2088933,"population":367}, 
{"name":"Dolná Môlča","state":"Banskobystrický","country":"Slovakia","latitude":48.7204001,"longitude":19.2236495,"population":230}, 
{"name":"Dolná Poruba","state":"Trenčiansky","country":"Slovakia","latitude":48.9017305,"longitude":18.29279,"population":808}, 
{"name":"Dolná Potôň","state":"Trnavský","country":"Slovakia","latitude":48.0506884,"longitude":17.5941026,"population":373}, 
{"name":"Dolná Seč","state":"Nitriansky","country":"Slovakia","latitude":48.1866557,"longitude":18.5674613,"population":417}, 
{"name":"Dolná Streda","state":"Trnavský","country":"Slovakia","latitude":48.2566532,"longitude":17.7520606,"population":1424}, 
{"name":"Dolná Strehová","state":"Banskobystrický","country":"Slovakia","latitude":48.2484662,"longitude":19.4918573,"population":802}, 
{"name":"Dolná Štubňa","state":"Žilinský","country":"Slovakia","latitude":48.8355626,"longitude":18.8697874,"population":637}, 
{"name":"Dolná Súča","state":"Trenčiansky","country":"Slovakia","latitude":48.9710412,"longitude":18.0094249,"population":2747}, 
{"name":"Dolná Tižina","state":"Žilinský","country":"Slovakia","latitude":49.2059165,"longitude":18.9506802,"population":1290}, 
{"name":"Dolná Trnávka","state":"Banskobystrický","country":"Slovakia","latitude":48.5612124,"longitude":18.7823244,"population":350}, 
{"name":"Dolná Ves","state":"Banskobystrický","country":"Slovakia","latitude":48.6680091,"longitude":18.910375,"population":243}, 
{"name":"Dolná Závrská","state":"Trenčiansky","country":"Slovakia","latitude":48.9708332,"longitude":17.9634565,"population":107}, 
{"name":"Dolná Ždaňa","state":"Banskobystrický","country":"Slovakia","latitude":48.5486641,"longitude":18.7415402,"population":796}, 
{"name":"Dolné Breziny","state":"Banskobystrický","country":"Slovakia","latitude":48.30453,"longitude":19.1519998,"population":70}, 
{"name":"Dolné Chlebany","state":"Nitriansky","country":"Slovakia","latitude":48.5985761,"longitude":18.2218233,"population":130}, 
{"name":"Dolné Držkovce","state":"Trenčiansky","country":"Slovakia","latitude":48.7256377,"longitude":18.1779095,"population":316}, 
{"name":"Dolné Dubové","state":"Trnavský","country":"Slovakia","latitude":48.494205,"longitude":17.5930619,"population":645}, 
{"name":"Dolné Hámre","state":"Banskobystrický","country":"Slovakia","latitude":48.463527,"longitude":18.7559089,"population":1393}, 
{"name":"Dolné Janíky","state":"Trnavský","country":"Slovakia","latitude":48.1372737,"longitude":17.4138424,"population":401}, 
{"name":"Dolné Jaseno","state":"Žilinský","country":"Slovakia","latitude":49.0305198,"longitude":18.9909069,"population":165}, 
{"name":"Dolné Kočkovce","state":"Trenčiansky","country":"Slovakia","latitude":49.0974678,"longitude":18.3472554,"population":1221}, 
{"name":"Dolné Košariská","state":"Trenčiansky","country":"Slovakia","latitude":48.6718735,"longitude":17.586059,"population":257}, 
{"name":"Dolné Lefantovce","state":"Nitriansky","country":"Slovakia","latitude":48.4166584,"longitude":18.1220146,"population":528}, 
{"name":"Dolné Lelovce","state":"Trenčiansky","country":"Slovakia","latitude":48.6927451,"longitude":18.5152459,"population":139}, 
{"name":"Dolné Lovčice","state":"Trnavský","country":"Slovakia","latitude":48.3711232,"longitude":17.6684599,"population":751}, 
{"name":"Dolné Mladonice","state":"Banskobystrický","country":"Slovakia","latitude":48.3505418,"longitude":19.1409641,"population":119}, 
{"name":"Dolné Motešice","state":"Trenčiansky","country":"Slovakia","latitude":48.8233097,"longitude":18.1734451,"population":133}, 
{"name":"Dolné Naštice","state":"Trenčiansky","country":"Slovakia","latitude":48.6904865,"longitude":18.2596275,"population":470}, 
{"name":"Dolné Obdokovce","state":"Nitriansky","country":"Slovakia","latitude":48.3057212,"longitude":18.2219314,"population":1188}, 
{"name":"Dolné Orešany","state":"Trnavský","country":"Slovakia","latitude":48.4446816,"longitude":17.4083931,"population":1275}, 
{"name":"Dolné Otrokovce","state":"Trnavský","country":"Slovakia","latitude":48.4661917,"longitude":17.9114455,"population":364}, 
{"name":"Dolné Ozorovce","state":"Trenčiansky","country":"Slovakia","latitude":48.7276405,"longitude":18.2405555,"population":1228}, 
{"name":"Dolné Plachtince","state":"Banskobystrický","country":"Slovakia","latitude":48.2035458,"longitude":19.3103645,"population":609}, 
{"name":"Dolné Príbelce","state":"Banskobystrický","country":"Slovakia","latitude":48.2072972,"longitude":19.2676576,"population":355}, 
{"name":"Dolné Rykynčice","state":"Banskobystrický","country":"Slovakia","latitude":48.1909092,"longitude":18.9805853,"population":261}, 
{"name":"Dolné Saliby","state":"Trnavský","country":"Slovakia","latitude":48.0949192,"longitude":17.7898726,"population":1933}, 
{"name":"Dolné Semerovce","state":"Nitriansky","country":"Slovakia","latitude":48.1105559,"longitude":18.8525697,"population":542}, 
{"name":"Dolné Sľažany","state":"Nitriansky","country":"Slovakia","latitude":48.3828179,"longitude":18.3241942,"population":1129}, 
{"name":"Dolné Srnie","state":"Trenčiansky","country":"Slovakia","latitude":48.7978101,"longitude":17.818208,"population":965}, 
{"name":"Dolné Strháre","state":"Banskobystrický","country":"Slovakia","latitude":48.2621482,"longitude":19.3824079,"population":176}, 
{"name":"Dolné Trhovište","state":"Trnavský","country":"Slovakia","latitude":48.442856,"longitude":17.9043402,"population":368}, 
{"name":"Dolné Turovce","state":"Nitriansky","country":"Slovakia","latitude":48.1001328,"longitude":18.9538637,"population":450}, 
{"name":"Dolné Vestenice","state":"Trenčiansky","country":"Slovakia","latitude":48.7168575,"longitude":18.3892815,"population":2611}, 
{"name":"Dolné Zahorany","state":"Banskobystrický","country":"Slovakia","latitude":48.3507751,"longitude":19.9083184,"population":196}, 
{"name":"Dolné Zelenice","state":"Trnavský","country":"Slovakia","latitude":48.3809753,"longitude":17.7469517,"population":561}, 
{"name":"Dolný Badín","state":"Banskobystrický","country":"Slovakia","latitude":48.2626226,"longitude":19.0594453,"population":257}, 
{"name":"Dolný Bar","state":"Trnavský","country":"Slovakia","latitude":47.9662399,"longitude":17.7030508,"population":597}, 
{"name":"Dolný Chotár","state":"Trnavský","country":"Slovakia","latitude":47.9945285,"longitude":17.8554905,"population":403}, 
{"name":"Dolný Ďur","state":"Nitriansky","country":"Slovakia","latitude":48.204773,"longitude":18.4292904,"population":565}, 
{"name":"Dolný Harmanec","state":"Banskobystrický","country":"Slovakia","latitude":48.8365721,"longitude":19.0357634,"population":246}, 
{"name":"Dolný Hričov","state":"Žilinský","country":"Slovakia","latitude":49.2297576,"longitude":18.6322715,"population":1315}, 
{"name":"Dolný Jalšovík","state":"Banskobystrický","country":"Slovakia","latitude":48.3097232,"longitude":19.1023081,"population":102}, 
{"name":"Dolný Jatov","state":"Nitriansky","country":"Slovakia","latitude":48.1269074,"longitude":18.0307876,"population":538}, 
{"name":"Dolný Jelenec","state":"Banskobystrický","country":"Slovakia","latitude":48.8520939,"longitude":19.1533982,"population":27}, 
{"name":"Dolný Kalník","state":"Žilinský","country":"Slovakia","latitude":49.0409666,"longitude":18.9672422,"population":101}, 
{"name":"Dolný Kubín","state":"Žilinský","country":"Slovakia","latitude":49.2064788,"longitude":19.3243088,"population":9981}, 
{"name":"Dolný Les","state":"Košický","country":"Slovakia","latitude":48.5091359,"longitude":21.9110714,"population":165}, 
{"name":"Dolný Lieskov","state":"Trenčiansky","country":"Slovakia","latitude":49.0548142,"longitude":18.4159444,"population":580}, 
{"name":"Dolný Lopašov","state":"Trnavský","country":"Slovakia","latitude":48.5890377,"longitude":17.6342056,"population":953}, 
{"name":"Dolný Moštenec","state":"Trenčiansky","country":"Slovakia","latitude":49.0884161,"longitude":18.4400706,"population":783}, 
{"name":"Dolný Ohaj","state":"Nitriansky","country":"Slovakia","latitude":48.077588,"longitude":18.2683056,"population":1600}, 
{"name":"Dolný Pial","state":"Nitriansky","country":"Slovakia","latitude":48.1289953,"longitude":18.4638646,"population":961}, 
{"name":"Dolný Štál","state":"Trnavský","country":"Slovakia","latitude":47.9250349,"longitude":17.7462635,"population":1894}, 
{"name":"Dolný Štefanov","state":"Žilinský","country":"Slovakia","latitude":49.3667245,"longitude":19.5460565,"population":383}, 
{"name":"Dolný Tisovník","state":"Banskobystrický","country":"Slovakia","latitude":48.3997754,"longitude":19.371639,"population":10}, 
{"name":"Dolný Turček","state":"Žilinský","country":"Slovakia","latitude":48.774207,"longitude":18.8998359,"population":139}, 
{"name":"Dolný Vadičov","state":"Žilinský","country":"Slovakia","latitude":49.274524,"longitude":18.8529377,"population":463}, 
{"name":"Doma","state":"Bratislavský","country":"Slovakia","latitude":48.1546527,"longitude":17.345776,"population":118}, 
{"name":"Domadice","state":"Nitriansky","country":"Slovakia","latitude":48.18758,"longitude":18.7847549,"population":241}, 
{"name":"Domaníky","state":"Banskobystrický","country":"Slovakia","latitude":48.2547988,"longitude":18.9847771,"population":193}, 
{"name":"Domaniža","state":"Trenčiansky","country":"Slovakia","latitude":49.0305056,"longitude":18.5493753,"population":1353}, 
{"name":"Domaňovce","state":"Prešovský","country":"Slovakia","latitude":48.9690933,"longitude":20.652232,"population":947}, 
{"name":"Domaša","state":"Nitriansky","country":"Slovakia","latitude":47.998661,"longitude":18.6393498,"population":511}, 
{"name":"Donovaly","state":"Banskobystrický","country":"Slovakia","latitude":48.8728194,"longitude":19.2309915,"population":229}, 
{"name":"Dora","state":"Banskobystrický","country":"Slovakia","latitude":48.3457206,"longitude":19.802453,"population":63}, 
{"name":"Dovalovo","state":"Žilinský","country":"Slovakia","latitude":49.0599907,"longitude":19.781629,"population":1079}, 
{"name":"Drábsko","state":"Banskobystrický","country":"Slovakia","latitude":48.6591195,"longitude":19.6726515,"population":193}, 
{"name":"Drahňov","state":"Košický","country":"Slovakia","latitude":48.5871841,"longitude":21.9670807,"population":1352}, 
{"name":"Drahošanka","state":"Žilinský","country":"Slovakia","latitude":49.4575106,"longitude":18.8170158,"population":563}, 
{"name":"Drahovce","state":"Trnavský","country":"Slovakia","latitude":48.5257381,"longitude":17.7869303,"population":2497}, 
{"name":"Dravce","state":"Prešovský","country":"Slovakia","latitude":49.0274005,"longitude":20.4985408,"population":606}, 
{"name":"Dražice","state":"Banskobystrický","country":"Slovakia","latitude":48.431248,"longitude":20.058755,"population":266}, 
{"name":"Dražkovce","state":"Žilinský","country":"Slovakia","latitude":49.0490381,"longitude":18.9506819,"population":828}, 
{"name":"Drážovce","state":"Banskobystrický","country":"Slovakia","latitude":48.2485398,"longitude":18.8976256,"population":147}, 
{"name":"Driečna","state":"Prešovský","country":"Slovakia","latitude":49.335555,"longitude":21.7921345,"population":8}, 
{"name":"Drienčany","state":"Banskobystrický","country":"Slovakia","latitude":48.4901392,"longitude":20.0659547,"population":201}, 
{"name":"Drienica","state":"Prešovský","country":"Slovakia","latitude":49.139779,"longitude":21.1196769,"population":714}, 
{"name":"Drienov","state":"Prešovský","country":"Slovakia","latitude":48.8787917,"longitude":21.2828623,"population":2111}, 
{"name":"Drienovec","state":"Košický","country":"Slovakia","latitude":48.6190371,"longitude":20.9429297,"population":2126}, 
{"name":"Drienovo","state":"Banskobystrický","country":"Slovakia","latitude":48.2189569,"longitude":19.0503074,"population":113}, 
{"name":"Drienovská Nová Ves","state":"Prešovský","country":"Slovakia","latitude":48.9032478,"longitude":21.2347538,"population":750}, 
{"name":"Drietoma","state":"Trenčiansky","country":"Slovakia","latitude":48.9276928,"longitude":17.9345494,"population":2221}, 
{"name":"Drňa","state":"Banskobystrický","country":"Slovakia","latitude":48.2506487,"longitude":20.1209951,"population":204}, 
{"name":"Drnava","state":"Banskobystrický","country":"Slovakia","latitude":48.2446822,"longitude":19.5420384,"population":10}, 
{"name":"Drnava","state":"Košický","country":"Slovakia","latitude":48.6514733,"longitude":20.6606504,"population":704}, 
{"name":"Drženice","state":"Nitriansky","country":"Slovakia","latitude":48.2821886,"longitude":18.6957434,"population":217}, 
{"name":"Držkovce","state":"Banskobystrický","country":"Slovakia","latitude":48.5443894,"longitude":20.2340389,"population":548}, 
{"name":"Ďubákovo","state":"Banskobystrický","country":"Slovakia","latitude":48.5587064,"longitude":19.7536131,"population":96}, 
{"name":"Dubie","state":"Žilinský","country":"Slovakia","latitude":49.1966801,"longitude":18.7767744,"population":1972}, 
{"name":"Dubie","state":"Prešovský","country":"Slovakia","latitude":48.9781924,"longitude":20.9631151,"population":80}, 
{"name":"Dubinné","state":"Prešovský","country":"Slovakia","latitude":49.2490807,"longitude":21.4341732,"population":362}, 
{"name":"Dubková","state":"Trenčiansky","country":"Slovakia","latitude":49.2129551,"longitude":18.2145401,"population":484}, 
{"name":"Dubnica","state":"Trenčiansky","country":"Slovakia","latitude":48.7994278,"longitude":18.5781312,"population":1022}, 
{"name":"Dubnica nad Váhom","state":"Trenčiansky","country":"Slovakia","latitude":48.9488843,"longitude":18.2059559,"population":24182}, 
{"name":"Dubnička","state":"Trenčiansky","country":"Slovakia","latitude":48.7791344,"longitude":18.3042356,"population":115}, 
{"name":"Dubník","state":"Nitriansky","country":"Slovakia","latitude":47.9541067,"longitude":18.397683,"population":1394}, 
{"name":"Dubník","state":"Prešovský","country":"Slovakia","latitude":49.0066819,"longitude":21.7385558,"population":2}, 
{"name":"Dubno","state":"Banskobystrický","country":"Slovakia","latitude":48.1948192,"longitude":20.0034756,"population":153}, 
{"name":"Dubodiel","state":"Trenčiansky","country":"Slovakia","latitude":48.7581781,"longitude":18.085663,"population":920}, 
{"name":"Dubová","state":"Bratislavský","country":"Slovakia","latitude":48.3747307,"longitude":17.3103036,"population":918}, 
{"name":"Dubová","state":"Banskobystrický","country":"Slovakia","latitude":48.8159028,"longitude":19.4293987,"population":735}, 
{"name":"Dubová","state":"Prešovský","country":"Slovakia","latitude":49.3600528,"longitude":21.4363053,"population":229}, 
{"name":"Dubovany","state":"Trnavský","country":"Slovakia","latitude":48.5306833,"longitude":17.7344537,"population":979}, 
{"name":"Dubové","state":"Žilinský","country":"Slovakia","latitude":48.8450134,"longitude":18.7759399,"population":707}, 
{"name":"Dubové","state":"Banskobystrický","country":"Slovakia","latitude":48.4992825,"longitude":19.0341328,"population":258}, 
{"name":"Dubovec","state":"Banskobystrický","country":"Slovakia","latitude":48.2934239,"longitude":20.1447099,"population":555}, 
{"name":"Dubovica","state":"Prešovský","country":"Slovakia","latitude":49.1228932,"longitude":20.9363825,"population":1502}, 
{"name":"Dúbrava","state":"Trenčiansky","country":"Slovakia","latitude":48.9569897,"longitude":17.9606195,"population":563}, 
{"name":"Dúbrava","state":"Žilinský","country":"Slovakia","latitude":49.0008125,"longitude":19.5043825,"population":1236}, 
{"name":"Dúbrava","state":"Banskobystrický","country":"Slovakia","latitude":48.2766368,"longitude":19.4983328,"population":32}, 
{"name":"Dúbrava","state":"Prešovský","country":"Slovakia","latitude":48.98593,"longitude":20.8521515,"population":346}, 
{"name":"Dúbrava","state":"Prešovský","country":"Slovakia","latitude":48.98593,"longitude":20.8521515,"population":159}, 
{"name":"Dúbrava","state":"Prešovský","country":"Slovakia","latitude":48.98593,"longitude":20.8521515,"population":240}, 
{"name":"Dúbravica","state":"Banskobystrický","country":"Slovakia","latitude":48.677709,"longitude":19.3020935,"population":368}, 
{"name":"Dúbravka","state":"Košický","country":"Slovakia","latitude":48.6294295,"longitude":21.8786634,"population":656}, 
{"name":"Dúbravy","state":"Banskobystrický","country":"Slovakia","latitude":48.588674,"longitude":19.3685085,"population":749}, 
{"name":"Duchenec","state":"Banskobystrický","country":"Slovakia","latitude":48.2540762,"longitude":19.1960958,"population":9}, 
{"name":"Ducové","state":"Trnavský","country":"Slovakia","latitude":48.6304997,"longitude":17.8686657,"population":375}, 
{"name":"Dudince","state":"Banskobystrický","country":"Slovakia","latitude":48.1684352,"longitude":18.8761958,"population":1218}, 
{"name":"Dukovce","state":"Prešovský","country":"Slovakia","latitude":49.1215276,"longitude":21.4182046,"population":262}, 
{"name":"Dulice","state":"Žilinský","country":"Slovakia","latitude":48.9963725,"longitude":18.9832055,"population":306}, 
{"name":"Dulov","state":"Trenčiansky","country":"Slovakia","latitude":49.0408832,"longitude":18.2475047,"population":934}, 
{"name":"Duľov","state":"Žilinský","country":"Slovakia","latitude":49.4391054,"longitude":19.3241358,"population":132}, 
{"name":"Ďulov Dvor","state":"Nitriansky","country":"Slovakia","latitude":47.7860251,"longitude":18.1687221,"population":415}, 
{"name":"Dulova Ves","state":"Prešovský","country":"Slovakia","latitude":48.9476207,"longitude":21.306463,"population":699}, 
{"name":"Dulovce","state":"Nitriansky","country":"Slovakia","latitude":47.8769304,"longitude":18.2683628,"population":1813}, 
{"name":"Dulovo","state":"Banskobystrický","country":"Slovakia","latitude":48.3731068,"longitude":20.1872853,"population":205}, 
{"name":"Dunajov","state":"Žilinský","country":"Slovakia","latitude":49.369098,"longitude":18.8094605,"population":1149}, 
{"name":"Dunajská Streda","state":"Trnavský","country":"Slovakia","latitude":47.9957605,"longitude":17.6140089,"population":20644}, 
{"name":"Dunajský Klátov","state":"Trnavský","country":"Slovakia","latitude":48.0313034,"longitude":17.6895746,"population":510}, 
{"name":"Duplín","state":"Prešovský","country":"Slovakia","latitude":49.2395903,"longitude":21.6207346,"population":478}, 
{"name":"Ďurčiná","state":"Žilinský","country":"Slovakia","latitude":49.0549199,"longitude":18.6677284,"population":1068}, 
{"name":"Ďurďoš","state":"Prešovský","country":"Slovakia","latitude":49.0533193,"longitude":21.5276138,"population":211}, 
{"name":"Ďurďošík","state":"Košický","country":"Slovakia","latitude":48.7387565,"longitude":21.404649,"population":406}, 
{"name":"Ďurďové","state":"Trenčiansky","country":"Slovakia","latitude":49.0331535,"longitude":18.5006902,"population":154}, 
{"name":"Ďurkov","state":"Košický","country":"Slovakia","latitude":48.7120163,"longitude":21.4430331,"population":1692}, 
{"name":"Ďurková","state":"Prešovský","country":"Slovakia","latitude":49.2420403,"longitude":20.8530577,"population":250}, 
{"name":"Ďurkovce","state":"Banskobystrický","country":"Slovakia","latitude":48.14374,"longitude":19.1637194,"population":130}, 
{"name":"Dúžava","state":"Banskobystrický","country":"Slovakia","latitude":48.3465691,"longitude":19.9898904,"population":144}, 
{"name":"Dvor Mikuláš","state":"Nitriansky","country":"Slovakia","latitude":47.9398585,"longitude":18.315931,"population":301}, 
{"name":"Dvorany nad Nitrou","state":"Nitriansky","country":"Slovakia","latitude":48.4883437,"longitude":18.1078633,"population":754}, 
{"name":"Dvorec","state":"Trenčiansky","country":"Slovakia","latitude":48.7177491,"longitude":18.2140572,"population":425}, 
{"name":"Dvorec","state":"Žilinský","country":"Slovakia","latitude":48.9078714,"longitude":18.8068494,"population":33}, 
{"name":"Dvorianky","state":"Košický","country":"Slovakia","latitude":48.7260979,"longitude":21.7160157,"population":579}, 
{"name":"Dvorníky","state":"Trnavský","country":"Slovakia","latitude":48.3520892,"longitude":17.7831965,"population":2003}, 
{"name":"Dvorníky","state":"Banskobystrický","country":"Slovakia","latitude":48.1991511,"longitude":18.9160312,"population":193}, 
{"name":"Dvorníky","state":"Košický","country":"Slovakia","latitude":48.6019905,"longitude":20.824022,"population":364}, 
{"name":"Dvorníky nad Nitricou","state":"Trenčiansky","country":"Slovakia","latitude":48.6942071,"longitude":18.4447537,"population":477}, 
{"name":"Dvory nad Žitavou","state":"Nitriansky","country":"Slovakia","latitude":47.9865872,"longitude":18.2799008,"population":5164}, 
{"name":"Dyčka","state":"Nitriansky","country":"Slovakia","latitude":48.2378671,"longitude":18.2745826,"population":458}, 
{"name":"Džungľa","state":"Košický","country":"Slovakia","latitude":48.7362219,"longitude":21.2703577,"population":671}, 
{"name":"Egreš","state":"Košický","country":"Slovakia","latitude":48.6149252,"longitude":21.5981778,"population":454}, 
{"name":"Eliášovce","state":"Trnavský","country":"Slovakia","latitude":48.1229265,"longitude":17.4991347,"population":777}, 
{"name":"Etreho Kračany","state":"Trnavský","country":"Slovakia","latitude":47.977796,"longitude":17.5421837,"population":246}, 
{"name":"Fačkov","state":"Žilinský","country":"Slovakia","latitude":48.992453,"longitude":18.591655,"population":665}, 
{"name":"Fajtov","state":"Banskobystrický","country":"Slovakia","latitude":48.7448569,"longitude":19.6768507,"population":827},