{"name":"Zürich", "state":"Zürich", "country":"Switzerland", "latitude":47.3784309, "longitude":8.5382671, "population":424124}, 
{"name":"Genève", "state":"Genève", "country":"Switzerland", "latitude":46.2010062, "longitude":6.1486544, "population":198716}, 
{"name":"Basel", "state":"Basel-Stadt", "country":"Switzerland", "latitude":47.5542873, "longitude":7.5908788, "population":170823}, 
{"name":"Lausanne", "state":"Vaud", "country":"Switzerland", "latitude":46.5225894, "longitude":6.6357097, "population":136517}, 
{"name":"Bern", "state":"Bern", "country":"Switzerland", "latitude":46.947177, "longitude":7.4511352, "population":133595}, 
{"name":"Winterthur", "state":"Zürich", "country":"Switzerland", "latitude":47.49898, "longitude":8.7288514, "population":112794}, 
{"name":"Luzern", "state":"Luzern", "country":"Switzerland", "latitude":47.0545061, "longitude":8.3091974, "population":84151}, 
{"name":"Gallen", "state":"St. Gallen", "country":"Switzerland", "latitude":47.4244254, "longitude":9.3771736, "population":76727}, 
{"name":"Biel Bienne", "state":"Bern", "country":"Switzerland", "latitude":47.1414166, "longitude":7.2466259, "population":54466}, 
{"name":"Thun", "state":"Bern", "country":"Switzerland", "latitude":46.7587453, "longitude":7.631262, "population":37965}, 
{"name":"Schaffhausen", "state":"Schaffhausen", "country":"Switzerland", "latitude":47.6965146, "longitude":8.6363035, "population":36467}, 
{"name":"Chaux-de-Fonds", "state":"Neuchâtel", "country":"Switzerland", "latitude":47.1041251, "longitude":6.8330915, "population":36463}, 
{"name":"Chur", "state":"Graubünden", "country":"Switzerland", "latitude":46.8481771, "longitude":9.5327998, "population":36311}, 
{"name":"Fribourg", "state":"Fribourg", "country":"Switzerland", "latitude":46.8061847, "longitude":7.1627954, "population":36176}, 
{"name":"Neuchâtel", "state":"Neuchâtel", "country":"Switzerland", "latitude":46.992045, "longitude":6.9263558, "population":32934}, 
{"name":"Uster", "state":"Zürich", "country":"Switzerland", "latitude":47.3458531, "longitude":8.7169008, "population":30035}, 
{"name":"Yverdon", "state":"Vaud", "country":"Switzerland", "latitude":46.7788646, "longitude":6.6403798, "population":29544}, 
{"name":"Zug", "state":"Zug", "country":"Switzerland", "latitude":47.165182, "longitude":8.5160152, "population":29191}, 
{"name":"Dübendorf", "state":"Zürich", "country":"Switzerland", "latitude":47.3950803, "longitude":8.6180521, "population":27949}, 
{"name":"Dietikon", "state":"Zürich", "country":"Switzerland", "latitude":47.4049142, "longitude":8.4037294, "population":27860}, 
{"name":"Sion", "state":"Valais", "country":"Switzerland", "latitude":46.2334261, "longitude":7.3619943, "population":27131}, 
{"name":"Frauenfeld", "state":"Thurgau", "country":"Switzerland", "latitude":47.5559947, "longitude":8.8982619, "population":26733}, 
{"name":"Lugano", "state":"Ticino", "country":"Switzerland", "latitude":46.0054044, "longitude":8.9465598, "population":25602}, 
{"name":"Wetzikon", "state":"Zürich", "country":"Switzerland", "latitude":47.3172263, "longitude":8.7929547, "population":25538}, 
{"name":"Kriens", "state":"Luzern", "country":"Switzerland", "latitude":47.033004, "longitude":8.2790952, "population":25108}, 
{"name":"Meyrin", "state":"Genève", "country":"Switzerland", "latitude":46.2282674, "longitude":6.0706617, "population":24434}, 
{"name":"Emmenbrücke", "state":"Luzern", "country":"Switzerland", "latitude":47.0773024, "longitude":8.2736872, "population":23576}, 
{"name":"Carouge", "state":"Genève", "country":"Switzerland", "latitude":46.1849844, "longitude":6.1395489, "population":22807}, 
{"name":"Kreuzlingen", "state":"Thurgau", "country":"Switzerland", "latitude":47.6446777, "longitude":9.1732024, "population":22666}, 
{"name":"Baar", "state":"Zug", "country":"Switzerland", "latitude":47.1932504, "longitude":8.5228004, "population":22529}, 
{"name":"Bülach", "state":"Zürich", "country":"Switzerland", "latitude":47.517071, "longitude":8.5408636, "population":22195}, 
{"name":"Allschwil", "state":"Basel-Landschaft", "country":"Switzerland", "latitude":47.5506209, "longitude":7.5356415, "population":22135}, 
{"name":"Nyon", "state":"Vaud", "country":"Switzerland", "latitude":46.3808167, "longitude":6.2380077, "population":21911}, 
{"name":"Riehen", "state":"Basel-Stadt", "country":"Switzerland", "latitude":47.5847111, "longitude":7.6492181, "population":21738}, 
{"name":"Horgen", "state":"Zürich", "country":"Switzerland", "latitude":47.2595241, "longitude":8.5973856, "population":20938}, 
{"name":"Wettingen", "state":"Aargau", "country":"Switzerland", "latitude":47.4678116, "longitude":8.3304658, "population":20886}, 
{"name":"Kloten", "state":"Zürich", "country":"Switzerland", "latitude":47.4525305, "longitude":8.5843702, "population":20771}, 
{"name":"Renens", "state":"Vaud", "country":"Switzerland", "latitude":46.5368267, "longitude":6.5906776, "population":20420}, 
{"name":"Vevey", "state":"Vaud", "country":"Switzerland", "latitude":46.4590604, "longitude":6.8481515, "population":20065}, 
{"name":"Bulle", "state":"Fribourg", "country":"Switzerland", "latitude":46.6202728, "longitude":7.0584562, "population":19775}, 
{"name":"Reinach", "state":"Basel-Landschaft", "country":"Switzerland", "latitude":47.4926527, "longitude":7.5904965, "population":19578}, 
{"name":"Adliswil", "state":"Zürich", "country":"Switzerland", "latitude":47.312841, "longitude":8.5223153, "population":19475}, 
{"name":"Wil", "state":"St. Gallen", "country":"Switzerland", "latitude":47.4664552, "longitude":9.0494297, "population":19410}, 
{"name":"Schlieren", "state":"Zürich", "country":"Switzerland", "latitude":47.3966049, "longitude":8.445789, "population":19372}, 
{"name":"Onex", "state":"Genève", "country":"Switzerland", "latitude":46.1820612, "longitude":6.1009583, "population":19036}, 
{"name":"Pully", "state":"Vaud", "country":"Switzerland", "latitude":46.5091852, "longitude":6.6619711, "population":18967}, 
{"name":"Bellinzona", "state":"Ticino", "country":"Switzerland", "latitude":46.1917044, "longitude":9.0241353, "population":18567}, 
{"name":"Olten", "state":"Solothurn", "country":"Switzerland", "latitude":47.3509513, "longitude":7.8986233, "population":18506}, 
{"name":"Martigny", "state":"Valais", "country":"Switzerland", "latitude":46.1006186, "longitude":7.0737607, "population":18298}, 
{"name":"Aarau", "state":"Aargau", "country":"Switzerland", "latitude":47.3926821, "longitude":8.042512, "population":18123}, 
{"name":"Solothurn", "state":"Solothurn", "country":"Switzerland", "latitude":47.2084262, "longitude":7.5397301, "population":17808}, 
{"name":"Jona", "state":"St. Gallen", "country":"Switzerland", "latitude":47.229091, "longitude":8.8364956, "population":17750}, 
{"name":"Grenchen", "state":"Solothurn", "country":"Switzerland", "latitude":47.1928143, "longitude":7.394721, "population":17668}, 
{"name":"Wallisellen", "state":"Zürich", "country":"Switzerland", "latitude":47.4126764, "longitude":8.5917945, "population":17626}, 
{"name":"Muttenz", "state":"Basel-Landschaft", "country":"Switzerland", "latitude":47.5209988, "longitude":7.6544653, "population":17605}, 
{"name":"Ostermundigen", "state":"Bern", "country":"Switzerland", "latitude":46.9566288, "longitude":7.4870304, "population":17476}, 
{"name":"Morges", "state":"Vaud", "country":"Switzerland", "latitude":46.5107318, "longitude":6.4999917, "population":17175}, 
{"name":"Binningen", "state":"Basel-Landschaft", "country":"Switzerland", "latitude":47.5391582, "longitude":7.5775108, "population":16984}, 
{"name":"Volketswil", "state":"Zürich", "country":"Switzerland", "latitude":47.389055, "longitude":8.6914225, "population":16919}, 
{"name":"Pratteln", "state":"Basel-Landschaft", "country":"Switzerland", "latitude":47.5156671, "longitude":7.6880762, "population":16574}, 
{"name":"Lancy", "state":"Genève", "country":"Switzerland", "latitude":46.1890821, "longitude":6.1172478, "population":16468}, 
{"name":"Steffisburg", "state":"Bern", "country":"Switzerland", "latitude":46.781781, "longitude":7.6337991, "population":16392}, 
{"name":"Lancy", "state":"Genève", "country":"Switzerland", "latitude":46.1823647, "longitude":6.1209605, "population":16361}, 
{"name":"Gossau", "state":"St. Gallen", "country":"Switzerland", "latitude":47.4153783, "longitude":9.2496185, "population":16224}, 
{"name":"Wädenswil", "state":"Zürich", "country":"Switzerland", "latitude":47.2284723, "longitude":8.6717442, "population":16162}, 
{"name":"Thalwil", "state":"Zürich", "country":"Switzerland", "latitude":47.2902231, "longitude":8.5691642, "population":16137}, 
{"name":"Burgdorf", "state":"Bern", "country":"Switzerland", "latitude":47.0565253, "longitude":7.6246616, "population":16097}, 
{"name":"Herisau", "state":"Appenzell Ausserrhoden", "country":"Switzerland", "latitude":47.3859257, "longitude":9.2794517, "population":15566}, 
{"name":"Wohlen", "state":"Aargau", "country":"Switzerland", "latitude":47.3511953, "longitude":8.2781921, "population":15432}, 
{"name":"Monthey", "state":"Valais", "country":"Switzerland", "latitude":46.2070435, "longitude":6.8152223, "population":15358}, 
{"name":"Liestal", "state":"Basel-Landschaft", "country":"Switzerland", "latitude":47.4847952, "longitude":7.734837, "population":15214}, 
{"name":"Langenthal", "state":"Bern", "country":"Switzerland", "latitude":47.2115914, "longitude":7.7924879, "population":15183}, 
{"name":"Meilen", "state":"Zürich", "country":"Switzerland", "latitude":47.2680907, "longitude":8.6399004, "population":14865}, 
{"name":"Cham", "state":"Zug", "country":"Switzerland", "latitude":47.1792919, "longitude":8.459624, "population":14611}, 
{"name":"Oftringen", "state":"Aargau", "country":"Switzerland", "latitude":47.3103302, "longitude":7.9304901, "population":14610}, 
{"name":"Thônex", "state":"Genève", "country":"Switzerland", "latitude":46.1882709, "longitude":6.1986759, "population":14546}, 
{"name":"Baden", "state":"Aargau", "country":"Switzerland", "latitude":47.4545067, "longitude":8.2782855, "population":14397}, 
{"name":"Ebikon", "state":"Luzern", "country":"Switzerland", "latitude":47.0817911, "longitude":8.3402231, "population":14159}, 
{"name":"Küsnacht", "state":"Zürich", "country":"Switzerland", "latitude":47.3168722, "longitude":8.5835383, "population":14033}, 
{"name":"Lyss", "state":"Bern", "country":"Switzerland", "latitude":47.0705806, "longitude":7.3075071, "population":13966}, 
{"name":"Sierre", "state":"Valais", "country":"Switzerland", "latitude":46.2936115, "longitude":7.5363542, "population":13850}, 
{"name":"Ecublens", "state":"Vaud", "country":"Switzerland", "latitude":46.5261283, "longitude":6.5620138, "population":13788}, 
{"name":"Rheinfelden", "state":"Aargau", "country":"Switzerland", "latitude":47.5541516, "longitude":7.7927358, "population":13759}, 
{"name":"Versoix", "state":"Genève", "country":"Switzerland", "latitude":46.281906, "longitude":6.1653015, "population":13456}, 
{"name":"Buchs", "state":"St. Gallen", "country":"Switzerland", "latitude":47.165072, "longitude":9.4679794, "population":13309}, 
{"name":"Villars", "state":"Fribourg", "country":"Switzerland", "latitude":46.7910353, "longitude":7.1160422, "population":13256}, 
{"name":"Gland", "state":"Vaud", "country":"Switzerland", "latitude":46.4236957, "longitude":6.2652174, "population":13231}, 
{"name":"Rüti", "state":"Zürich", "country":"Switzerland", "latitude":47.2591095, "longitude":8.8491603, "population":12808}, 
{"name":"Arbon", "state":"Thurgau", "country":"Switzerland", "latitude":47.515234, "longitude":9.4368933, "population":12796}, 
{"name":"Amriswil", "state":"Thurgau", "country":"Switzerland", "latitude":47.5449759, "longitude":9.2974892, "population":12732}, 
{"name":"Plan-les-Ouates", "state":"Genève", "country":"Switzerland", "latitude":46.1680616, "longitude":6.1158591, "population":12601}, 
{"name":"Delémont", "state":"Jura", "country":"Switzerland", "latitude":47.3646972, "longitude":7.3436371, "population":12546}, 
{"name":"Prilly", "state":"Vaud", "country":"Switzerland", "latitude":46.5343745, "longitude":6.6077603, "population":12466}, 
{"name":"Tour-de-Peilz", "state":"Vaud", "country":"Switzerland", "latitude":46.4536091, "longitude":6.8570172, "population":12341}, 
{"name":"Saconnex", "state":"Genève", "country":"Switzerland", "latitude":46.2324339, "longitude":6.1240006, "population":12335}, 
{"name":"Münsingen", "state":"Bern", "country":"Switzerland", "latitude":46.8764525, "longitude":7.555372, "population":12138}, 
{"name":"Spreitenbach", "state":"Aargau", "country":"Switzerland", "latitude":47.4168541, "longitude":8.3656006, "population":12117}, 
{"name":"Locarno", "state":"Ticino", "country":"Switzerland", "latitude":46.1697674, "longitude":8.7910813, "population":12054}, 
{"name":"Bassersdorf", "state":"Zürich", "country":"Switzerland", "latitude":47.4443085, "longitude":8.6278388, "population":11985}, 
{"name":"Zollikofen", "state":"Bern", "country":"Switzerland", "latitude":46.9929035, "longitude":7.4614197, "population":11984}, 
{"name":"Pfäffikon", "state":"Zürich", "country":"Switzerland", "latitude":47.3652262, "longitude":8.781102, "population":11753}, 
{"name":"Weinfelden", "state":"Thurgau", "country":"Switzerland", "latitude":47.5680694, "longitude":9.1112707, "population":11750}, 
{"name":"Stäfa", "state":"Zürich", "country":"Switzerland", "latitude":47.2389507, "longitude":8.7310443, "population":11743}, 
{"name":"Effretikon", "state":"Zürich", "country":"Switzerland", "latitude":47.4281528, "longitude":8.6894831, "population":11704}, 
{"name":"Münchenstein", "state":"Basel-Landschaft", "country":"Switzerland", "latitude":47.5136894, "longitude":7.6215552, "population":11686}, 
{"name":"Horw", "state":"Luzern", "country":"Switzerland", "latitude":47.0191916, "longitude":8.3126976, "population":11662}, 
{"name":"Oberwil", "state":"Basel-Landschaft", "country":"Switzerland", "latitude":47.5136888, "longitude":7.5540094, "population":11546}, 
{"name":"Romanshorn", "state":"Thurgau", "country":"Switzerland", "latitude":47.564869, "longitude":9.369414, "population":11526}, 
{"name":"Sursee", "state":"Luzern", "country":"Switzerland", "latitude":47.1733217, "longitude":8.1094165, "population":11427}, 
{"name":"Männedorf", "state":"Zürich", "country":"Switzerland", "latitude":47.2546979, "longitude":8.6938275, "population":11380}, 
{"name":"Chêne-Bougeries", "state":"Genève", "country":"Switzerland", "latitude":46.1977454, "longitude":6.1886107, "population":11368}, 
{"name":"Châtelaine", "state":"Genève", "country":"Switzerland", "latitude":46.2120668, "longitude":6.1105187, "population":11329}, 
{"name":"Möhlin", "state":"Aargau", "country":"Switzerland", "latitude":47.5617214, "longitude":7.8434046, "population":11142}, 
{"name":"Urdorf", "state":"Zürich", "country":"Switzerland", "latitude":47.3826654, "longitude":8.4237553, "population":11111}, 
{"name":"Belp", "state":"Bern", "country":"Switzerland", "latitude":46.8909097, "longitude":7.5005024, "population":11102}, 
{"name":"Affoltern", "state":"Zürich", "country":"Switzerland", "latitude":47.2791686, "longitude":8.4489451, "population":11098}, 
{"name":"Suhr", "state":"Aargau", "country":"Switzerland", "latitude":47.3731991, "longitude":8.0760502, "population":10964}, 
{"name":"Zofingen", "state":"Aargau", "country":"Switzerland", "latitude":47.2888162, "longitude":7.9450713, "population":10953}, 
{"name":"Aigle", "state":"Vaud", "country":"Switzerland", "latitude":46.3172815, "longitude":6.9676181, "population":10834}, 
{"name":"Lenzburg", "state":"Aargau", "country":"Switzerland", "latitude":47.3880729, "longitude":8.1793018, "population":10785}, 
{"name":"Altdorf", "state":"Uri", "country":"Switzerland", "latitude":46.8833248, "longitude":8.642259, "population":10703}, 
{"name":"Hinwil", "state":"Zürich", "country":"Switzerland", "latitude":47.3011821, "longitude":8.8472086, "population":10684}, 
{"name":"Neuhausen", "state":"Schaffhausen", "country":"Switzerland", "latitude":47.6818262, "longitude":8.6174466, "population":10660}, 
{"name":"Aesch", "state":"Basel-Landschaft", "country":"Switzerland", "latitude":47.4668521, "longitude":7.5965778, "population":10646}, 
{"name":"Richterswil", "state":"Zürich", "country":"Switzerland", "latitude":47.2082607, "longitude":8.7009559, "population":10633}, 
{"name":"Bernex", "state":"Genève", "country":"Switzerland", "latitude":46.1737084, "longitude":6.0696604, "population":10535}, 
{"name":"Birsfelden", "state":"Basel-Landschaft", "country":"Switzerland", "latitude":47.5554477, "longitude":7.6255578, "population":10410}, 
{"name":"Flawil", "state":"St. Gallen", "country":"Switzerland", "latitude":47.4169641, "longitude":9.1837421, "population":10409}, 
{"name":"Brugg", "state":"Aargau", "country":"Switzerland", "latitude":47.4851039, "longitude":8.2068557, "population":10370}, 
{"name":"Regensdorf", "state":"Zürich", "country":"Switzerland", "latitude":47.4306851, "longitude":8.4655873, "population":10349}, 
{"name":"Bussigny", "state":"Vaud", "country":"Switzerland", "latitude":46.5531648, "longitude":6.5510605, "population":10265}, 
{"name":"Einsiedeln", "state":"Schwyz", "country":"Switzerland", "latitude":47.1283694, "longitude":8.7498119, "population":10250}, 
{"name":"Steinhausen", "state":"Zug", "country":"Switzerland", "latitude":47.1960155, "longitude":8.4851805, "population":10227}, 
{"name":"Therwil", "state":"Basel-Landschaft", "country":"Switzerland", "latitude":47.4972302, "longitude":7.553658, "population":10086}, 
{"name":"Payerne", "state":"Vaud", "country":"Switzerland", "latitude":46.8207355, "longitude":6.9377684, "population":10032}, 
{"name":"Glattbrugg", "state":"Zürich", "country":"Switzerland", "latitude":47.4338363, "longitude":8.5681881, "population":9911}, 
{"name":"Ittigen", "state":"Bern", "country":"Switzerland", "latitude":46.9752637, "longitude":7.4798716, "population":9887}, 
{"name":"Embrach", "state":"Zürich", "country":"Switzerland", "latitude":47.5012284, "longitude":8.5952171, "population":9878}, 
{"name":"Goldach", "state":"St. Gallen", "country":"Switzerland", "latitude":47.4733641, "longitude":9.4647907, "population":9792}, 
{"name":"Locle", "state":"Neuchâtel", "country":"Switzerland", "latitude":47.0581537, "longitude":6.7495021, "population":9741}, 
{"name":"Epalinges", "state":"Vaud", "country":"Switzerland", "latitude":46.5459513, "longitude":6.6736526, "population":9736}, 
{"name":"Küssnacht", "state":"Schwyz", "country":"Switzerland", "latitude":47.080395, "longitude":8.4400806, "population":9655}, 
{"name":"Wittenbach", "state":"St. Gallen", "country":"Switzerland", "latitude":47.4633503, "longitude":9.3791145, "population":9566}, 
{"name":"Rotkreuz", "state":"Zug", "country":"Switzerland", "latitude":47.1396913, "longitude":8.429563, "population":9499}, 
{"name":"Widnau", "state":"St. Gallen", "country":"Switzerland", "latitude":47.4041351, "longitude":9.6396456, "population":9436}, 
{"name":"Rothrist", "state":"Aargau", "country":"Switzerland", "latitude":47.3061979, "longitude":7.8781099, "population":9381}, 
{"name":"Chavannes", "state":"Vaud", "country":"Switzerland", "latitude":46.5358401, "longitude":6.5763384, "population":9373}, 
{"name":"Clarens", "state":"Vaud", "country":"Switzerland", "latitude":46.4420271, "longitude":6.8924829, "population":9333}, 
{"name":"Naters", "state":"Valais", "country":"Switzerland", "latitude":46.3256093, "longitude":7.9881493, "population":9327}, 
{"name":"Spiez", "state":"Bern", "country":"Switzerland", "latitude":46.6907269, "longitude":7.6771697, "population":9259}, 
{"name":"Brunnen", "state":"Schwyz", "country":"Switzerland", "latitude":46.9944038, "longitude":8.6052641, "population":9153}, 
{"name":"Altstätten", "state":"St. Gallen", "country":"Switzerland", "latitude":47.3780254, "longitude":9.5414777, "population":9116}, 
{"name":"Giubiasco", "state":"Ticino", "country":"Switzerland", "latitude":46.173938, "longitude":9.0033981, "population":9102}, 
{"name":"Fully", "state":"Valais", "country":"Switzerland", "latitude":46.1382216, "longitude":7.1137036, "population":9044}, 
{"name":"Münchenbuchsee", "state":"Bern", "country":"Switzerland", "latitude":47.0215421, "longitude":7.4518874, "population":9026}, 
{"name":"Rorschach", "state":"St. Gallen", "country":"Switzerland", "latitude":47.4744597, "longitude":9.4913521, "population":8986}, 
{"name":"Unterägeri", "state":"Zug", "country":"Switzerland", "latitude":47.1383962, "longitude":8.5827072, "population":8975}, 
{"name":"Hochdorf", "state":"Luzern", "country":"Switzerland", "latitude":47.166892, "longitude":8.2930297, "population":8936}, 
{"name":"Neuenhof", "state":"Aargau", "country":"Switzerland", "latitude":47.4457094, "longitude":8.3236756, "population":8936}, 
{"name":"Zuchwil", "state":"Solothurn", "country":"Switzerland", "latitude":47.202684, "longitude":7.5557596, "population":8924}, 
{"name":"Reinach", "state":"Aargau", "country":"Switzerland", "latitude":47.2562199, "longitude":8.188439, "population":8902}, 
{"name":"Oberentfelden", "state":"Aargau", "country":"Switzerland", "latitude":47.3580039, "longitude":8.0337738, "population":8896}, 
{"name":"Kilchberg", "state":"Zürich", "country":"Switzerland", "latitude":47.3204176, "longitude":8.5428368, "population":8870}, 
{"name":"Lachen", "state":"Schwyz", "country":"Switzerland", "latitude":47.1974553, "longitude":8.8578231, "population":8853}, 
{"name":"Arlesheim", "state":"Basel-Landschaft", "country":"Switzerland", "latitude":47.4950823, "longitude":7.6267617, "population":8799}, 
{"name":"Glis", "state":"Valais", "country":"Switzerland", "latitude":46.3107515, "longitude":7.978054, "population":8787}, 
{"name":"Chêne", "state":"Genève", "country":"Switzerland", "latitude":46.1937267, "longitude":6.1919149, "population":8785}, 
{"name":"Rapperswil", "state":"St. Gallen", "country":"Switzerland", "latitude":47.2275962, "longitude":8.8166001, "population":8774}, 
{"name":"Mont", "state":"Vaud", "country":"Switzerland", "latitude":46.5567996, "longitude":6.6361183, "population":8687}, 
{"name":"Vernier", "state":"Genève", "country":"Switzerland", "latitude":46.2152882, "longitude":6.086534, "population":8680}, 
{"name":"Biberist", "state":"Solothurn", "country":"Switzerland", "latitude":47.1833955, "longitude":7.5585759, "population":8662}, 
{"name":"Crissier", "state":"Vaud", "country":"Switzerland", "latitude":46.5561694, "longitude":6.5787588, "population":8640}, 
{"name":"Düdingen", "state":"Fribourg", "country":"Switzerland", "latitude":46.846036, "longitude":7.1906668, "population":8626}, 
{"name":"Wald", "state":"Zürich", "country":"Switzerland", "latitude":47.2770472, "longitude":8.9159502, "population":8617}, 
{"name":"Aarburg", "state":"Aargau", "country":"Switzerland", "latitude":47.3207646, "longitude":7.8992753, "population":8579}, 
{"name":"Hombrechtikon", "state":"Zürich", "country":"Switzerland", "latitude":47.2529752, "longitude":8.7638718, "population":8482}, 
{"name":"Gränichen", "state":"Aargau", "country":"Switzerland", "latitude":47.3565049, "longitude":8.1021263, "population":8429}, 
{"name":"Muri", "state":"Aargau", "country":"Switzerland", "latitude":47.2723301, "longitude":8.3386834, "population":8427}, 
{"name":"Zollikon", "state":"Zürich", "country":"Switzerland", "latitude":47.3382749, "longitude":8.5741794, "population":8318}, 
{"name":"Marly", "state":"Fribourg", "country":"Switzerland", "latitude":46.7749102, "longitude":7.1589225, "population":8318}, 
{"name":"Rümlang", "state":"Zürich", "country":"Switzerland", "latitude":47.4516926, "longitude":8.5327006, "population":8313}, 
{"name":"Domat/Ems", "state":"Graubünden", "country":"Switzerland", "latitude":46.8361359, "longitude":9.4513545, "population":8261}, 
{"name":"Appenzell", "state":"Appenzell Innerrhoden", "country":"Switzerland", "latitude":47.3308987, "longitude":9.4100879, "population":8186}, 
{"name":"Stans", "state":"Nidwalden", "country":"Switzerland", "latitude":46.958426, "longitude":8.3663683, "population":8169}, 
{"name":"Liebefeld", "state":"Bern", "country":"Switzerland", "latitude":46.9297261, "longitude":7.4157816, "population":8130}, 
{"name":"Montreux", "state":"Vaud", "country":"Switzerland", "latitude":46.4308324, "longitude":6.9127993, "population":8093}, 
{"name":"Pregassona", "state":"Ticino", "country":"Switzerland", "latitude":46.0216607, "longitude":8.9715043, "population":8088}, 
{"name":"Wabern", "state":"Bern", "country":"Switzerland", "latitude":46.9285875, "longitude":7.4495348, "population":8080}, 
{"name":"Siebnen", "state":"Schwyz", "country":"Switzerland", "latitude":47.1761568, "longitude":8.8971427, "population":8014}, 
{"name":"Langnau", "state":"Zürich", "country":"Switzerland", "latitude":47.2882444, "longitude":8.5345833, "population":8006}, 
{"name":"Rorschacherberg", "state":"St. Gallen", "country":"Switzerland", "latitude":47.4662809, "longitude":9.5021274, "population":7964}, 
{"name":"Buchs", "state":"Aargau", "country":"Switzerland", "latitude":47.3892183, "longitude":8.0713399, "population":7948}, 
{"name":"Savièse", "state":"Valais", "country":"Switzerland", "latitude":46.2507721, "longitude":7.3497726, "population":7944}, 
{"name":"Dietlikon", "state":"Zürich", "country":"Switzerland", "latitude":47.4255286, "longitude":8.6157817, "population":7905}, 
{"name":"Altendorf", "state":"Schwyz", "country":"Switzerland", "latitude":47.1919551, "longitude":8.8308901, "population":7849}, 
{"name":"Nidau", "state":"Bern", "country":"Switzerland", "latitude":47.1250401, "longitude":7.2405563, "population":7830}, 
{"name":"Rothenburg", "state":"Luzern", "country":"Switzerland", "latitude":47.0939264, "longitude":8.2730565, "population":7830}, 
{"name":"Visp", "state":"Valais", "country":"Switzerland", "latitude":46.290396, "longitude":7.8811819, "population":7786}, 
{"name":"Emmen", "state":"Luzern", "country":"Switzerland", "latitude":47.0790166, "longitude":8.302484, "population":7757}, 
{"name":"Windisch", "state":"Aargau", "country":"Switzerland", "latitude":47.4757137, "longitude":8.2133385, "population":7754}, 
{"name":"Meggen", "state":"Luzern", "country":"Switzerland", "latitude":47.0464866, "longitude":8.3720624, "population":7724}, 
{"name":"Seuzach", "state":"Zürich", "country":"Switzerland", "latitude":47.5362345, "longitude":8.7383676, "population":7650}, 
{"name":"Bremgarten", "state":"Aargau", "country":"Switzerland", "latitude":47.3518576, "longitude":8.3402492, "population":7627}, 
{"name":"Bex", "state":"Vaud", "country":"Switzerland", "latitude":46.2512169, "longitude":7.0124368, "population":7605}, 
{"name":"Willisau", "state":"Luzern", "country":"Switzerland", "latitude":47.1199335, "longitude":7.9896828, "population":7550}, 
{"name":"Orbe", "state":"Vaud", "country":"Switzerland", "latitude":46.7246019, "longitude":6.532988, "population":7530}, 
{"name":"Pfäffikon", "state":"Schwyz", "country":"Switzerland", "latitude":47.2003788, "longitude":8.7779847, "population":7488}, 
{"name":"Langnau", "state":"Bern", "country":"Switzerland", "latitude":46.9418622, "longitude":7.7851078, "population":7448}, 
{"name":"Oberglatt", "state":"Zürich", "country":"Switzerland", "latitude":47.4766314, "longitude":8.5207265, "population":7435}, 
{"name":"Malters", "state":"Luzern", "country":"Switzerland", "latitude":47.0359441, "longitude":8.1834419, "population":7332}, 
{"name":"Wollerau", "state":"Schwyz", "country":"Switzerland", "latitude":47.1959658, "longitude":8.7188534, "population":7332}, 
{"name":"Köniz", "state":"Bern", "country":"Switzerland", "latitude":46.9211107, "longitude":7.4134205, "population":7316}, 
{"name":"Moutier", "state":"Bern", "country":"Switzerland", "latitude":47.2804894, "longitude":7.3721573, "population":7273}, 
{"name":"Birmensdorf", "state":"Zürich", "country":"Switzerland", "latitude":47.3516652, "longitude":8.4411769, "population":7191}, 
{"name":"Dornach", "state":"Solothurn", "country":"Switzerland", "latitude":47.4786804, "longitude":7.6166815, "population":7124}, 
{"name":"Mels", "state":"St. Gallen", "country":"Switzerland", "latitude":47.0465268, "longitude":9.4224963, "population":7122}, 
{"name":"Murten", "state":"Fribourg", "country":"Switzerland", "latitude":46.9284213, "longitude":7.1191097, "population":7006}, 
{"name":"Niederhasli", "state":"Zürich", "country":"Switzerland", "latitude":47.4823249, "longitude":8.4838115, "population":6985}, 
{"name":"Rolle", "state":"Vaud", "country":"Switzerland", "latitude":46.4585653, "longitude":6.3361767, "population":6949}, 
{"name":"Sissach", "state":"Basel-Landschaft", "country":"Switzerland", "latitude":47.4657251, "longitude":7.8097484, "population":6865}, 
{"name":"Bottmingen", "state":"Basel-Landschaft", "country":"Switzerland", "latitude":47.5257577, "longitude":7.5744534, "population":6855}, 
{"name":"Oberengstringen", "state":"Zürich", "country":"Switzerland", "latitude":47.408374, "longitude":8.4623596, "population":6833}, 
{"name":"Worb", "state":"Bern", "country":"Switzerland", "latitude":46.9301424, "longitude":7.5643174, "population":6825}, 
{"name":"Wattwil", "state":"St. Gallen", "country":"Switzerland", "latitude":47.304304, "longitude":9.0885646, "population":6797}, 
{"name":"Minusio", "state":"Ticino", "country":"Switzerland", "latitude":46.1767201, "longitude":8.813031, "population":6794}, 
{"name":"Châtel", "state":"Fribourg", "country":"Switzerland", "latitude":46.5288002, "longitude":6.9010718, "population":6768}, 
{"name":"Herrliberg", "state":"Zürich", "country":"Switzerland", "latitude":47.2851972, "longitude":8.6168832, "population":6701}, 
{"name":"Würenlos", "state":"Aargau", "country":"Switzerland", "latitude":47.4427873, "longitude":8.3648733, "population":6672}, 
{"name":"Fehraltorf", "state":"Zürich", "country":"Switzerland", "latitude":47.387128, "longitude":8.752277, "population":6667}, 
{"name":"Derendingen", "state":"Solothurn", "country":"Switzerland", "latitude":47.1947665, "longitude":7.5865442, "population":6657}, 
{"name":"Muri", "state":"Bern", "country":"Switzerland", "latitude":46.9283691, "longitude":7.4884817, "population":6656}, 
{"name":"Chiasso", "state":"Ticino", "country":"Switzerland", "latitude":45.834879, "longitude":9.0268558, "population":6642}, 
{"name":"Saxon", "state":"Valais", "country":"Switzerland", "latitude":46.1453359, "longitude":7.1807567, "population":6640}, 
{"name":"Frenkendorf", "state":"Basel-Landschaft", "country":"Switzerland", "latitude":47.5018539, "longitude":7.706744, "population":6637}, 
{"name":"Gümligen", "state":"Bern", "country":"Switzerland", "latitude":46.935051, "longitude":7.5092683, "population":6626}, 
{"name":"Buchs", "state":"Zürich", "country":"Switzerland", "latitude":47.4588115, "longitude":8.4381254, "population":6618}, 
{"name":"Mendrisio", "state":"Ticino", "country":"Switzerland", "latitude":45.8707641, "longitude":8.9892028, "population":6596}, 
{"name":"Menziken", "state":"Aargau", "country":"Switzerland", "latitude":47.2395127, "longitude":8.1863736, "population":6586}, 
{"name":"Uznach", "state":"St. Gallen", "country":"Switzerland", "latitude":47.2254827, "longitude":8.9863251, "population":6581}, 
{"name":"Vétroz", "state":"Valais", "country":"Switzerland", "latitude":46.2272271, "longitude":7.2816927, "population":6567}, 
{"name":"Viganello", "state":"Ticino", "country":"Switzerland", "latitude":46.0110365, "longitude":8.96712, "population":6557}, 
{"name":"Ragaz", "state":"St. Gallen", "country":"Switzerland", "latitude":47.0040153, "longitude":9.5009577, "population":6557}, 
{"name":"Porrentruy", "state":"Jura", "country":"Switzerland", "latitude":47.4158964, "longitude":7.0768294, "population":6493}, 
{"name":"Frutigen", "state":"Bern", "country":"Switzerland", "latitude":46.5880798, "longitude":7.6427192, "population":6492}, 
{"name":"Villmergen", "state":"Aargau", "country":"Switzerland", "latitude":47.3457334, "longitude":8.2438592, "population":6490}, 
{"name":"Urtenen", "state":"Bern", "country":"Switzerland", "latitude":47.0255662, "longitude":7.4998979, "population":6488}, 
{"name":"Diepoldsau", "state":"St. Gallen", "country":"Switzerland", "latitude":47.3854032, "longitude":9.6576291, "population":6475}, 
{"name":"Blonay", "state":"Vaud", "country":"Switzerland", "latitude":46.4658558, "longitude":6.8944082, "population":6403}, 
{"name":"Losone", "state":"Ticino", "country":"Switzerland", "latitude":46.1693416, "longitude":8.7596751, "population":6401}, 
{"name":"Heimberg", "state":"Bern", "country":"Switzerland", "latitude":46.789615, "longitude":7.6015528, "population":6397}, 
{"name":"Trimbach", "state":"Solothurn", "country":"Switzerland", "latitude":47.3674386, "longitude":7.8959412, "population":6386}, 
{"name":"Goldau", "state":"Schwyz", "country":"Switzerland", "latitude":47.0466123, "longitude":8.544898, "population":6364}, 
{"name":"Uetikon", "state":"Zürich", "country":"Switzerland", "latitude":47.2618241, "longitude":8.6769215, "population":6328}, 
{"name":"Sirnach", "state":"Thurgau", "country":"Switzerland", "latitude":47.4620307, "longitude":8.9975067, "population":6327}, 
{"name":"Balsthal", "state":"Solothurn", "country":"Switzerland", "latitude":47.3119336, "longitude":7.6981981, "population":6308}, 
{"name":"Glattpark", "state":"Zürich", "country":"Switzerland", "latitude":47.4232475, "longitude":8.5616753, "population":6288}, 
{"name":"Untersiggenthal", "state":"Aargau", "country":"Switzerland", "latitude":47.5052899, "longitude":8.259889, "population":6287}, 
{"name":"Estavayer", "state":"Fribourg", "country":"Switzerland", "latitude":46.8499941, "longitude":6.8472022, "population":6263}, 
{"name":"Glarus", "state":"Glarus", "country":"Switzerland", "latitude":47.0404677, "longitude":9.0656658, "population":6260}, 
{"name":"Oensingen", "state":"Solothurn", "country":"Switzerland", "latitude":47.2872997, "longitude":7.7238192, "population":6246}, 
{"name":"Lutry", "state":"Vaud", "country":"Switzerland", "latitude":46.5026791, "longitude":6.6863877, "population":6237}, 
{"name":"Sarnen", "state":"Obwalden", "country":"Switzerland", "latitude":46.8953332, "longitude":8.2456243, "population":6228}, 
{"name":"Nussbaumen", "state":"Aargau", "country":"Switzerland", "latitude":47.489127, "longitude":8.2895185, "population":6177}, 
{"name":"Collombey", "state":"Valais", "country":"Switzerland", "latitude":46.2679898, "longitude":6.9463572, "population":6160}, 
{"name":"Gelterkinden", "state":"Basel-Landschaft", "country":"Switzerland", "latitude":47.4642329, "longitude":7.8588034, "population":6151}, 
{"name":"Moudon", "state":"Vaud", "country":"Switzerland", "latitude":46.6681564, "longitude":6.7991267, "population":6143}, 
{"name":"Biasca", "state":"Ticino", "country":"Switzerland", "latitude":46.360112, "longitude":8.9722244, "population":6140}, 
{"name":"Rüschlikon", "state":"Zürich", "country":"Switzerland", "latitude":47.3093244, "longitude":8.5548942, "population":6125}, 
{"name":"Bolligen", "state":"Bern", "country":"Switzerland", "latitude":46.9750319, "longitude":7.4962746, "population":6064}, 
{"name":"Herzogenbuchsee", "state":"Bern", "country":"Switzerland", "latitude":47.1945341, "longitude":7.7143622, "population":6057}, 
{"name":"Veyrier", "state":"Genève", "country":"Switzerland", "latitude":46.1667994, "longitude":6.1860759, "population":6022}, 
{"name":"Davos", "state":"Graubünden", "country":"Switzerland", "latitude":46.7932792, "longitude":9.8221368, "population":6016}, 
{"name":"Dielsdorf", "state":"Zürich", "country":"Switzerland", "latitude":47.4841919, "longitude":8.4535546, "population":6010}, 
{"name":"Schwyz", "state":"Schwyz", "country":"Switzerland", "latitude":47.0213576, "longitude":8.6536761, "population":5997}, 
{"name":"Au", "state":"Zürich", "country":"Switzerland", "latitude":47.2469903, "longitude":8.6429753, "population":5986}, 
{"name":"Ruswil", "state":"Luzern", "country":"Switzerland", "latitude":47.0851156, "longitude":8.126659, "population":5969}, 
{"name":"Prex", "state":"Vaud", "country":"Switzerland", "latitude":46.4813352, "longitude":6.4582433, "population":5968}, 
{"name":"Niederuzwil", "state":"St. Gallen", "country":"Switzerland", "latitude":47.4446381, "longitude":9.1422634, "population":5957}, 
{"name":"Uetendorf", "state":"Bern", "country":"Switzerland", "latitude":46.7747558, "longitude":7.5738947, "population":5950}, 
{"name":"Margrethen", "state":"St. Gallen", "country":"Switzerland", "latitude":47.4539426, "longitude":9.6259037, "population":5941}, 
{"name":"Conthey", "state":"Valais", "country":"Switzerland", "latitude":46.2273501, "longitude":7.3048751, "population":5915}, 
{"name":"Unterseen", "state":"Bern", "country":"Switzerland", "latitude":46.6876214, "longitude":7.8495401, "population":5889}, 
{"name":"Villeneuve", "state":"Vaud", "country":"Switzerland", "latitude":46.3962563, "longitude":6.9251793, "population":5873}, 
{"name":"Massagno", "state":"Ticino", "country":"Switzerland", "latitude":46.0127129, "longitude":8.9431779, "population":5873}, 
{"name":"Bonstetten", "state":"Zürich", "country":"Switzerland", "latitude":47.3155104, "longitude":8.4676114, "population":5868}, 
{"name":"Laufen", "state":"Basel-Landschaft", "country":"Switzerland", "latitude":47.421115, "longitude":7.4984283, "population":5847}, 
{"name":"Sargans", "state":"St. Gallen", "country":"Switzerland", "latitude":47.0503368, "longitude":9.4351273, "population":5843}, 
{"name":"Hergiswil", "state":"Nidwalden", "country":"Switzerland", "latitude":46.9840199, "longitude":8.3105612, "population":5822}, 
{"name":"Lignon", "state":"Genève", "country":"Switzerland", "latitude":46.2042366, "longitude":6.0955, "population":5820}, 
{"name":"Mellingen", "state":"Aargau", "country":"Switzerland", "latitude":47.4181994, "longitude":8.2814009, "population":5800}, 
{"name":"Zermatt", "state":"Valais", "country":"Switzerland", "latitude":46.0195164, "longitude":7.7467466, "population":5796}, 
{"name":"Obfelden", "state":"Zürich", "country":"Switzerland", "latitude":47.2636269, "longitude":8.423045, "population":5795}, 
{"name":"Grabs", "state":"St. Gallen", "country":"Switzerland", "latitude":47.1811336, "longitude":9.4470853, "population":5777}, 
{"name":"Rupperswil", "state":"Aargau", "country":"Switzerland", "latitude":47.4027663, "longitude":8.134577, "population":5760}, 
{"name":"Buchrain", "state":"Luzern", "country":"Switzerland", "latitude":47.0947667, "longitude":8.3460137, "population":5752}, 
{"name":"Nürensdorf", "state":"Zürich", "country":"Switzerland", "latitude":47.4479759, "longitude":8.6492066, "population":5751}, 
{"name":"Echallens", "state":"Vaud", "country":"Switzerland", "latitude":46.6407707, "longitude":6.6340711, "population":5748}, 
{"name":"Kerns", "state":"Obwalden", "country":"Switzerland", "latitude":46.901998, "longitude":8.2758666, "population":5739}, 
{"name":"Peseux", "state":"Neuchâtel", "country":"Switzerland", "latitude":46.9873062, "longitude":6.8886446, "population":5738}, 
{"name":"Fislisbach", "state":"Aargau", "country":"Switzerland", "latitude":47.4390422, "longitude":8.2968802, "population":5727}, 
{"name":"Frick", "state":"Aargau", "country":"Switzerland", "latitude":47.504423, "longitude":8.0224337, "population":5725}, 
{"name":"Bischofszell", "state":"Thurgau", "country":"Switzerland", "latitude":47.4940126, "longitude":9.2389378, "population":5713}, 
{"name":"Lausen", "state":"Basel-Landschaft", "country":"Switzerland", "latitude":47.4703339, "longitude":7.7595591, "population":5695}, 
{"name":"Vessy", "state":"Genève", "country":"Switzerland", "latitude":46.1723137, "longitude":6.1546939, "population":5673}, 
{"name":"Cologny", "state":"Genève", "country":"Switzerland", "latitude":46.2162593, "longitude":6.1812087, "population":5636}, 
{"name":"Lengnau", "state":"Bern", "country":"Switzerland", "latitude":47.1823757, "longitude":7.3691783, "population":5618}, 
{"name":"Schwerzenbach", "state":"Zürich", "country":"Switzerland", "latitude":47.3797945, "longitude":8.6521316, "population":5614}, 
{"name":"Erlenbach", "state":"Zürich", "country":"Switzerland", "latitude":47.3022968, "longitude":8.5915941, "population":5606}, 
{"name":"Bellach", "state":"Solothurn", "country":"Switzerland", "latitude":47.2121408, "longitude":7.5009841, "population":5604}, 
{"name":"Colombier", "state":"Neuchâtel", "country":"Switzerland", "latitude":46.9663455, "longitude":6.8620268, "population":5603}, 
{"name":"Mettmenstetten", "state":"Zürich", "country":"Switzerland", "latitude":47.2427992, "longitude":8.4637698, "population":5602}, 
{"name":"Interlaken", "state":"Bern", "country":"Switzerland", "latitude":46.686893, "longitude":7.8628703, "population":5601}, 
{"name":"Breganzona", "state":"Ticino", "country":"Switzerland", "latitude":46.008537, "longitude":8.9261644, "population":5600}, 
{"name":"Vésenaz", "state":"Genève", "country":"Switzerland", "latitude":46.2375432, "longitude":6.199668, "population":5577}, 
{"name":"Zumikon", "state":"Zürich", "country":"Switzerland", "latitude":47.3314033, "longitude":8.6232779, "population":5573}, 
{"name":"Ettingen", "state":"Basel-Landschaft", "country":"Switzerland", "latitude":47.4803929, "longitude":7.5411408, "population":5552}, 
{"name":"Tour-de-Trême", "state":"Fribourg", "country":"Switzerland", "latitude":46.6090749, "longitude":7.0662246, "population":5541}, 
{"name":"Eglisau", "state":"Zürich", "country":"Switzerland", "latitude":47.57518, "longitude":8.5260379, "population":5522}, 
{"name":"Gerlafingen", "state":"Solothurn", "country":"Switzerland", "latitude":47.1705112, "longitude":7.5716663, "population":5485}, 
{"name":"Légier-Chiésaz", "state":"Vaud", "country":"Switzerland", "latitude":46.4713671, "longitude":6.883989, "population":5479}, 
{"name":"Buochs", "state":"Nidwalden", "country":"Switzerland", "latitude":46.9713961, "longitude":8.4200936, "population":5473}, 
{"name":"Ascona", "state":"Ticino", "country":"Switzerland", "latitude":46.1549337, "longitude":8.7679496, "population":5472}, 
{"name":"Adligenswil", "state":"Luzern", "country":"Switzerland", "latitude":47.0705769, "longitude":8.3650956, "population":5452}, 
{"name":"Strengelbach", "state":"Aargau", "country":"Switzerland", "latitude":47.2798948, "longitude":7.9275483, "population":5451}, 
{"name":"Aadorf", "state":"Thurgau", "country":"Switzerland", "latitude":47.4913594, "longitude":8.8976982, "population":5405}, 
{"name":"Alpnach", "state":"Obwalden", "country":"Switzerland", "latitude":46.9410723, "longitude":8.2718257, "population":5394}, 
{"name":"Egg", "state":"Zürich", "country":"Switzerland", "latitude":47.3006542, "longitude":8.6914472, "population":5387}, 
{"name":"Oberriet", "state":"St. Gallen", "country":"Switzerland", "latitude":47.3260915, "longitude":9.5708763, "population":5385}, 
{"name":"Greifensee", "state":"Zürich", "country":"Switzerland", "latitude":47.3649849, "longitude":8.6769801, "population":5375}, 
{"name":"Kaiseraugst", "state":"Aargau", "country":"Switzerland", "latitude":47.5396067, "longitude":7.724933, "population":5369}, 
{"name":"Root", "state":"Luzern", "country":"Switzerland", "latitude":47.1142274, "longitude":8.3915987, "population":5368}, 
{"name":"Kirchberg", "state":"Bern", "country":"Switzerland", "latitude":47.0837803, "longitude":7.5853701, "population":5362}, 
{"name":"Wangen", "state":"Solothurn", "country":"Switzerland", "latitude":47.3426699, "longitude":7.8773767, "population":5353}, 
{"name":"Romont", "state":"Fribourg", "country":"Switzerland", "latitude":46.6954024, "longitude":6.9182228, "population":5345}, 
{"name":"Boudry", "state":"Neuchâtel", "country":"Switzerland", "latitude":46.9514221, "longitude":6.8371028, "population":5336}, 
{"name":"Abtwil", "state":"St. Gallen", "country":"Switzerland", "latitude":47.421713, "longitude":9.3242625, "population":5335}, 
{"name":"Gossau", "state":"Zürich", "country":"Switzerland", "latitude":47.3010448, "longitude":8.7627034, "population":5296}, 
{"name":"Seon", "state":"Aargau", "country":"Switzerland", "latitude":47.3461889, "longitude":8.156749, "population":5282}, 
{"name":"Zollikerberg", "state":"Zürich", "country":"Switzerland", "latitude":47.3480067, "longitude":8.6022616, "population":5267}, 
{"name":"Schliern", "state":"Bern", "country":"Switzerland", "latitude":46.9092424, "longitude":7.4161257, "population":5249}, 
{"name":"Hägendorf", "state":"Solothurn", "country":"Switzerland", "latitude":47.3379137, "longitude":7.8366971, "population":5248}, 
{"name":"Schattdorf", "state":"Uri", "country":"Switzerland", "latitude":46.863793, "longitude":8.6567578, "population":5240}, 
{"name":"Ebnat-Kappel", "state":"St. Gallen", "country":"Switzerland", "latitude":47.2640631, "longitude":9.1205487, "population":5234}, 
{"name":"Avanchets", "state":"Genève", "country":"Switzerland", "latitude":46.2208336, "longitude":6.1089445, "population":5214}, 
{"name":"Oberuzwil", "state":"St. Gallen", "country":"Switzerland", "latitude":47.4311745, "longitude":9.1206025, "population":5212}, 
{"name":"Niederbipp", "state":"Bern", "country":"Switzerland", "latitude":47.2683908, "longitude":7.7018281, "population":5183}, 
{"name":"Préverenges", "state":"Vaud", "country":"Switzerland", "latitude":46.5183975, "longitude":6.526945, "population":5179}, 
{"name":"Kerzers", "state":"Fribourg", "country":"Switzerland", "latitude":46.9761466, "longitude":7.1963831, "population":5160}, 
{"name":"Kaltbrunn", "state":"St. Gallen", "country":"Switzerland", "latitude":47.2139454, "longitude":9.0245358, "population":5135}, 
{"name":"Gebenstorf", "state":"Aargau", "country":"Switzerland", "latitude":47.4806558, "longitude":8.2401662, "population":5123}, 
{"name":"Dulliken", "state":"Solothurn", "country":"Switzerland", "latitude":47.34787, "longitude":7.946247, "population":5118}, 
{"name":"Brüttisellen", "state":"Zürich", "country":"Switzerland", "latitude":47.4232224, "longitude":8.6297415, "population":5104}, 
{"name":"Tägerwilen", "state":"Thurgau", "country":"Switzerland", "latitude":47.6548714, "longitude":9.136657, "population":5099}, 
{"name":"Wettswil", "state":"Zürich", "country":"Switzerland", "latitude":47.3380201, "longitude":8.4749624, "population":5097}, 
{"name":"Wiesendangen", "state":"Zürich", "country":"Switzerland", "latitude":47.5212601, "longitude":8.7895156, "population":5077}, 
{"name":"Sevelen", "state":"St. Gallen", "country":"Switzerland", "latitude":47.1214941, "longitude":9.4860825, "population":5075}, 
{"name":"Konolfingen", "state":"Bern", "country":"Switzerland", "latitude":46.8781692, "longitude":7.6194687, "population":5074}, 
{"name":"Fällanden", "state":"Zürich", "country":"Switzerland", "latitude":47.3705289, "longitude":8.6383584, "population":5071}, 
{"name":"Näfels", "state":"Glarus", "country":"Switzerland", "latitude":47.1011189, "longitude":9.0570863, "population":5066}, 
{"name":"Pieterlen", "state":"Bern", "country":"Switzerland", "latitude":47.1714587, "longitude":7.3403998, "population":5060}, 
{"name":"Oberrieden", "state":"Zürich", "country":"Switzerland", "latitude":47.2770143, "longitude":8.5767004, "population":5055}, 
{"name":"Jegenstorf", "state":"Bern", "country":"Switzerland", "latitude":47.0502308, "longitude":7.5070003, "population":5049}, 
{"name":"Schönenwerd", "state":"Solothurn", "country":"Switzerland", "latitude":47.3695526, "longitude":8.0109199, "population":5039}, 
{"name":"Hünenberg", "state":"Zug", "country":"Switzerland", "latitude":47.1747199, "longitude":8.4280226, "population":5014}, 
{"name":"Oetwil", "state":"Zürich", "country":"Switzerland", "latitude":47.2701873, "longitude":8.7232208, "population":4988}, 
{"name":"Bettlach", "state":"Solothurn", "country":"Switzerland", "latitude":47.2033939, "longitude":7.4297095, "population":4955}, 
{"name":"Cortaillod", "state":"Neuchâtel", "country":"Switzerland", "latitude":46.9429309, "longitude":6.8463264, "population":4922}, 
{"name":"Oberägeri", "state":"Zug", "country":"Switzerland", "latitude":47.1345793, "longitude":8.6143652, "population":4917}, 
{"name":"Ibach", "state":"Schwyz", "country":"Switzerland", "latitude":47.0128536, "longitude":8.644887, "population":4916}, 
{"name":"Reiden", "state":"Luzern", "country":"Switzerland", "latitude":47.2435428, "longitude":7.9721707, "population":4902}, 
{"name":"Ennetbürgen", "state":"Nidwalden", "country":"Switzerland", "latitude":46.9848734, "longitude":8.4144816, "population":4889}, 
{"name":"Berikon", "state":"Aargau", "country":"Switzerland", "latitude":47.3498044, "longitude":8.37299, "population":4882}, 
{"name":"Beringen", "state":"Schaffhausen", "country":"Switzerland", "latitude":47.6991787, "longitude":8.5726116, "population":4879}, 
{"name":"Neuenkirch", "state":"Luzern", "country":"Switzerland", "latitude":47.0999494, "longitude":8.2035819, "population":4876}, 
{"name":"Würenlingen", "state":"Aargau", "country":"Switzerland", "latitude":47.5302354, "longitude":8.2586323, "population":4872}, 
{"name":"Eschenbach", "state":"St. Gallen", "country":"Switzerland", "latitude":47.2395884, "longitude":8.9198912, "population":4865}, 
{"name":"Sulpice", "state":"Vaud", "country":"Switzerland", "latitude":46.5090354, "longitude":6.5599563, "population":4863}, 
{"name":"Heerbrugg", "state":"St. Gallen", "country":"Switzerland", "latitude":47.4128629, "longitude":9.6268828, "population":4863}, 
{"name":"Ehrendingen", "state":"Aargau", "country":"Switzerland", "latitude":47.4973156, "longitude":8.3421372, "population":4854}, 
{"name":"Winkel", "state":"Zürich", "country":"Switzerland", "latitude":47.4925004, "longitude":8.5544773, "population":4849}, 
{"name":"Uzwil", "state":"St. Gallen", "country":"Switzerland", "latitude":47.4366716, "longitude":9.1312311, "population":4847}, 
{"name":"Niederglatt", "state":"Zürich", "country":"Switzerland", "latitude":47.4874635, "longitude":8.503516, "population":4844}, 
{"name":"Gordola", "state":"Ticino", "country":"Switzerland", "latitude":46.1792191, "longitude":8.865256, "population":4840}, 
{"name":"Landquart", "state":"Graubünden", "country":"Switzerland", "latitude":46.9635694, "longitude":9.5586161, "population":4834}, 
{"name":"Moritz", "state":"Graubünden", "country":"Switzerland", "latitude":46.4984119, "longitude":9.8399853, "population":4823}, 
{"name":"Chavornay", "state":"Vaud", "country":"Switzerland", "latitude":46.7014364, "longitude":6.5705357, "population":4787}, 
{"name":"Thayngen", "state":"Schaffhausen", "country":"Switzerland", "latitude":47.747441, "longitude":8.7111947, "population":4780}, 
{"name":"Imier", "state":"Bern", "country":"Switzerland", "latitude":47.1525946, "longitude":6.9967133, "population":4775}, 
{"name":"Uitikon", "state":"Zürich", "country":"Switzerland", "latitude":47.3708516, "longitude":8.4539794, "population":4772}, 
{"name":"Neftenbach", "state":"Zürich", "country":"Switzerland", "latitude":47.5285589, "longitude":8.6678246, "population":4768}, 
{"name":"Dottikon", "state":"Aargau", "country":"Switzerland", "latitude":47.3836638, "longitude":8.241003, "population":4767}, 
{"name":"Birr", "state":"Aargau", "country":"Switzerland", "latitude":47.4368888, "longitude":8.2012209, "population":4748}, 
{"name":"Wolhusen", "state":"Luzern", "country":"Switzerland", "latitude":47.0597403, "longitude":8.0747918, "population":4747}, 
{"name":"Huttwil", "state":"Bern", "country":"Switzerland", "latitude":47.1137204, "longitude":7.8499539, "population":4738}, 
{"name":"Landeron", "state":"Neuchâtel", "country":"Switzerland", "latitude":47.053646, "longitude":7.0650082, "population":4735}, 
{"name":"Aarwangen", "state":"Bern", "country":"Switzerland", "latitude":47.2408741, "longitude":7.7696172, "population":4732}, 
{"name":"Münchwilen", "state":"Thurgau", "country":"Switzerland", "latitude":47.479722, "longitude":8.9990367, "population":4724}, 
{"name":"Au", "state":"St. Gallen", "country":"Switzerland", "latitude":47.4334136, "longitude":9.6337825, "population":4715}, 
{"name":"Rafz", "state":"Zürich", "country":"Switzerland", "latitude":47.6143894, "longitude":8.5349885, "population":4699}, 
{"name":"Niederrohrdorf", "state":"Aargau", "country":"Switzerland", "latitude":47.423822, "longitude":8.2977175, "population":4692}, 
{"name":"Niederlenz", "state":"Aargau", "country":"Switzerland", "latitude":47.4026998, "longitude":8.1703558, "population":4681}, 
{"name":"Turbenthal", "state":"Zürich", "country":"Switzerland", "latitude":47.4351627, "longitude":8.8473887, "population":4678}, 
{"name":"Bazenheid", "state":"St. Gallen", "country":"Switzerland", "latitude":47.4097789, "longitude":9.0686238, "population":4669}, 
{"name":"Cheseaux", "state":"Vaud", "country":"Switzerland", "latitude":46.5848751, "longitude":6.605034, "population":4667}, 
{"name":"Dagmersellen", "state":"Luzern", "country":"Switzerland", "latitude":47.2141831, "longitude":7.9903327, "population":4665}, 
{"name":"Kölliken", "state":"Aargau", "country":"Switzerland", "latitude":47.3380051, "longitude":8.0293807, "population":4662}, 
{"name":"Hinterkappelen", "state":"Bern", "country":"Switzerland", "latitude":46.9678906, "longitude":7.3774575, "population":4657}, 
{"name":"Rebstein", "state":"St. Gallen", "country":"Switzerland", "latitude":47.3994982, "longitude":9.5841529, "population":4637}, 
{"name":"Confignon", "state":"Genève", "country":"Switzerland", "latitude":46.1739728, "longitude":6.0844839, "population":4629}, 
{"name":"Schöftland", "state":"Aargau", "country":"Switzerland", "latitude":47.304806, "longitude":8.0506598, "population":4608}, 
{"name":"Aarberg", "state":"Bern", "country":"Switzerland", "latitude":47.0435455, "longitude":7.2752975, "population":4596}, 
{"name":"Balgach", "state":"St. Gallen", "country":"Switzerland", "latitude":47.4073732, "longitude":9.6063106, "population":4596}, 
{"name":"Zurzach", "state":"Aargau", "country":"Switzerland", "latitude":47.5820821, "longitude":8.2953027, "population":4596}, 
{"name":"Staufen", "state":"Aargau", "country":"Switzerland", "latitude":47.3807469, "longitude":8.162874, "population":4593}, 
{"name":"Schwarzenburg", "state":"Bern", "country":"Switzerland", "latitude":46.8169815, "longitude":7.3418586, "population":4576}, 
{"name":"Gwatt", "state":"Bern", "country":"Switzerland", "latitude":46.7285051, "longitude":7.6231226, "population":4569}, 
{"name":"Illnau", "state":"Zürich", "country":"Switzerland", "latitude":47.4089597, "longitude":8.7226245, "population":4560}, 
{"name":"Walenstadt", "state":"St. Gallen", "country":"Switzerland", "latitude":47.1241284, "longitude":9.3148309, "population":4555}, 
{"name":"Utzenstorf", "state":"Bern", "country":"Switzerland", "latitude":47.1268097, "longitude":7.55728, "population":4551}, 
{"name":"Kehrsatz", "state":"Bern", "country":"Switzerland", "latitude":46.9126345, "longitude":7.4735465, "population":4513}, 
{"name":"Zufikon", "state":"Aargau", "country":"Switzerland", "latitude":47.3445231, "longitude":8.360908, "population":4501}, 
{"name":"Neuenegg", "state":"Bern", "country":"Switzerland", "latitude":46.8971133, "longitude":7.2984936, "population":4484}, 
{"name":"Morbio Inferiore", "state":"Ticino", "country":"Switzerland", "latitude":45.8536192, "longitude":9.016861, "population":4484}, 
{"name":"Elgg", "state":"Zürich", "country":"Switzerland", "latitude":47.4901819, "longitude":8.8675767, "population":4461}, 
{"name":"Weggis", "state":"Luzern", "country":"Switzerland", "latitude":47.0326963, "longitude":8.434322, "population":4459}, 
{"name":"Glattfelden", "state":"Zürich", "country":"Switzerland", "latitude":47.5588097, "longitude":8.4989448, "population":4457}, 
{"name":"Schüpfheim", "state":"Luzern", "country":"Switzerland", "latitude":46.9531662, "longitude":8.0197752, "population":4450}, 
{"name":"Döttingen", "state":"Aargau", "country":"Switzerland", "latitude":47.5700601, "longitude":8.2586933, "population":4439}, 
{"name":"Füllinsdorf", "state":"Basel-Landschaft", "country":"Switzerland", "latitude":47.5075606, "longitude":7.728727, "population":4433}, 
{"name":"Opfikon", "state":"Zürich", "country":"Switzerland", "latitude":47.4322127, "longitude":8.5774233, "population":4428}, 
{"name":"Sachseln", "state":"Obwalden", "country":"Switzerland", "latitude":46.8675497, "longitude":8.2400373, "population":4401}, 
{"name":"Schmitten", "state":"Fribourg", "country":"Switzerland", "latitude":46.8563359, "longitude":7.2494918, "population":4385}, 
{"name":"Bubendorf", "state":"Basel-Landschaft", "country":"Switzerland", "latitude":47.4489204, "longitude":7.7346455, "population":4385}, 
{"name":"Wichtrach", "state":"Bern", "country":"Switzerland", "latitude":46.8455266, "longitude":7.5794367, "population":4384}, 
{"name":"Paradiso", "state":"Ticino", "country":"Switzerland", "latitude":45.989214, "longitude":8.9463915, "population":4378}, 
{"name":"Rudolfstetten", "state":"Aargau", "country":"Switzerland", "latitude":47.3682914, "longitude":8.3791862, "population":4376}, 
{"name":"Maurice", "state":"Valais", "country":"Switzerland", "latitude":46.2173653, "longitude":7.0030672, "population":4372}, 
{"name":"Schötz", "state":"Luzern", "country":"Switzerland", "latitude":47.1694185, "longitude":7.98898, "population":4369}, 
{"name":"Caslano", "state":"Ticino", "country":"Switzerland", "latitude":45.9719542, "longitude":8.8834581, "population":4363}, 
{"name":"Adlikon", "state":"Zürich", "country":"Switzerland", "latitude":47.448139, "longitude":8.4664981, "population":4355}, 
{"name":"Heiden", "state":"Appenzell Ausserrhoden", "country":"Switzerland", "latitude":47.4451166, "longitude":9.5350662, "population":4350}, 
{"name":"Brügg", "state":"Bern", "country":"Switzerland", "latitude":47.1235401, "longitude":7.2781209, "population":4349}, 
{"name":"Dällikon", "state":"Zürich", "country":"Switzerland", "latitude":47.4399316, "longitude":8.4393841, "population":4343}, 
{"name":"Forch", "state":"Zürich", "country":"Switzerland", "latitude":47.3253983, "longitude":8.6482374, "population":4343}, 
{"name":"Safenwil", "state":"Aargau", "country":"Switzerland", "latitude":47.317572, "longitude":7.98215, "population":4342}, 
{"name":"Crans-Montana", "state":"Valais", "country":"Switzerland", "latitude":46.3127246, "longitude":7.4816841, "population":4334}, 
{"name":"Meiringen", "state":"Bern", "country":"Switzerland", "latitude":46.7294491, "longitude":8.1891858, "population":4321}, 
{"name":"Wängi", "state":"Thurgau", "country":"Switzerland", "latitude":47.5008124, "longitude":8.9544239, "population":4309}, 
{"name":"Matten", "state":"Bern", "country":"Switzerland", "latitude":46.6772718, "longitude":7.8697149, "population":4303}, 
{"name":"Satigny", "state":"Genève", "country":"Switzerland", "latitude":46.2182308, "longitude":6.0314159, "population":4294}, 
{"name":"Brittnau", "state":"Aargau", "country":"Switzerland", "latitude":47.2589149, "longitude":7.9483294, "population":4289}, 
{"name":"Roggwil", "state":"Bern", "country":"Switzerland", "latitude":47.2399105, "longitude":7.8216813, "population":4287}, 
{"name":"Unterengstringen", "state":"Zürich", "country":"Switzerland", "latitude":47.413326, "longitude":8.4494492, "population":4273}, 
{"name":"Hunzenschwil", "state":"Aargau", "country":"Switzerland", "latitude":47.3840019, "longitude":8.1230437, "population":4272}, 
{"name":"Seengen", "state":"Aargau", "country":"Switzerland", "latitude":47.3263954, "longitude":8.2030565, "population":4268}, 
{"name":"Teufen", "state":"Appenzell Ausserrhoden", "country":"Switzerland", "latitude":47.3898617, "longitude":9.3875755, "population":4258}, 
{"name":"Sempach", "state":"Luzern", "country":"Switzerland", "latitude":47.1346692, "longitude":8.1928213, "population":4256}, 
{"name":"Bachenbülach", "state":"Zürich", "country":"Switzerland", "latitude":47.5035692, "longitude":8.5464302, "population":4254}, 
{"name":"Engelberg", "state":"Obwalden", "country":"Switzerland", "latitude":46.8201098, "longitude":8.4002519, "population":4242}, 
{"name":"Marin-Epagnier", "state":"Neuchâtel", "country":"Switzerland", "latitude":47.0092677, "longitude":7.0011696, "population":4239}, 
{"name":"Acacias", "state":"Genève", "country":"Switzerland", "latitude":46.193497, "longitude":6.1331481, "population":4233}, 
{"name":"Egerkingen", "state":"Solothurn", "country":"Switzerland", "latitude":47.3261956, "longitude":7.7962971, "population":4227}, 
{"name":"Oberkirch", "state":"Luzern", "country":"Switzerland", "latitude":47.15852, "longitude":8.1153198, "population":4213}, 
{"name":"Tramelan", "state":"Bern", "country":"Switzerland", "latitude":47.223132, "longitude":7.0971738, "population":4201}, 
{"name":"Troistorrents", "state":"Valais", "country":"Switzerland", "latitude":46.2297602, "longitude":6.9190148, "population":4193}, 
{"name":"Unterentfelden", "state":"Aargau", "country":"Switzerland", "latitude":47.3696852, "longitude":8.0383489, "population":4191}, 
{"name":"Cossonay", "state":"Vaud", "country":"Switzerland", "latitude":46.6142162, "longitude":6.5094363, "population":4188}, 
{"name":"Aïre", "state":"Genève", "country":"Switzerland", "latitude":46.1999273, "longitude":6.0983499, "population":4185}, 
{"name":"Mollis", "state":"Glarus", "country":"Switzerland", "latitude":47.0937012, "longitude":9.075756, "population":4166}, 
{"name":"Nottwil", "state":"Luzern", "country":"Switzerland", "latitude":47.1343712, "longitude":8.13384, "population":4156}, 
{"name":"Ipsach", "state":"Bern", "country":"Switzerland", "latitude":47.11726, "longitude":7.2352224, "population":4139}, 
{"name":"Bremgarten", "state":"Bern", "country":"Switzerland", "latitude":46.9756064, "longitude":7.4372672, "population":4138}, 
{"name":"Giswil", "state":"Obwalden", "country":"Switzerland", "latitude":46.836864, "longitude":8.1813049, "population":4134}, 
{"name":"Erlinsbach", "state":"Solothurn", "country":"Switzerland", "latitude":47.400686, "longitude":8.0005483, "population":4116}, 
{"name":"Schmerikon", "state":"St. Gallen", "country":"Switzerland", "latitude":47.2267401, "longitude":8.9409202, "population":4114}, 
{"name":"Avenches", "state":"Vaud", "country":"Switzerland", "latitude":46.8802483, "longitude":7.0406069, "population":4114}, 
{"name":"Geroldswil", "state":"Zürich", "country":"Switzerland", "latitude":47.4224351, "longitude":8.4103762, "population":4090}, 
{"name":"Prangins", "state":"Vaud", "country":"Switzerland", "latitude":46.394529, "longitude":6.2498596, "population":4087}, 
{"name":"Wilen", "state":"Schwyz", "country":"Switzerland", "latitude":47.1970035, "longitude":8.7346169, "population":4083}, 
{"name":"Hünenberg", "state":"Zug", "country":"Switzerland", "latitude":47.1692582, "longitude":8.4503172, "population":4082}, 
{"name":"Moosseedorf", "state":"Bern", "country":"Switzerland", "latitude":47.0175195, "longitude":7.4822096, "population":4078}, 
{"name":"Lostorf", "state":"Solothurn", "country":"Switzerland", "latitude":47.3830688, "longitude":7.9517054, "population":4077}, 
{"name":"Niedergösgen", "state":"Solothurn", "country":"Switzerland", "latitude":47.3774173, "longitude":7.9881269, "population":4072}, 
{"name":"Vouvry", "state":"Valais", "country":"Switzerland", "latitude":46.3354291, "longitude":6.8860232, "population":4057}, 
{"name":"Erlinsbach", "state":"Aargau", "country":"Switzerland", "latitude":47.4074681, "longitude":8.0096756, "population":4050}, 
{"name":"Reichenburg", "state":"Schwyz", "country":"Switzerland", "latitude":47.1714448, "longitude":8.9742029, "population":4049}, 
{"name":"Pfungen", "state":"Zürich", "country":"Switzerland", "latitude":47.5158783, "longitude":8.6465365, "population":4046}, 
{"name":"Oberburg", "state":"Bern", "country":"Switzerland", "latitude":47.0394801, "longitude":7.6204781, "population":4032}, 
{"name":"Muhen", "state":"Aargau", "country":"Switzerland", "latitude":47.3350293, "longitude":8.0513559, "population":4031}, 
{"name":"Agno", "state":"Ticino", "country":"Switzerland", "latitude":45.9976614, "longitude":8.8977061, "population":4026}, 
{"name":"Mönchaltorf", "state":"Zürich", "country":"Switzerland", "latitude":47.3101561, "longitude":8.7219752, "population":4012}, 
{"name":"Breitenbach", "state":"Solothurn", "country":"Switzerland", "latitude":47.4075622, "longitude":7.5450151, "population":4004}, 
{"name":"Diessenhofen", "state":"Thurgau", "country":"Switzerland", "latitude":47.6900166, "longitude":8.748711, "population":3970}, 
{"name":"Erstfeld", "state":"Uri", "country":"Switzerland", "latitude":46.820312, "longitude":8.6503722, "population":3969}, 
{"name":"Bellevue", "state":"Genève", "country":"Switzerland", "latitude":46.2537684, "longitude":6.1532961, "population":3963}, 
{"name":"Vallorbe", "state":"Vaud", "country":"Switzerland", "latitude":46.7129027, "longitude":6.3800379, "population":3961}, 
{"name":"Steckborn", "state":"Thurgau", "country":"Switzerland", "latitude":47.6667469, "longitude":8.9834033, "population":3951}, 
{"name":"Granges", "state":"Fribourg", "country":"Switzerland", "latitude":46.8250893, "longitude":7.1415054, "population":3947}, 
{"name":"Küttigen", "state":"Aargau", "country":"Switzerland", "latitude":47.4130306, "longitude":8.0478042, "population":3945}, 
{"name":"Walchwil", "state":"Zug", "country":"Switzerland", "latitude":47.1002537, "longitude":8.5147758, "population":3945}, 
{"name":"Bösingen", "state":"Fribourg", "country":"Switzerland", "latitude":46.8942005, "longitude":7.2283794, "population":3930}, 
{"name":"Berneck", "state":"St. Gallen", "country":"Switzerland", "latitude":47.4245644, "longitude":9.6093955, "population":3897}, 
{"name":"Magden", "state":"Aargau", "country":"Switzerland", "latitude":47.5309242, "longitude":7.8108858, "population":3893}, 
{"name":"Widen", "state":"Aargau", "country":"Switzerland", "latitude":47.3676782, "longitude":8.3576684, "population":3881}, 
{"name":"Dürnten", "state":"Zürich", "country":"Switzerland", "latitude":47.2781374, "longitude":8.843186, "population":3877}, 
{"name":"Aarau", "state":"Aargau", "country":"Switzerland", "latitude":47.4020081, "longitude":8.0852854, "population":3873}, 
{"name":"Stansstad", "state":"Nidwalden", "country":"Switzerland", "latitude":46.9765946, "longitude":8.3395745, "population":3872}, 
{"name":"Bubikon", "state":"Zürich", "country":"Switzerland", "latitude":47.2690093, "longitude":8.8172255, "population":3871}, 
{"name":"Chambésy", "state":"Genève", "country":"Switzerland", "latitude":46.2406996, "longitude":6.1469318, "population":3868}, 
{"name":"Schindellegi", "state":"Schwyz", "country":"Switzerland", "latitude":47.1743757, "longitude":8.712701, "population":3861}, 
{"name":"Brig", "state":"Valais", "country":"Switzerland", "latitude":46.3165972, "longitude":7.9895851, "population":3856}, 
{"name":"Croix", "state":"Vaud", "country":"Switzerland", "latitude":46.8232482, "longitude":6.5029743, "population":3854}, 
{"name":"Grüningen", "state":"Zürich", "country":"Switzerland", "latitude":47.2847988, "longitude":8.7619229, "population":3853}, 
{"name":"Watt", "state":"Zürich", "country":"Switzerland", "latitude":47.4428134, "longitude":8.4812972, "population":3843}, 
{"name":"Stallikon", "state":"Zürich", "country":"Switzerland", "latitude":47.3258643, "longitude":8.4909971, "population":3838}, 
{"name":"Schüpfen", "state":"Bern", "country":"Switzerland", "latitude":47.038213, "longitude":7.3767965, "population":3835}, 
{"name":"Boll", "state":"Bern", "country":"Switzerland", "latitude":46.9535274, "longitude":7.5476095, "population":3834}, 
{"name":"Hausen", "state":"Aargau", "country":"Switzerland", "latitude":47.4621009, "longitude":8.2115512, "population":3827}, 
{"name":"Hedingen", "state":"Zürich", "country":"Switzerland", "latitude":47.2979377, "longitude":8.4503469, "population":3823}, 
{"name":"Niederurnen", "state":"Glarus", "country":"Switzerland", "latitude":47.1257118, "longitude":9.052937, "population":3822}, 
{"name":"Tann", "state":"Zürich", "country":"Switzerland", "latitude":47.2635466, "longitude":8.851552, "population":3814}, 
{"name":"Degersheim", "state":"St. Gallen", "country":"Switzerland", "latitude":47.3733876, "longitude":9.1969204, "population":3808}, 
{"name":"Founex", "state":"Vaud", "country":"Switzerland", "latitude":46.3329264, "longitude":6.1927319, "population":3806}, 
{"name":"Speicher", "state":"Appenzell Ausserrhoden", "country":"Switzerland", "latitude":47.4131847, "longitude":9.4427104, "population":3801}, 
{"name":"Hittnau", "state":"Zürich", "country":"Switzerland", "latitude":47.3609269, "longitude":8.8241016, "population":3793}, 
{"name":"Belmont", "state":"Vaud", "country":"Switzerland", "latitude":46.5201165, "longitude":6.6804205, "population":3788}, 
{"name":"Grindelwald", "state":"Bern", "country":"Switzerland", "latitude":46.6247573, "longitude":8.0458435, "population":3787}, 
{"name":"Oberrohrdorf", "state":"Aargau", "country":"Switzerland", "latitude":47.4227339, "longitude":8.3219864, "population":3778}, 
{"name":"Arth", "state":"Schwyz", "country":"Switzerland", "latitude":47.0635921, "longitude":8.5231392, "population":3770}, 
{"name":"Gipf-Oberfrick", "state":"Aargau", "country":"Switzerland", "latitude":47.497276, "longitude":8.0033944, "population":3763}, 
{"name":"Bronschhofen", "state":"St. Gallen", "country":"Switzerland", "latitude":47.475844, "longitude":9.0342719, "population":3760}, 
{"name":"Romanel", "state":"Vaud", "country":"Switzerland", "latitude":46.563194, "longitude":6.6061446, "population":3759}, 
{"name":"Bassecourt", "state":"Jura", "country":"Switzerland", "latitude":47.3362598, "longitude":7.2445487, "population":3756}, 
{"name":"Bevaix", "state":"Neuchâtel", "country":"Switzerland", "latitude":46.9308121, "longitude":6.8156305, "population":3754}, 
{"name":"Büren", "state":"Bern", "country":"Switzerland", "latitude":47.1398935, "longitude":7.374061, "population":3749}, 
{"name":"Bäretswil", "state":"Zürich", "country":"Switzerland", "latitude":47.3375353, "longitude":8.8557785, "population":3748}, 
{"name":"Eschenbach", "state":"Luzern", "country":"Switzerland", "latitude":47.1327753, "longitude":8.3202919, "population":3727}, 
{"name":"Kleindöttingen", "state":"Aargau", "country":"Switzerland", "latitude":47.5691602, "longitude":8.246471, "population":3727}, 
{"name":"Beckenried", "state":"Nidwalden", "country":"Switzerland", "latitude":46.9650886, "longitude":8.4687468, "population":3715}, 
{"name":"Lucens", "state":"Vaud", "country":"Switzerland", "latitude":46.7103224, "longitude":6.8379909, "population":3710}, 
{"name":"Gams", "state":"St. Gallen", "country":"Switzerland", "latitude":47.2037545, "longitude":9.4403586, "population":3710}, 
{"name":"Langendorf", "state":"Solothurn", "country":"Switzerland", "latitude":47.2217452, "longitude":7.5145507, "population":3700}, 
{"name":"Bramois", "state":"Valais", "country":"Switzerland", "latitude":46.2307537, "longitude":7.4039509, "population":3698}, 
{"name":"Niederwangen", "state":"Bern", "country":"Switzerland", "latitude":46.9258686, "longitude":7.3768837, "population":3688}, 
{"name":"Steinen", "state":"Schwyz", "country":"Switzerland", "latitude":47.0500776, "longitude":8.613179, "population":3687}, 
{"name":"Stettlen", "state":"Bern", "country":"Switzerland", "latitude":46.9591385, "longitude":7.522596, "population":3686}, 
{"name":"Neuveville", "state":"Bern", "country":"Switzerland", "latitude":47.0644543, "longitude":7.0970547, "population":3681}, 
{"name":"Leysin", "state":"Vaud", "country":"Switzerland", "latitude":46.3416367, "longitude":7.0125348, "population":3664}, 
{"name":"Zuzwil", "state":"St. Gallen", "country":"Switzerland", "latitude":47.4756844, "longitude":9.1101722, "population":3663}, 
{"name":"Elsau", "state":"Zürich", "country":"Switzerland", "latitude":47.5061537, "longitude":8.8025179, "population":3657}, 
{"name":"Mörschwil", "state":"St. Gallen", "country":"Switzerland", "latitude":47.4681785, "longitude":9.4244582, "population":3656}, 
{"name":"Flums", "state":"St. Gallen", "country":"Switzerland", "latitude":47.0908136, "longitude":9.3447035, "population":3651}, 
{"name":"Wangen", "state":"Schwyz", "country":"Switzerland", "latitude":47.1927364, "longitude":8.8955946, "population":3649}, 
{"name":"Ollon", "state":"Vaud", "country":"Switzerland", "latitude":46.2971332, "longitude":6.9945127, "population":3637}, 
{"name":"Zizers", "state":"Graubünden", "country":"Switzerland", "latitude":46.936647, "longitude":9.5660255, "population":3635}, 
{"name":"Luterbach", "state":"Solothurn", "country":"Switzerland", "latitude":47.2135641, "longitude":7.5813693, "population":3633}, 
{"name":"Sementina", "state":"Ticino", "country":"Switzerland", "latitude":46.1830529, "longitude":8.9867809, "population":3625}, 
{"name":"Ins", "state":"Bern", "country":"Switzerland", "latitude":47.0090962, "longitude":7.1019165, "population":3609}, 
{"name":"Selzach", "state":"Solothurn", "country":"Switzerland", "latitude":47.2060744, "longitude":7.4539311, "population":3589}, 
{"name":"Grosshöchstetten", "state":"Bern", "country":"Switzerland", "latitude":46.9070749, "longitude":7.6416542, "population":3588}, 
{"name":"Igis", "state":"Graubünden", "country":"Switzerland", "latitude":46.9452764, "longitude":9.5717308, "population":3580}, 
{"name":"Rüfenacht", "state":"Bern", "country":"Switzerland", "latitude":46.929708, "longitude":7.5385179, "population":3576}, 
{"name":"Biel-Benken BL", "state":"Basel-Landschaft", "country":"Switzerland", "latitude":47.5035711, "longitude":7.5192863, "population":3575}, 
{"name":"Stein", "state":"Schaffhausen", "country":"Switzerland", "latitude":47.6589357, "longitude":8.8601724, "population":3574}, 
{"name":"Yvonand", "state":"Vaud", "country":"Switzerland", "latitude":46.7982265, "longitude":6.7450912, "population":3559}, 
{"name":"Steinach", "state":"St. Gallen", "country":"Switzerland", "latitude":47.5026371, "longitude":9.4402289, "population":3554}, 
{"name":"Rheineck", "state":"St. Gallen", "country":"Switzerland", "latitude":47.4657996, "longitude":9.590041, "population":3554}, 
{"name":"Port", "state":"Bern", "country":"Switzerland", "latitude":47.1172231, "longitude":7.2554186, "population":3533}, 
{"name":"Sulgen", "state":"Thurgau", "country":"Switzerland", "latitude":47.543052, "longitude":9.1838278, "population":3525}, 
{"name":"Bonaduz", "state":"Graubünden", "country":"Switzerland", "latitude":46.811837, "longitude":9.40244, "population":3521}, 
{"name":"Bouveret", "state":"Valais", "country":"Switzerland", "latitude":46.3847379, "longitude":6.8511893, "population":3513}, 
{"name":"Ardon", "state":"Valais", "country":"Switzerland", "latitude":46.2104411, "longitude":7.2525681, "population":3508}, 
{"name":"Wolfhausen", "state":"Zürich", "country":"Switzerland", "latitude":47.2565581, "longitude":8.8000873, "population":3491}, 
{"name":"Adelboden", "state":"Bern", "country":"Switzerland", "latitude":46.4929114, "longitude":7.5588218, "population":3489}, 
{"name":"Eschlikon", "state":"Thurgau", "country":"Switzerland", "latitude":47.4655686, "longitude":8.96423, "population":3484}, 
{"name":"Muraz", "state":"Valais", "country":"Switzerland", "latitude":46.2802021, "longitude":6.9257641, "population":3471}, 
{"name":"Unterkulm", "state":"Aargau", "country":"Switzerland", "latitude":47.3105007, "longitude":8.1155304, "population":3467}, 
{"name":"Klingnau", "state":"Aargau", "country":"Switzerland", "latitude":47.5808739, "longitude":8.2498138, "population":3464}, 
{"name":"Tavannes", "state":"Bern", "country":"Switzerland", "latitude":47.2214997, "longitude":7.1973954, "population":3461}, 
{"name":"Tafers", "state":"Fribourg", "country":"Switzerland", "latitude":46.8154221, "longitude":7.2176078, "population":3461}, 
{"name":"Sins", "state":"Aargau", "country":"Switzerland", "latitude":47.1946327, "longitude":8.3954496, "population":3456}, 
{"name":"Triengen", "state":"Luzern", "country":"Switzerland", "latitude":47.2340761, "longitude":8.0773366, "population":3449}, 
{"name":"Ennetbaden", "state":"Aargau", "country":"Switzerland", "latitude":47.4805556, "longitude":8.3239968, "population":3436}, 
{"name":"Orpund", "state":"Bern", "country":"Switzerland", "latitude":47.1372408, "longitude":7.3128357, "population":3430}, 
{"name":"Kappel", "state":"Solothurn", "country":"Switzerland", "latitude":47.3225038, "longitude":7.8544747, "population":3415}, 
{"name":"Verbier", "state":"Valais", "country":"Switzerland", "latitude":46.0940756, "longitude":7.2195557, "population":3412}, 
{"name":"Givisiez", "state":"Fribourg", "country":"Switzerland", "latitude":46.8122055, "longitude":7.1265849, "population":3408}, 
{"name":"Blaise", "state":"Neuchâtel", "country":"Switzerland", "latitude":47.0134249, "longitude":6.9868822, "population":3405}, 
{"name":"Beinwil", "state":"Aargau", "country":"Switzerland", "latitude":47.2649907, "longitude":8.2084113, "population":3388}, 
{"name":"Turgi", "state":"Aargau", "country":"Switzerland", "latitude":47.4907283, "longitude":8.2536953, "population":3386}, 
{"name":"Buttisholz", "state":"Luzern", "country":"Switzerland", "latitude":47.1148615, "longitude":8.0945755, "population":3383}, 
{"name":"Obernau", "state":"Luzern", "country":"Switzerland", "latitude":47.0321521, "longitude":8.2534081, "population":3378}, 
{"name":"Stein", "state":"Aargau", "country":"Switzerland", "latitude":47.5434148, "longitude":7.9513581, "population":3376}, 
{"name":"Balerna", "state":"Ticino", "country":"Switzerland", "latitude":45.8495764, "longitude":9.0080627, "population":3373}, 
{"name":"Domdidier", "state":"Fribourg", "country":"Switzerland", "latitude":46.8647635, "longitude":7.0153536, "population":3367}, 
{"name":"Grandson", "state":"Vaud", "country":"Switzerland", "latitude":46.8083276, "longitude":6.6435875, "population":3345}, 
{"name":"Steinmaur", "state":"Zürich", "country":"Switzerland", "latitude":47.4991209, "longitude":8.4556694, "population":3342}, 
{"name":"Lützelflüh", "state":"Bern", "country":"Switzerland", "latitude":47.0051128, "longitude":7.6823277, "population":3340}, 
{"name":"Brienz", "state":"Bern", "country":"Switzerland", "latitude":46.7562289, "longitude":8.0235288, "population":3338}, 
{"name":"Thusis", "state":"Graubünden", "country":"Switzerland", "latitude":46.6943828, "longitude":9.4387885, "population":3330}, 
{"name":"Galgenen", "state":"Schwyz", "country":"Switzerland", "latitude":47.1823128, "longitude":8.8741868, "population":3327}, 
{"name":"Grosswangen", "state":"Luzern", "country":"Switzerland", "latitude":47.1332968, "longitude":8.0500483, "population":3324}, 
{"name":"Aubonne", "state":"Vaud", "country":"Switzerland", "latitude":46.4967194, "longitude":6.3921474, "population":3322}, 
{"name":"Belfaux", "state":"Fribourg", "country":"Switzerland", "latitude":46.8224025, "longitude":7.1069398, "population":3312}, 
{"name":"Ermatingen", "state":"Thurgau", "country":"Switzerland", "latitude":47.6698678, "longitude":9.0804374, "population":3288}, 
{"name":"Courrendlin", "state":"Jura", "country":"Switzerland", "latitude":47.3383586, "longitude":7.3792679, "population":3284}, 
{"name":"Fleurier", "state":"Neuchâtel", "country":"Switzerland", "latitude":46.9013405, "longitude":6.5818461, "population":3273}, 
{"name":"Tuggen", "state":"Schwyz", "country":"Switzerland", "latitude":47.2034712, "longitude":8.9404982, "population":3251}, 
{"name":"Penthalaz", "state":"Vaud", "country":"Switzerland", "latitude":46.6142635, "longitude":6.5293111, "population":3247}, 
{"name":"Studen", "state":"Bern", "country":"Switzerland", "latitude":47.1118173, "longitude":7.3007113, "population":3239}, 
{"name":"Wattenwil", "state":"Bern", "country":"Switzerland", "latitude":46.7705312, "longitude":7.5048732, "population":3220}, 
{"name":"Neerach", "state":"Zürich", "country":"Switzerland", "latitude":47.5134858, "longitude":8.4745212, "population":3218}, 
{"name":"Beromünster", "state":"Luzern", "country":"Switzerland", "latitude":47.2070218, "longitude":8.1931463, "population":3218}, 
{"name":"Spiegel", "state":"Bern", "country":"Switzerland", "latitude":46.9255669, "longitude":7.4329343, "population":3214}, 
{"name":"Trimmis", "state":"Graubünden", "country":"Switzerland", "latitude":46.8960256, "longitude":9.5639378, "population":3213}, 
{"name":"Möriken", "state":"Aargau", "country":"Switzerland", "latitude":47.4164738, "longitude":8.1909722, "population":3210}, 
{"name":"Seewen", "state":"Schwyz", "country":"Switzerland", "latitude":47.0297615, "longitude":8.630894, "population":3208}, 
{"name":"Troinex", "state":"Genève", "country":"Switzerland", "latitude":46.161152, "longitude":6.1485174, "population":3205}, 
{"name":"Commugny", "state":"Vaud", "country":"Switzerland", "latitude":46.3201712, "longitude":6.1803963, "population":3202}, 
{"name":"Müllheim", "state":"Thurgau", "country":"Switzerland", "latitude":47.6046436, "longitude":9.0092669, "population":3202}, 
{"name":"Arbedo", "state":"Ticino", "country":"Switzerland", "latitude":46.2137846, "longitude":9.0464833, "population":3185}, 
{"name":"Menzingen", "state":"Zug", "country":"Switzerland", "latitude":47.1787823, "longitude":8.5903153, "population":3182}, 
{"name":"Gais", "state":"Appenzell Ausserrhoden", "country":"Switzerland", "latitude":47.3622751, "longitude":9.4550293, "population":3174}, 
{"name":"Solduno", "state":"Ticino", "country":"Switzerland", "latitude":46.1710485, "longitude":8.7786895, "population":3170}, 
{"name":"Rorbas", "state":"Zürich", "country":"Switzerland", "latitude":47.52898, "longitude":8.5781192, "population":3164}, 
{"name":"Attalens", "state":"Fribourg", "country":"Switzerland", "latitude":46.5108462, "longitude":6.8492213, "population":3153}, 
{"name":"Wünnewil", "state":"Fribourg", "country":"Switzerland", "latitude":46.8745987, "longitude":7.2752296, "population":3148}, 
{"name":"Fahrweid", "state":"Zürich", "country":"Switzerland", "latitude":47.4104184, "longitude":8.4154937, "population":3141}, 
{"name":"Perly", "state":"Genève", "country":"Switzerland", "latitude":46.1559934, "longitude":6.0876892, "population":3137}, 
{"name":"Schänis", "state":"St. Gallen", "country":"Switzerland", "latitude":47.1599174, "longitude":9.0454091, "population":3135}, 
{"name":"Subingen", "state":"Solothurn", "country":"Switzerland", "latitude":47.1950586, "longitude":7.6183744, "population":3135}, 
{"name":"Uerikon", "state":"Zürich", "country":"Switzerland", "latitude":47.2345699, "longitude":8.7567486, "population":3128}, 
{"name":"Hettlingen", "state":"Zürich", "country":"Switzerland", "latitude":47.5483818, "longitude":8.7081188, "population":3121}, 
{"name":"Niederweningen", "state":"Zürich", "country":"Switzerland", "latitude":47.5041412, "longitude":8.3689803, "population":3120}, 
{"name":"Vacallo", "state":"Ticino", "country":"Switzerland", "latitude":45.8476485, "longitude":9.0349516, "population":3113}, 
{"name":"Kirchberg", "state":"St. Gallen", "country":"Switzerland", "latitude":47.4118053, "longitude":9.0406317, "population":3106}, 
{"name":"Puidoux", "state":"Vaud", "country":"Switzerland", "latitude":46.4938644, "longitude":6.7661304, "population":3099}, 
{"name":"Samstagern", "state":"Zürich", "country":"Switzerland", "latitude":47.1945846, "longitude":8.6783402, "population":3097}, 
{"name":"Waltenschwil", "state":"Aargau", "country":"Switzerland", "latitude":47.3338871, "longitude":8.3020931, "population":3092}, 
{"name":"Maienfeld", "state":"Graubünden", "country":"Switzerland", "latitude":47.0079895, "longitude":9.5314807, "population":3090}, 
{"name":"Claro", "state":"Ticino", "country":"Switzerland", "latitude":46.2534262, "longitude":9.0241754, "population":3086}, 
{"name":"Merenschwand", "state":"Aargau", "country":"Switzerland", "latitude":47.2602415, "longitude":8.3757627, "population":3085}, 
{"name":"Schenkon", "state":"Luzern", "country":"Switzerland", "latitude":47.1732539, "longitude":8.1355213, "population":3083}, 
{"name":"Netstal", "state":"Glarus", "country":"Switzerland", "latitude":47.0636365, "longitude":9.0508623, "population":3082}, 
{"name":"Benken", "state":"St. Gallen", "country":"Switzerland", "latitude":47.1991341, "longitude":9.0056763, "population":3080}, 
{"name":"Schafisheim", "state":"Aargau", "country":"Switzerland", "latitude":47.3781873, "longitude":8.1422713, "population":3078}, 
{"name":"Cugnasco", "state":"Ticino", "country":"Switzerland", "latitude":46.1741889, "longitude":8.9174987, "population":3065}, 
{"name":"Kollbrunn", "state":"Zürich", "country":"Switzerland", "latitude":47.4572967, "longitude":8.7766255, "population":3064}, 
{"name":"Gstaad", "state":"Bern", "country":"Switzerland", "latitude":46.4749634, "longitude":7.2862869, "population":3061}, 
{"name":"Matzingen", "state":"Thurgau", "country":"Switzerland", "latitude":47.5201096, "longitude":8.932561, "population":3052}, 
{"name":"Dättwil", "state":"Aargau", "country":"Switzerland", "latitude":47.4544481, "longitude":8.2859126, "population":3048}, 
{"name":"Othmarsingen", "state":"Aargau", "country":"Switzerland", "latitude":47.4021138, "longitude":8.2101467, "population":3047}, 
{"name":"Höri", "state":"Zürich", "country":"Switzerland", "latitude":47.5074239, "longitude":8.5084407, "population":3046}, 
{"name":"Thal", "state":"St. Gallen", "country":"Switzerland", "latitude":47.4650353, "longitude":9.5694486, "population":3041}, 
{"name":"Bütschwil", "state":"St. Gallen", "country":"Switzerland", "latitude":47.3589789, "longitude":9.0684871, "population":3037}, 
{"name":"Collonge-Bellerive", "state":"Genève", "country":"Switzerland", "latitude":46.2536787, "longitude":6.2040342, "population":3023}, 
{"name":"Boswil", "state":"Aargau", "country":"Switzerland", "latitude":47.3038128, "longitude":8.3088241, "population":3014}, 
{"name":"Freienbach", "state":"Schwyz", "country":"Switzerland", "latitude":47.2053274, "longitude":8.7605367, "population":3008}, 
{"name":"Bürglen", "state":"Thurgau", "country":"Switzerland", "latitude":47.5472156, "longitude":9.1542111, "population":3007}, 
{"name":"Sarmenstorf", "state":"Aargau", "country":"Switzerland", "latitude":47.3133472, "longitude":8.2519269, "population":2997}, 
{"name":"Inwil", "state":"Luzern", "country":"Switzerland", "latitude":47.1221948, "longitude":8.3502808, "population":2996}, 
{"name":"Immensee", "state":"Schwyz", "country":"Switzerland", "latitude":47.0956963, "longitude":8.461457, "population":2991}, 
{"name":"Rubigen", "state":"Bern", "country":"Switzerland", "latitude":46.8979149, "longitude":7.5492462, "population":2987}, 
{"name":"Däniken", "state":"Solothurn", "country":"Switzerland", "latitude":47.3552508, "longitude":7.9824508, "population":2984}, 
{"name":"Arzier-Muids", "state":"Vaud", "country":"Switzerland", "latitude":46.4605192, "longitude":6.2073593, "population":2982}, 
{"name":"Bergdietikon", "state":"Aargau", "country":"Switzerland", "latitude":47.3907569, "longitude":8.3803702, "population":2981}, 
{"name":"Bauma", "state":"Zürich", "country":"Switzerland", "latitude":47.3672887, "longitude":8.8772438, "population":2977}, 
{"name":"Rain", "state":"Luzern", "country":"Switzerland", "latitude":47.1297286, "longitude":8.263189, "population":2975}, 
{"name":"Coppet", "state":"Vaud", "country":"Switzerland", "latitude":46.3158766, "longitude":6.1930956, "population":2969}, 
{"name":"Nänikon", "state":"Zürich", "country":"Switzerland", "latitude":47.370182, "longitude":8.6933854, "population":2962}, 
{"name":"Hünibach", "state":"Bern", "country":"Switzerland", "latitude":46.745241, "longitude":7.65125, "population":2961}, 
{"name":"Felben-Wellhausen", "state":"Thurgau", "country":"Switzerland", "latitude":47.5769091, "longitude":8.9426506, "population":2961}, 
{"name":"Ballwil", "state":"Luzern", "country":"Switzerland", "latitude":47.1522892, "longitude":8.3207192, "population":2959}, 
{"name":"Oberkulm", "state":"Aargau", "country":"Switzerland", "latitude":47.2989764, "longitude":8.1240734, "population":2956}, 
{"name":"Engelburg", "state":"St. Gallen", "country":"Switzerland", "latitude":47.4437307, "longitude":9.3412287, "population":2942}, 
{"name":"Russikon", "state":"Zürich", "country":"Switzerland", "latitude":47.3962084, "longitude":8.7737907, "population":2939}, 
{"name":"Bürglen", "state":"Uri", "country":"Switzerland", "latitude":46.8752085, "longitude":8.662452, "population":2939}, 
{"name":"Ebmatingen", "state":"Zürich", "country":"Switzerland", "latitude":47.3514759, "longitude":8.6399721, "population":2933}, 
{"name":"Muralto", "state":"Ticino", "country":"Switzerland", "latitude":46.1726925, "longitude":8.8052719, "population":2922}, 
{"name":"Geuensee", "state":"Luzern", "country":"Switzerland", "latitude":47.1984433, "longitude":8.110138, "population":2920}, 
{"name":"Cadenazzo", "state":"Ticino", "country":"Switzerland", "latitude":46.1490206, "longitude":8.9520443, "population":2916}, 
{"name":"Samedan", "state":"Graubünden", "country":"Switzerland", "latitude":46.5338981, "longitude":9.8705549, "population":2911}, 
{"name":"Lohn", "state":"Solothurn", "country":"Switzerland", "latitude":47.1714687, "longitude":7.5294972, "population":2911}, 
{"name":"Birmenstorf", "state":"Aargau", "country":"Switzerland", "latitude":47.4618681, "longitude":8.2487098, "population":2907}, 
{"name":"Wangs", "state":"St. Gallen", "country":"Switzerland", "latitude":47.0307215, "longitude":9.4321493, "population":2901}, 
{"name":"Rickenbach", "state":"Luzern", "country":"Switzerland", "latitude":47.2198456, "longitude":8.1529543, "population":2901}, 
{"name":"Conversion", "state":"Vaud", "country":"Switzerland", "latitude":46.5149149, "longitude":6.6862191, "population":2898}, 
{"name":"Hausen", "state":"Zürich", "country":"Switzerland", "latitude":47.2423596, "longitude":8.5348601, "population":2892}, 
{"name":"Courroux", "state":"Jura", "country":"Switzerland", "latitude":47.3622156, "longitude":7.3751152, "population":2891}, 
{"name":"Lengnau", "state":"Aargau", "country":"Switzerland", "latitude":47.5199968, "longitude":8.3290389, "population":2884}, 
{"name":"Weisslingen", "state":"Zürich", "country":"Switzerland", "latitude":47.433435, "longitude":8.7651256, "population":2883}, 
{"name":"Saillon", "state":"Valais", "country":"Switzerland", "latitude":46.171379, "longitude":7.184742, "population":2881}, 
{"name":"Couvet", "state":"Neuchâtel", "country":"Switzerland", "latitude":46.925002, "longitude":6.6325533, "population":2878}, 
{"name":"Coldrerio", "state":"Ticino", "country":"Switzerland", "latitude":45.8534988, "longitude":8.985875, "population":2877}, 
{"name":"Horn", "state":"Thurgau", "country":"Switzerland", "latitude":47.4938397, "longitude":9.4631074, "population":2877}, 
{"name":"Cugy", "state":"Vaud", "country":"Switzerland", "latitude":46.5842447, "longitude":6.6411611, "population":2876}, 
{"name":"Staad", "state":"St. Gallen", "country":"Switzerland", "latitude":47.4805822, "longitude":9.5422246, "population":2872}, 
{"name":"Camorino", "state":"Ticino", "country":"Switzerland", "latitude":46.1636616, "longitude":9.0063955, "population":2871}, 
{"name":"Oberdiessbach", "state":"Bern", "country":"Switzerland", "latitude":46.8401367, "longitude":7.6193292, "population":2869}, 
{"name":"Stabio", "state":"Ticino", "country":"Switzerland", "latitude":45.8507279, "longitude":8.9385464, "population":2865}, 
{"name":"Gretzenbach", "state":"Solothurn", "country":"Switzerland", "latitude":47.3617376, "longitude":7.995936, "population":2860}, 
{"name":"Rickenbach", "state":"St. Gallen", "country":"Switzerland", "latitude":47.4345622, "longitude":9.0630746, "population":2851}, 
{"name":"Schübelbach", "state":"Schwyz", "country":"Switzerland", "latitude":47.1732437, "longitude":8.9281753, "population":2845}, 
{"name":"Corcelles", "state":"Neuchâtel", "country":"Switzerland", "latitude":46.985604, "longitude":6.8768823, "population":2843}, 
{"name":"Lotzwil", "state":"Bern", "country":"Switzerland", "latitude":47.1897359, "longitude":7.7883218, "population":2840}, 
{"name":"Tenero", "state":"Ticino", "country":"Switzerland", "latitude":46.1812574, "longitude":8.8484899, "population":2830}, 
{"name":"Muotathal", "state":"Schwyz", "country":"Switzerland", "latitude":46.9775399, "longitude":8.7599358, "population":2828}, 
{"name":"Neyruz", "state":"Fribourg", "country":"Switzerland", "latitude":46.7678946, "longitude":7.0652067, "population":2825}, 
{"name":"Toffen", "state":"Bern", "country":"Switzerland", "latitude":46.8585183, "longitude":7.4928198, "population":2812}, 
{"name":"Lonay", "state":"Vaud", "country":"Switzerland", "latitude":46.5264775, "longitude":6.5208808, "population":2808}, 
{"name":"Laupen", "state":"Bern", "country":"Switzerland", "latitude":46.902936, "longitude":7.2407935, "population":2800}, 
{"name":"Château-d'Oex", "state":"Vaud", "country":"Switzerland", "latitude":46.4727468, "longitude":7.1294303, "population":2795}, 
{"name":"Riaz", "state":"Fribourg", "country":"Switzerland", "latitude":46.6415, "longitude":7.0611659, "population":2788}, 
{"name":"Riddes", "state":"Valais", "country":"Switzerland", "latitude":46.1686645, "longitude":7.2203974, "population":2786}, 
{"name":"Savigny", "state":"Vaud", "country":"Switzerland", "latitude":46.5375908, "longitude":6.7330581, "population":2775}, 
{"name":"Wilderswil", "state":"Bern", "country":"Switzerland", "latitude":46.666086, "longitude":7.8694806, "population":2770}, 
{"name":"Otelfingen", "state":"Zürich", "country":"Switzerland", "latitude":47.4619059, "longitude":8.3871275, "population":2765}, 
{"name":"Corminboeuf", "state":"Fribourg", "country":"Switzerland", "latitude":46.808288, "longitude":7.1023256, "population":2764}, 
{"name":"Büron", "state":"Luzern", "country":"Switzerland", "latitude":47.2147389, "longitude":8.0909551, "population":2760}, 
{"name":"Wangen", "state":"Zürich", "country":"Switzerland", "latitude":47.4094629, "longitude":8.6464583, "population":2757}, 
{"name":"Meisterschwanden", "state":"Aargau", "country":"Switzerland", "latitude":47.2951359, "longitude":8.2344507, "population":2755}, 
{"name":"Riva San Vitale", "state":"Ticino", "country":"Switzerland", "latitude":45.9068233, "longitude":8.9696658, "population":2753}, 
{"name":"Nebikon", "state":"Luzern", "country":"Switzerland", "latitude":47.191229, "longitude":7.9746588, "population":2748}, 
{"name":"Ottenbach", "state":"Zürich", "country":"Switzerland", "latitude":47.2827713, "longitude":8.4043446, "population":2747}, 
{"name":"Escholzmatt", "state":"Luzern", "country":"Switzerland", "latitude":46.9139773, "longitude":7.9347387, "population":2746}, 
{"name":"Echandens", "state":"Vaud", "country":"Switzerland", "latitude":46.5328159, "longitude":6.5424106, "population":2744}, 
{"name":"Feuerthalen", "state":"Zürich", "country":"Switzerland", "latitude":47.6909483, "longitude":8.6410445, "population":2744}, 
{"name":"Felsberg", "state":"Graubünden", "country":"Switzerland", "latitude":46.8454279, "longitude":9.4705827, "population":2743}, 
{"name":"Vandoeuvres", "state":"Genève", "country":"Switzerland", "latitude":46.2212053, "longitude":6.2025655, "population":2743}, 
{"name":"Broc", "state":"Fribourg", "country":"Switzerland", "latitude":46.6049587, "longitude":7.0994738, "population":2740}, 
{"name":"Rütihof", "state":"Aargau", "country":"Switzerland", "latitude":47.4400875, "longitude":8.2683522, "population":2736}, 
{"name":"Urnäsch", "state":"Appenzell Ausserrhoden", "country":"Switzerland", "latitude":47.3170432, "longitude":9.2829369, "population":2732}, 
{"name":"Zollbrück", "state":"Bern", "country":"Switzerland", "latitude":46.9758105, "longitude":7.7413195, "population":2731}, 
{"name":"Oberwil", "state":"Zug", "country":"Switzerland", "latitude":47.147797, "longitude":8.5071172, "population":2729}, 
{"name":"Monte", "state":"Ticino", "country":"Switzerland", "latitude":46.1870895, "longitude":8.9970782, "population":2727}, 
{"name":"Ilanz", "state":"Graubünden", "country":"Switzerland", "latitude":46.7732354, "longitude":9.2031611, "population":2722}, 
{"name":"Zunzgen", "state":"Basel-Landschaft", "country":"Switzerland", "latitude":47.4502316, "longitude":7.807801, "population":2711}, 
{"name":"Dintikon", "state":"Aargau", "country":"Switzerland", "latitude":47.3618606, "longitude":8.2268279, "population":2708}, 
{"name":"Worben", "state":"Bern", "country":"Switzerland", "latitude":47.1001322, "longitude":7.2922748, "population":2707}, 
{"name":"Susten", "state":"Valais", "country":"Switzerland", "latitude":46.3083317, "longitude":7.6430673, "population":2698}, 
{"name":"Hitzkirch", "state":"Luzern", "country":"Switzerland", "latitude":47.2252278, "longitude":8.2643825, "population":2690}, 
{"name":"Hindelbank", "state":"Bern", "country":"Switzerland", "latitude":47.041769, "longitude":7.5400339, "population":2684}, 
{"name":"Niederscherli", "state":"Bern", "country":"Switzerland", "latitude":46.8856702, "longitude":7.3855122, "population":2675}, 
{"name":"Roveredo", "state":"Graubünden", "country":"Switzerland", "latitude":46.2331025, "longitude":9.120003, "population":2672}, 
{"name":"Courtételle", "state":"Jura", "country":"Switzerland", "latitude":47.3404124, "longitude":7.3159172, "population":2672}, 
{"name":"Cernier", "state":"Neuchâtel", "country":"Switzerland", "latitude":47.0614565, "longitude":6.9045612, "population":2668}, 
{"name":"Corcelles", "state":"Vaud", "country":"Switzerland", "latitude":46.83164, "longitude":6.9612122, "population":2660}, 
{"name":"Hauterive", "state":"Neuchâtel", "country":"Switzerland", "latitude":47.0135952, "longitude":6.971681, "population":2660}, 
{"name":"Lichtensteig", "state":"St. Gallen", "country":"Switzerland", "latitude":47.3225089, "longitude":9.088877, "population":2658}, 
{"name":"Sumiswald", "state":"Bern", "country":"Switzerland", "latitude":47.0277714, "longitude":7.744992, "population":2657}, 
{"name":"Antonino", "state":"Ticino", "country":"Switzerland", "latitude":46.1534216, "longitude":8.9786905, "population":2651}, 
{"name":"Untervaz", "state":"Graubünden", "country":"Switzerland", "latitude":46.9272186, "longitude":9.5350844, "population":2644}, 
{"name":"Waldkirch", "state":"St. Gallen", "country":"Switzerland", "latitude":47.4695365, "longitude":9.2849572, "population":2636}, 
{"name":"Froideville", "state":"Vaud", "country":"Switzerland", "latitude":46.6017761, "longitude":6.6807419, "population":2633}, 
{"name":"Lufingen", "state":"Zürich", "country":"Switzerland", "latitude":47.4904, "longitude":8.5936672, "population":2627}, 
{"name":"Rothenthurm", "state":"Schwyz", "country":"Switzerland", "latitude":47.1050704, "longitude":8.675138, "population":2619}, 
{"name":"Zwingen", "state":"Basel-Landschaft", "country":"Switzerland", "latitude":47.4374513, "longitude":7.5296798, "population":2619}, 
{"name":"Weiningen", "state":"Zürich", "country":"Switzerland", "latitude":47.4206319, "longitude":8.4359841, "population":2618}, 
{"name":"Wimmis", "state":"Bern", "country":"Switzerland", "latitude":46.6729735, "longitude":7.6352912, "population":2614},